     2.11           OBSERVATION DATA    M (MIXED)           RINEX VERSION / TYPE
teqc  2015Jun23                         20220228 18:49:20UTCPGM / RUN BY / DATE
OSX ker:10.10.3|Core i5|gcc 4.2 -m64|OSX ker:10.10+|=+      COMMENT
teqc  2015Jun23                         20220228 18:49:20UTCCOMMENT
teqc  2013Mar15     gpsops              20140216 00:09:41UTCCOMMENT
Linux 2.4.21-27.ELsmp|Opteron|gcc -static|Linux x86_64|=+   COMMENT
BIT 2 OF LLI FLAGS DATA COLLECTED UNDER A/S CONDITION       COMMENT
BSHM                                                        MARKER NAME
20705M001                                                   MARKER NUMBER
GGN                 JPL                                     OBSERVER / AGENCY
2334                JPS EGGDT           2.7.0               REC # / TYPE / VERS
4811A47089          TRM59800.00     SCIS                    ANT # / TYPE
  4395951.3969  3080707.1200  3433498.1041                  APPROX POSITION XYZ
        0.0000        0.0000        0.0000                  ANTENNA: DELTA H/E/N
     1     1                                                WAVELENGTH FACT L1/2
     2    L1    C1                                          # / TYPES OF OBSERV
    30.0000                                                 INTERVAL
    16                                                      LEAP SECONDS
                                                            COMMENT
This data is provided as a public service by NASA/JPL.      COMMENT
No warranty is expressed or implied regarding suitability   COMMENT
for use.  For further information, contact:                 COMMENT
Dave Stowers, NASA/JPL m/s 238-600                          COMMENT
4800 Oak Grove Drive, Pasadena CA 91109 USA                 COMMENT
                                                            COMMENT
Forced Modulo Decimation to 30 seconds                      COMMENT
 SNR is mapped to RINEX snr flag value [0-9]                COMMENT
  L1 & L2: min(max(int(snr_dBHz/6), 0), 9)                  COMMENT
pseudorange smoothing corrections not applied               COMMENT
teqc edited: all GLONASS satellites excluded                COMMENT
teqc edited: all Galileo satellites excluded                COMMENT
  2014     2    15     0     0    0.0000000     GPS         TIME OF FIRST OBS
                                                            END OF HEADER
 14  2 15  0  0  0.0000000  0  7G12G05G21G02G25G31G29
 116634902.631 8  22194861.279
 118973145.931 7  22639820.006
 114792324.577 8  21844242.000
 126396560.180 7  24052411.866
 106732503.991 9  20310516.340
 119881943.854 7  22812775.889
 108894305.222 8  20721880.056
 14  2 15  0  0 30.0000000  0  7G12G05G21G02G25G31G29
 116712885.479 8  22209701.576
 118978357.486 7  22640811.005
 114740213.665 8  21834325.707
 126486286.252 7  24069487.449
 106752490.198 9  20314319.564
 119872972.862 8  22811068.115
 108892940.995 8  20721620.351
 14  2 15  0  1  0.0000000  0  7G12G05G21G02G25G31G29
 116791198.750 8  22224604.135
 118984136.325 8  22641911.200
 114688448.477 8  21824474.888
 126576069.744 7  24086571.663
 106772976.266 9  20318218.064
 119864539.997 7  22809464.265
 108891737.953 8  20721391.614
 14  2 15  0  1 30.0000000  0  7G12G05G21G02G25G31G29
 116869836.399 8  22239568.547
 118990478.105 7  22643117.595
 114637024.937 8  21814689.769
 126665904.539 7  24103666.546
 106793958.065 9  20322210.552
 119856640.475 7  22807960.841
 108890691.415 8  20721192.482
 14  2 15  0  2  0.0000000  0  8G12G05G18G21G02G25G31G29
 116948790.843 8  22254592.626
 118997376.343 8  22644430.971
 129824459.238 5  24704771.285
 114585936.610 8  21804967.963
 126755782.109 6  24120769.138
 106815429.178 9  20326296.274
 119849267.404 7  22806557.951
 108889794.100 8  20721021.859
 14  2 15  0  2 30.0000000  0  8G12G05G18G21G02G25G31G29
 117028077.216 8  22269680.558
 119004848.144 8  22645852.498
 129730917.164 5  24686970.175
 114535200.741 8  21795313.410
 126845717.777 7  24137883.432
 106837406.510 9  20330478.621
 119842437.201 8  22805257.559
 108889062.795 9  20720882.696
 14  2 15  0  3  0.0000000  0  8G12G05G18G21G02G25G31G29
 117107683.130 8  22284828.843
 119012882.348 7  22647381.105
 129637283.351 6  24669151.115
 114484806.113 8  21785723.180
 126935698.338 6  24155005.930
 106859878.904 9  20334755.154
 119836137.985 7  22804059.342
 108888486.280 8  20720773.116
 14  2 15  0  3 30.0000000  0  8G12G05G18G21G02G25G31G29
 117187603.023 8  22300037.282
 119021474.801 7  22649015.331
 129543556.100 6  24651314.974
 114434748.349 8  21776197.715
 127025717.523 7  24172137.055
 106882842.181 9  20339125.056
 119830365.185 7  22802960.640
 108888059.704 9  20720691.872
 14  2 15  0  4  0.0000000  0  8G12G05G18G21G02G25G31G29
 117267851.321 8  22315307.951
 119030641.058 8  22650760.228
 129449752.795 6  24633466.169
 114385042.715 8  21766738.859
 127115789.227 6  24189276.430
 106906312.049 9  20343591.141
 119825133.825 7  22801964.896
 108887798.469 9  20720641.996
 14  2 15  0  4 30.0000000  0  8G12G05G18G21G02G25G31G29
 117348412.574 8  22330638.678
 119040367.046 7  22652611.110
 129355861.663 6  24615601.090
 114335675.865 8  21757344.717
 127205897.633 7  24206424.572
 106930274.523 8  20348151.073
 119820429.323 7  22801070.025
 108887687.876 8  20720620.779
 14  2 15  0  5  0.0000000  0  8G12G05G18G21G02G25G31G29
 117429295.323 8  22346029.824
 119050662.593 7  22654570.269
 129261894.758 6  24597716.227
 114286657.500 8  21748017.048
 127296050.812 6  24223579.574
 106954739.510 9  20352806.488
 119816261.019 7  22800276.620
 108887737.815 9  20720630.268
 14  2 15  0  5 30.0000000  0  8G12G05G18G21G02G25G31G29
 117510488.861 8  22361480.653
 119061518.970 8  22656635.917
 129167844.802 6  24579819.957
 114237978.355 8  21738753.244
 127386237.552 7  24240742.269
 106979697.916 9  20357555.671
 119812619.179 8  22799583.610
 108887939.420 9  20720668.702
 14  2 15  0  6  0.0000000  0  8G12G05G18G21G02G25G31G29
 117592001.416 8  22376991.587
 119072945.758 7  22658811.360
 129073724.095 6  24561911.454
 114189648.630 8  21729556.478
 127476466.009 6  24257911.317
 107005159.594 9  20362401.172
 119809513.232 7  22798992.789
 108888301.901 8  20720737.710
 14  2 15  0  6 30.0000000  0  8G12G05G18G21G02G25G31G29
 117673826.813 8  22392562.701
 119084937.536 8  22661092.401
 128979529.297 6  24543985.949
 114141662.349 8  21720424.643
 127566729.195 6  24275086.735
 107031119.171 8  20367340.980
 119806937.211 7  22798501.991
 108888819.641 8  20720836.165
 14  2 15  0  7  0.0000000  0  8G12G05G18G21G02G25G31G29
 117755963.899 8  22408192.674
 119097494.887 8  22663482.773
 128885263.402 6  24526045.728
 114094020.757 8  21711359.263
 127657025.616 6  24292270.491
 107057577.166 9  20372375.759
 119804891.019 7  22798113.277
 108889492.617 8  20720964.437
 14  2 15  0  7 30.0000000  0  8G12G05G18G21G02G25G31G29
 117838410.691 8  22423881.674
 119110616.752 8  22665979.754
 128790927.106 6  24508093.054
 114046722.673 8  21702358.409
 127747353.073 6  24309459.780
 107084532.770 8  20377505.378
 119803372.979 7  22797824.591
 108890320.452 8  20721122.058
 14  2 15  0  8  0.0000000  0  8G12G05G18G21G02G25G31G29
 117921173.436 8  22439631.489
 119124310.552 7  22668584.492
 128696530.564 6  24490131.162
 113999775.932 8  21693425.118
 127837717.234 6  24326655.809
 107111993.504 9  20382731.111
 119802390.013 7  22797637.679
 108891310.435 8  20721310.161
 14  2 15  0  8 30.0000000  0  8G12G05G18G21G02G25G31G29
 118004238.348 8  22455438.902
 119138564.017 7  22671296.927
 128602063.698 6  24472154.471
 113953168.056 8  21684555.450
 127928104.266 6  24343855.845
 107139947.087 9  20388050.503
 119801929.432 7  22797550.239
 108892450.038 8  20721527.280
 14  2 15  0  9  0.0000000  0  8G12G05G18G21G02G25G31G29
 118087612.147 8  22471303.695
 119153385.306 7  22674118.012
 128507537.440 6  24454166.718
 113906907.629 8  21675752.607
 128018520.498 6  24361060.877
 107168401.811 9  20393465.267
 119801998.955 8  22797562.630
 108893747.088 8  20721773.956
 14  2 15  0  9 30.0000000  0  8G12G05G18G21G02G25G31G29
 118171293.311 8  22487227.516
 119168773.843 7  22677046.213
 128412953.112 6  24436167.287
 113860994.107 8  21667015.539
 128108963.895 6  24378271.900
 107197357.031 9  20398975.271
 119802597.199 8  22797676.654
 108895201.467 8  20722050.903
 14  2 15  0 10  0.0000000  0  8G12G05G18G21G02G25G31G29
 118255274.758 8  22503208.642
 119184723.926 7  22680081.298
 128318307.332 6  24418156.002
 113815421.602 8  21658343.713
 128199427.525 6  24395486.032
 107226807.145 8  20404579.080
 119803717.912 7  22797890.479
 108896807.557 8  20722355.984
 14  2 15  0 10 30.0000000  0  8G12G05G18G21G02G25G31G29
 118339565.088 8  22519248.076
 119201245.329 7  22683225.512
 128223612.452 6  24400136.692
 113770200.487 8  21649738.065
 128289919.116 6  24412706.254
 107256761.935 8  20410279.221
 119805370.190 7  22798204.204
 108898574.947 8  20722692.584
 14  2 15  0 11  0.0000000  0  8G12G05G18G21G02G25G31G29
 118424158.757 8  22535346.604
 119218333.758 7  22686476.778
 128128866.395 6  24382106.555
 113725326.119 8  21641199.249
 128380433.265 6  24429931.261
 107287217.240 9  20416074.967
 119807549.257 8  22798619.484
 108900499.291 8  20723059.031
 14  2 15  0 11 30.0000000  0  8G12G05G18G21G02G25G31G29
 118509049.013 8  22551500.575
 119235983.376 7  22689835.246
 128034066.557 6  24364067.072
 113680793.206 8  21632724.739
 128470963.238 6  24447156.660
 107318167.938 8  20421964.700
 119810249.544 7  22799132.695
 108902575.554 8  20723454.117
 14  2 15  0 12  0.0000000  0  8G12G05G18G21G02G25G31G29
 118594241.880 8  22567711.898
 119254201.488 7  22693302.174
 127939222.680 6  24346020.244
 113636609.878 8  21624316.580
 128561514.663 6  24464388.028
 107349621.057 8  20427950.013
 119813477.376 7  22799747.302
 108904811.126 8  20723879.397
 14  2 15  0 12 30.0000000  0  8G12G05G18G21G02G25G31G29
 118679735.543 8  22583980.595
 119272987.654 7  22696877.845
 127844336.135 6  24327964.209
 113592775.314 8  21615975.093
 128652085.523 6  24481625.072
 107381576.039 9  20434030.781
 119817231.450 7  22800461.757
 108907205.377 9  20724335.077
 14  2 15  0 13  0.0000000  0  8G12G05G18G21G02G25G31G29
 118765520.497 8  22600304.753
 119292333.627 7  22700558.745
 127749402.279 6  24309898.120
 113549281.405 8  21607698.310
 128742666.361 6  24498861.206
 107414024.852 9  20440205.605
 119821503.130 8  22801274.318
 108909750.209 8  20724819.670
 14  2 15  0 13 30.0000000  0  8G12G05G18G21G02G25G31G29
 118851601.972 8  22616685.759
 119312245.282 7  22704347.654
 127654429.339 6  24291824.632
 113506134.597 8  21599487.770
 128833261.991 6  24516100.394
 107446973.755 9  20446475.525
 119826297.955 7  22802186.897
 108912451.548 8  20725333.854
 14  2 15  0 14  0.0000000  0  8G12G05G18G21G02G25G31G29
 118937980.560 7  22633123.409
 119332724.532 7  22708244.865
 127559421.328 6  24273744.291
 113463336.776 8  21591343.795
 128923872.680 6  24533343.813
 107480424.488 9  20452841.173
 119831617.176 8  22803198.823
 108915312.245 8  20725877.915
 14  2 15  0 14 30.0000000  0  8G12G05G18G21G02G25G31G29
 119024647.392 7  22649615.393
 119353763.722 7  22712248.506
 127464373.492 6  24255658.198
 113420880.273 8  21583264.619
 129014489.814 6  24550587.423
 107514369.593 8  20459300.793
 119837452.282 8  22804309.794
 108918324.939 8  20726451.367
 14  2 15  0 15  0.0000000  0  8G12G05G18G21G02G25G31G29
 119111610.777 8  22666163.685
 119375372.355 7  22716360.411
 127369297.248 6  24237566.931
 113378775.196 8  21575252.445
 129105121.546 6  24567834.858
 107548818.601 9  20465856.087
 119843812.525 7  22805519.661
 108921499.092 8  20727055.168
 14  2 15  0 15 30.0000000  0  8G12G05G18G21G02G25G31G29
 119198854.992 8  22682766.447
 119397535.562 7  22720577.689
 127274181.881 6  24219468.032
 113337006.898 8  21567304.159
 129195751.976 6  24585080.782
 107583756.919 9  20472504.791
 119850682.464 8  22806826.958
 108924820.282 9  20727687.114
 14  2 15  0 16  0.0000000  0  8G12G05G18G21G02G25G31G29
 119286398.535 8  22699424.825
 119420273.204 8  22724904.310
 127179049.758 6  24201363.320
 113295596.072 8  21559423.783
 129286400.039 6  24602330.911
 107619204.804 9  20479250.320
 119858081.773 8  22808235.560
 108928309.146 9  20728350.887
 14  2 15  0 16 30.0000000  0  8G12G05G18G21G02G25G31G29
 119374222.488 8  22716137.454
 119443566.563 7  22729337.115
 127083884.353 6  24183253.214
 113254524.022 8  21551608.177
 129377046.233 6  24619579.986
 107655143.572 9  20486089.312
 119865991.210 7  22809739.802
 108931947.471 8  20729043.193
 14  2 15  0 17  0.0000000  0  8G12G05G18G21G02G25G31G29
 119462332.238 8  22732904.418
 119467422.336 7  22733876.741
 126988695.988 6  24165138.994
 113213797.899 8  21543858.190
 129467695.970 6  24636829.288
 107691580.246 9  20493022.662
 119874416.839 8  22811343.500
 108935742.544 9  20729765.378
 14  2 15  0 17 30.0000000  0  8G12G05G18G21G02G25G31G29
 119550730.011 8  22749725.723
 119491843.889 7  22738523.960
 126893490.859 7  24147023.404
 113173421.094 8  21536174.674
 129558351.505 6  24654081.754
 107728518.189 9  20500051.819
 119883361.635 8  22813045.827
 108939697.947 8  20730518.214
 14  2 15  0 18  0.0000000  0  8G12G05G18G21G02G25G31G29
 119639411.305 7  22766600.967
 119516827.933 7  22743278.355
 126798268.089 6  24128903.892
 113133390.560 8  21528557.037
 129649008.442 6  24671333.506
 107765954.104 9  20507175.739
 119892821.420 7  22814845.884
 108943810.890 8  20731300.679
 14  2 15  0 18 30.0000000  0  8G12G05G18G21G02G25G31G29
 119728369.091 8  22783529.452
 119542368.283 7  22748138.920
 126703024.233 6  24110777.772
 113093701.404 8  21521004.350
 129739659.835 6  24688582.739
 107803882.320 9  20514393.000
 119902789.940 8  22816742.907
 108948075.488 9  20732112.484
 14  2 15  0 19  0.0000000  0  8G12G05G18G21G02G25G31G29
 119817605.745 8  22800510.119
 119568468.570 8  22753105.366
 126607766.573 6  24092651.793
 113054357.212 8  21513517.555
 129830308.537 6  24705832.456
 107842306.615 9  20521705.188
 119913270.229 8  22818737.145
 108952496.638 8  20732953.527
 14  2 15  0 19 30.0000000  0  8G12G05G18G21G02G25G31G29
 119907125.032 8  22817545.650
 119595132.589 7  22758179.210
 126512501.541 6  24074522.046
 113015362.345 8  21506097.034
 129920957.232 6  24723082.351
 107881230.897 9  20529112.318
 119924265.465 7  22820829.068
 108957078.683 9  20733825.964
 14  2 15  0 20  0.0000000  0  8G12G05G18G21G02G25G31G29
 119996915.320 8  22834631.768
 119622350.166 7  22763358.396
 126417221.686 6  24056391.421
 112976705.810 8  21498741.192
 130011594.849 6  24740329.954
 107920644.973 9  20536612.326
 119935764.826 7  22823017.966
 108961811.754 8  20734726.566
 14  2 15  0 20 30.0000000  0  8G12G05G18G21G02G25G31G29
 120086988.562 7  22851771.895
 119650134.814 7  22768645.243
 126321943.385 6  24038260.320
 112938402.413 8  21491451.944
 130102234.169 6  24757580.255
 107960562.655 9  20544208.215
 119947781.232 7  22825304.457
 108966710.120 9  20735658.487
 14  2 15  0 21  0.0000000  0  8G12G05G18G21G02G25G31G29
 120177330.612 7  22868963.835
 119678472.674 7  22774038.088
 126226656.491 6  24020128.517
 112900438.622 8  21484227.869
 130192860.736 6  24774825.161
 108000970.417 8  20551897.990
 119960300.825 8  22827687.111
 108971760.651 8  20736619.359
 14  2 15  0 21 30.0000000  0  8G12G05G18G21G02G25G31G29
 120267945.977 7  22886207.519
 119707368.488 7  22779537.125
 126131369.453 6  24001996.177
 112862819.810 8  21477069.077
 130283479.060 6  24792070.017
 108041873.654 9  20559681.324
 119973328.112 8  22830165.584
 108976969.472 9  20737610.305
 14  2 15  0 22  0.0000000  0  8G12G05G18G21G02G25G31G29
 120358829.572 7  22903501.793
 119736819.242 7  22785141.188
 126036081.425 6  23983863.669
 112825544.047 8  21469975.889
 130374084.690 6  24809310.946
 108083268.908 9  20567558.759
 119986858.845 7  22832740.837
 108982333.710 8  20738631.235
 14  2 15  0 22 30.0000000  0  8G12G05G18G21G02G25G31G29
 120449987.286 8  22920849.351
 119766831.211 7  22790852.082
 125940802.059 6  23965731.826
 112788616.656 8  21462948.912
 130464683.455 6  24826552.148
 108125162.943 8  20575530.836
 120000899.204 7  22835412.656
 108987860.678 8  20739683.366
 14  2 15  0 23  0.0000000  0  8G12G05G18G21G02G25G31G29
 120541413.127 8  22938246.582
 119797398.667 7  22796669.340
 125845528.706 6  23947602.005
 112752033.642 8  21455987.324
 130555268.728 6  24843790.125
 108167550.220 9  20583597.009
 120015442.759 8  22838180.250
 108993545.446 9  20740765.198
 14  2 15  0 23 30.0000000  0  8G12G05G18G21G02G25G31G29
 120633099.307 7  22955693.795
 119828515.011 7  22802590.107
 125750258.140 6  23929471.555
 112715788.865 8  21449090.208
 130645833.675 6  24861022.718
 108210424.556 9  20591755.722
 120030482.682 8  22841042.227
 108999382.484 9  20741875.874
 14  2 15  0 24  0.0000000  0  8G12G05G18G21G02G25G31G29
 120725053.754 8  22973192.450
 119860189.137 7  22808618.151
 125655002.384 6  23911345.731
 112679890.636 8  21442258.756
 130736386.419 6  24878253.714
 108253794.850 9  20600008.969
 120046027.272 8  22844000.169
 109005381.560 8  20743017.117
 14  2 15  0 24 30.0000000  0  8G12G05G18G21G02G25G31G29
 120817273.720 7  22990741.224
 119892419.302 7  22814751.574
 125559762.937 6  23893221.983
 112644339.017 8  21435493.699
 130826924.872 6  24895483.028
 108297659.784 9  20608356.200
 120062074.571 7  22847053.706
 109011541.812 8  20744189.469
 14  2 15  0 25  0.0000000  0  8G12G05G18G21G02G25G31G29
 120909753.497 7  23008339.293
 119925200.102 7  22820989.402
 125464537.621 6  23875100.442
 112609128.429 8  21428793.196
 130917442.851 6  24912706.960
 108342013.975 9  20616796.252
 120078618.293 8  22850202.012
 109017858.529 9  20745391.550
 14  2 15  0 25 30.0000000  0  8G12G05G18G21G02G25G31G29
 121002487.423 7  23025986.000
 119958527.007 7  22827330.698
 125369325.161 6  23856982.405
 112574255.069 8  21422156.928
 131007935.337 6  24929930.003
 108386853.168 9  20625329.044
 120095653.508 8  22853443.816
 109024328.603 8  20746623.039
 14  2 15  0 26  0.0000000  0  8G12G05G18G21G02G25G31G29
 121095482.705 7  23043682.573
 119992407.956 7  22833778.912
 125274137.231 7  23838869.743
 112539727.301 8  21415586.512
 131098410.020 6  24947146.331
 108432185.646 9  20633955.439
 120113187.742 8  22856780.082
 109030960.897 9  20747885.161
 14  2 15  0 26 30.0000000  0  8G12G05G18G21G02G25G31G29
 121188733.898 7  23061427.960
 120026838.071 8  22840330.551
 125178972.155 6  23820760.355
 112505540.664 8  21409081.085
 131188861.546 6  24964358.863
 108478006.842 9  20642675.076
 120131215.685 7  22860211.197
 109037751.688 8  20749176.942
 14  2 15  0 27  0.0000000  0  8G12G05G18G21G02G25G31G29
 121282237.503 8  23079220.948
 120061814.457 7  22846985.321
 125083830.290 6  23802655.415
 112471693.527 8  21402640.209
 131279286.518 6  24981564.915
 108524313.925 9  20651486.793
 120149734.067 7  22863734.962
 109044698.762 8  20750499.028
 14  2 15  0 27 30.0000000  0  8G12G05G18G21G02G25G31G29
 121376004.289 7  23097064.348
 120097348.790 7  22853748.246
 124988726.698 6  23784557.899
 112438197.650 8  21396266.177
 131369696.699 6  24998769.177
 108571119.063 9  20660393.453
 120168753.950 7  22867354.744
 109051815.149 8  20751852.952
 14  2 15  0 28  0.0000000  0  8G12G05G18G21G02G25G31G29
 121470014.762 7  23114953.113
 120133422.377 7  22860613.122
 124893646.321 7  23766464.219
 112405035.248 8  21389955.447
 131460072.492 6  25015967.182
 108618403.712 9  20669391.714
 120188256.291 7  22871065.142
 109059083.531 8  20753236.549
 14  2 15  0 28 30.0000000  0  8G12G05G18G21G02G25G31G29
 121564278.439 7  23132890.682
 120170045.107 7  22867581.670
 124798602.559 7  23748379.309
 112372216.810 8  21383710.745
 131550423.843 6  25033161.582
 108666178.170 9  20678482.908
 120208250.317 7  22874870.563
 109066514.570 8  20754650.739
 14  2 15  0 29  0.0000000  0  8G12G05G18G21G02G25G31G29
 121658793.779 7  23150876.668
 120207216.281 7  22874655.083
 124703598.103 6  23730300.466
 112339742.403 8  21377530.715
 131640749.960 6  25050350.798
 108714442.033 9  20687666.931
 120228735.222 8  22878768.941
 109074109.477 9  20756095.594
 14  2 15  0 29 30.0000000  0  8G12G05G18G21G02G25G31G29
 121753548.989 7  23168908.518
 120244924.689 8  22881830.687
 124608625.106 6  23712227.312
 112307600.754 8  21371414.569
 131731039.190 6  25067531.914
 108763184.228 9  20696942.615
 120249699.110 7  22882757.524
 109081857.547 8  20757570.158
 14  2 15  0 30  0.0000000  0  8G12G05G18G21G02G25G31G29
 121848554.156 7  23186986.826
 120283180.939 8  22889110.942
 124513697.932 6  23694162.726
 112275803.743 8  21365363.854
 131821301.638 6  25084707.111
 108812415.635 8  20706310.965
 120271152.250 7  22886840.119
 109089771.010 8  20759076.186
 14  2 15  0 30 30.0000000  0  8G12G05G18G21G02G25G31G29
 121943801.845 7  23205111.674
 120321978.785 8  22896493.761
 124418814.174 7  23676106.610
 112244345.946 8  21359377.409
 131911531.326 6  25101878.610
 108862130.429 8  20715771.467
 120293087.897 7  22891014.575
 109097844.615 8  20760612.436
 14  2 15  0 31  0.0000000  0  8G12G05G18G21G02G25G31G29
 122039287.741 7  23223282.938
 120361313.850 8  22903978.928
 124323972.777 7  23658059.510
 112213223.099 8  21353454.877
 132001723.823 6  25119041.562
 108912324.588 8  20725322.964
 120315501.389 7  22895279.894
 109106075.965 8  20762178.922
 14  2 15  0 31 30.0000000  0  8G12G05G18G21G02G25G31G29
 122135014.305 7  23241499.491
 120401189.066 7  22911567.227
 124229180.304 6  23640020.685
 112182439.231 8  21347596.731
 132091881.720 6  25136198.134
 108963001.156 9  20734966.306
 120338395.017 8  22899636.839
 109114468.863 8  20763775.928
 14  2 15  0 32  0.0000000  0  7G12G05G18G21G25G31G29
 122230980.520 7  23259760.884
 120441604.628 7  22919257.227
 124134440.329 7  23621992.234
 112151994.912 8  21341803.729
 109014160.434 9  20744701.362
 120361768.253 8  22904083.577
 109123024.714 8  20765404.452
 14  2 15  0 32 30.0000000  0  7G12G05G18G21G25G31G29
 122327187.681 7  23278068.430
 120482562.287 7  22927051.922
 124039758.637 7  23603975.403
 112121892.771 8  21336075.159
 109065804.804 8  20754529.360
 120385622.865 7  22908623.041
 109131746.925 8  20767064.007
 14  2 15  0 33  0.0000000  0  7G12G05G18G21G25G31G29
 122423623.169 7  23296418.906
 120524049.470 8  22934946.630
 123945126.297 7  23585967.701
 112092121.162 8  21330409.988
 109117922.007 9  20764446.869
 120409945.696 8  22913251.713
 109140624.319 8  20768752.882
 14  2 15  0 33 30.0000000  0  7G12G05G18G21G25G31G29
 122520297.987 7  23314816.968
 120566078.160 8  22942944.215
 123850559.038 7  23567970.700
 112062692.732 8  21324810.098
 109170524.265 8  20774456.904
 120434748.298 7  22917971.397
 109149670.514 8  20770475.216
 14  2 15  0 34  0.0000000  0  7G12G05G18G21G25G31G29
 122617196.735 7  23333254.639
 120608633.401 7  22951042.512
 123756045.491 6  23549985.594
 112033593.314 8  21319272.200
 109223596.954 8  20784556.072
 120460015.198 8  22922779.845
 109158871.765 8  20772225.541
 14  2 15  0 34 30.0000000  0  7G12G05G18G21G25G31G29
 122714336.063 7  23351740.211
 120651732.455 7  22959244.114
 123661606.833 7  23532014.902
 112004840.755 8  21313800.756
 109277157.494 8  20794748.438
 120485763.334 7  22927679.818
 109168246.899 8  20774009.533
 14  2 15  0 35  0.0000000  0  7G12G05G18G21G25G31G29
 122811696.330 7  23370267.173
 120695355.804 8  22967545.552
 123567227.403 7  23514054.499
 111976416.763 8  21308391.947
 109331187.018 9  20805029.780
 120511973.010 7  22932667.151
 109177777.958 8  20775823.419
 14  2 15  0 35 30.0000000  0  7G12G05G18G21G25G31G29
 122909279.571 7  23388837.101
 120739506.075 7  22975946.530
 123472913.282 7  23496107.987
 111948323.996 8  21303046.228
 109385688.137 8  20815401.209
 120538645.930 8  22937743.288
 109187469.382 8  20777667.744
 14  2 15  0 36  0.0000000  0  7G12G05G18G21G25G31G29
 123007093.608 7  23407449.857
 120784191.786 7  22984450.449
 123378677.151 7  23478174.934
 111920572.054 8  21297765.330
 109440669.738 8  20825863.683
 120565790.553 7  22942907.687
 109197330.933 9  20779544.405
 14  2 15  0 36 30.0000000  0  7G12G05G18G21G25G31G29
 123105126.666 7  23426105.771
 120829401.520 7  22993053.279
 123284511.502 6  23460255.670
 111893150.708 8  21292546.925
 109496120.882 8  20836416.001
 120593394.884 7  22948160.538
 109207352.967 8  20781450.981
 14  2 15  0 37  0.0000000  0  7G12G05G18G21G25G31G29
 123203378.598 7  23444802.332
 120875135.583 7  23001755.625
 123190420.199 7  23442351.531
 111866060.627 8  21287391.981
 109552042.024 9  20847057.288
 120621458.584 7  22953500.955
 109217537.042 8  20783389.048
 14  2 15  0 37 30.0000000  0  7G12G05G18G21G25G31G29
 123301855.841 7  23463542.882
 120921400.516 7  23010559.620
 123096413.974 7  23424462.457
 111839309.803 8  21282301.540
 109608440.371 8  20857789.227
 120649988.389 7  22958930.150
 109227892.253 8  20785359.807
 14  2 15  0 38  0.0000000  0  7G12G05G18G21G25G31G29
 123400543.002 7  23482320.719
 120968181.619 7  23019461.699
 123002481.968 7  23406588.403
 111812884.012 8  21277272.762
 109665301.333 8  20868609.587
 120678968.594 7  22964445.261
 109238405.273 8  20787360.619
 14  2 15  0 38 30.0000000  0  7G12G05G18G21G25G31G29
 123499454.597 7  23501143.033
 121015493.631 8  23028465.690
 122908643.187 7  23388731.179
 111786798.860 8  21272308.923
 109722640.255 8  20879521.101
 120708413.955 7  22970047.826
 109249092.344 8  20789393.992
 14  2 15  0 39  0.0000000  0  7G12G05G18G21G25G31G29
 123598573.750 7  23520004.138
 121063320.768 8  23037566.446
 122814884.768 7  23370890.525
 111761038.950 8  21267406.756
 109780440.937 9  20890520.279
 120738307.692 7  22975736.861
 109259939.140 8  20791458.270
 14  2 15  0 39 30.0000000  0  7G12G05G18G21G25G31G29
 123697902.086 7  23538906.209
 121111664.107 7  23046766.106
 122721212.838 7  23353064.764
 111735606.904 8  21262566.865
 109838705.413 8  20901607.602
 120768651.293 7  22981511.248
 109270948.997 8  20793553.427
 14  2 15  0 40  0.0000000  0  7G12G05G18G21G25G31G29
 123797446.009 7  23557848.908
 121160530.412 7  23056065.083
 122627638.142 7  23335258.154
 111710510.138 8  21257791.319
 109897440.849 9  20912784.495
 120799450.614 7  22987371.850
 109282130.452 8  20795680.933
 14  2 15  0 40 30.0000000  0  7G12G05G18G21G25G31G29
 123897199.214 7  23576831.255
 121209914.086 7  23065462.416
 122534158.840 7  23317470.064
 111685743.639 8  21253078.730
 109956641.770 8  20924049.698
 120830699.325 7  22993318.712
 109293479.659 8  20797840.526
 14  2 15  0 41  0.0000000  0  7G12G05G18G21G25G31G29
 123997155.668 7  23595853.552
 121259809.861 7  23074957.468
 122440773.669 7  23299698.170
 111661303.036 8  21248428.183
 110016303.011 8  20935403.177
 120862391.981 7  22999349.914
 109304992.749 8  20800031.699
 14  2 15  0 41 30.0000000  0  7G12G05G18G21G25G31G29
 124097315.239 7  23614913.604
 121310217.259 7  23084549.214
 122347486.390 7  23281946.004
 111637189.262 8  21243839.013
 110076424.880 8  20946844.127
 120894528.086 7  23005464.982
 109316671.814 8  20802254.089
 14  2 15  0 42  0.0000000  0  7G12G05G18G21G25G31G29
 124197680.635 7  23634011.524
 121361139.273 7  23094240.224
 122254303.818 7  23264213.804
 111613405.860 8  21239313.102
 110137010.494 8  20958372.960
 120927109.977 7  23011664.047
 109328521.440 9  20804509.206
 14  2 15  0 42 30.0000000  0  7G12G05G18G21G25G31G29
 124298247.562 7  23653148.864
 121412572.261 7  23104026.968
 122161226.643 7  23246502.688
 111589950.644 8  21234849.923
 110198056.670 8  20969989.576
 120960133.386 7  23017949.577
 109340539.946 8  20806795.943
 14  2 15  0 43  0.0000000  0  7G12G05G18G21G25G31G29
 124399011.389 7  23672322.775
 121464511.681 7  23113910.820
 122068254.667 7  23228810.016
 111566819.878 8  21230448.235
 110259559.346 8  20981693.306
 120993593.763 7  23024316.929
 109352724.870 8  20809114.896
 14  2 15  0 43 30.0000000  0  7G12G05G18G21G25G31G29
 124499971.505 7  23691535.094
 121516957.331 7  23123891.064
 121975391.595 7  23211139.107
 111544014.074 8  21226108.388
 110321518.455 8  20993483.960
 121027490.392 7  23030766.804
 109365077.832 8  20811465.257
 14  2 15  0 44  0.0000000  0  7G12G05G18G21G25G31G29
 124601130.468 7  23710784.974
 121569912.312 7  23133966.851
 121882644.197 7  23193489.828
 111521537.225 8  21221830.909
 110383937.452 9  21005361.794
 121061825.794 7  23037300.725
 109377603.795 9  20813849.064
 14  2 15  0 44 30.0000000  0  7G12G05G18G21G25G31G29
 124702484.539 7  23730072.248
 121623372.213 7  23144140.726
 121790012.360 7  23175861.685
 111499386.003 8  21217616.065
 110446812.394 8  21017326.502
 121096595.379 7  23043917.330
 109390300.561 9  20816265.129
 14  2 15  0 45  0.0000000  0  7G12G05G18G21G25G31G29
 124804026.024 7  23749394.488
 121677330.071 7  23154408.780
 121697493.797 7  23158257.331
 111477554.383 8  21213461.334
 110510136.601 9  21029376.711
 121131791.737 7  23050614.758
 109403162.927 8  20818712.852
 14  2 15  0 45 30.0000000  0  7G12G05G18G21G25G31G29
 124905757.513 7  23768753.972
 121731788.884 7  23164772.108
 121605095.754 7  23140673.697
 111456045.938 8  21209368.549
 110573913.431 9  21041513.086
 121167417.380 7  23057393.972
 109416196.354 9  20821192.890
 14  2 15  0 46  0.0000000  0  7G12G05G18G21G25G31G29
 125007678.032 7  23788149.915
 121786747.410 7  23175230.315
 121512821.281 7  23123114.659
 111434861.386 8  21205337.578
 110638142.198 8  21053735.123
 121203470.873 7  23064255.244
 109429401.390 8  20823705.653
 14  2 15  0 46 30.0000000  0  7G12G05G18G21G25G31G29
 125109785.639 7  23807578.827
 121842204.161 7  23185782.919
 121420672.975 7  23105579.209
 111413999.739 8  21201368.051
 110702821.647 8  21066043.247
 121239950.364 8  23071197.078
 109442778.981 8  20826251.645
 14  2 15  0 47  0.0000000  0  7G12G05G18G21G25G31G29
 125212071.617 7  23827044.210
 121898150.641 7  23196429.892
 121328646.426 7  23088067.527
 111393453.499 8  21197457.772
 110767943.614 8  21078435.746
 121276846.770 7  23078217.791
 109456322.757 8  20828828.826
 14  2 15  0 47 30.0000000  0  7G12G05G18G21G25G31G29
 125314547.032 7  23846545.178
 121954598.190 7  23207170.460
 121236757.632 7  23070581.016
 111373235.143 8  21193610.223
 110833519.817 8  21090914.447
 121314171.050 7  23085321.106
 109470045.916 8  20831440.304
 14  2 15  0 48  0.0000000  0  7G12G05G18G21G25G31G29
 125417200.215 7  23866078.772
 122011535.248 7  23218005.550
 121144998.992 7  23053119.762
 111353334.091 8  21189823.387
 110899538.909 8  21103477.520
 121351911.190 8  23092502.713
 109483938.766 8  20834083.560
 14  2 15  0 48 30.0000000  0  7G12G05G18G21G25G31G29
 125520029.906 7  23885646.126
 122068960.352 7  23228933.236
 121053373.582 7  23035683.286
 111333749.797 8  21186096.731
 110966000.079 8  21116124.781
 121390065.493 7  23099763.189
 109498002.721 8  20836759.846
 14  2 15  0 49  0.0000000  0  7G12G05G18G21G25G31G29
 125623040.669 7  23905248.408
 122126878.695 7  23239955.066
 120961891.135 7  23018275.238
 111314488.107 8  21182431.131
 111032908.676 8  21128856.794
 121428638.824 8  23107103.341
 109512244.955 8  20839470.262
 14  2 15  0 49 30.0000000  0  7G12G05G18G21G25G31G29
 125726224.236 7  23924883.973
 122185281.948 7  23251068.526
 120870547.288 7  23000893.539
 111295542.626 8  21178825.719
 111100256.669 8  21141672.752
 121467622.318 7  23114521.134
 109526659.209 9  20842213.680
 14  2 15  0 50  0.0000000  0  7G12G05G18G21G25G31G29
 125829574.451 7  23944551.439
 122244163.890 7  23262273.299
 120779340.416 7  22983538.086
 111276907.837 8  21175279.729
 111168038.390 8  21154571.564
 121507009.497 8  23122016.992
 109541241.699 8  20844988.709
 14  2 15  0 50 30.0000000  0  7G12G05G18G21G25G31G29
 125933101.642 7  23964251.974
 122303535.012 7  23273571.247
 120688285.595 7  22966210.129
 111258595.615 8  21171795.381
 111236264.816 8  21167554.186
 121546810.565 7  23129590.866
 109556005.197 8  20847797.766
 14  2 15  0 51  0.0000000  0  7G12G05G18G21G25G31G29
 126036798.179 7  23983984.861
 122363387.925 7  23284961.721
 120597379.454 7  22948911.350
 111240599.405 8  21168370.736
 111304928.746 8  21180620.691
 121587017.617 7  23137241.837
 109570944.536 8  20850640.798
 14  2 15  0 51 30.0000000  0  7G12G05G18G21G25G31G29
 126140655.158 7  24003747.620
 122423712.962 7  23296440.752
 120506616.959 7  22931640.191
 111222910.422 8  21165004.908
 111374021.229 8  21193768.667
 121627621.036 7  23144968.080
 109586052.758 8  20853515.742
 14  2 15  0 52  0.0000000  0  7G12G05G18G21G25G31G29
 126244679.315 7  24023542.612
 122484517.973 7  23308011.668
 120416010.240 7  22914399.094
 111205537.726 8  21161698.973
 111443550.070 8  21206999.412
 121668627.699 7  23152771.602
 109601339.731 9  20856424.505
 14  2 15  0 52 30.0000000  0  7G12G05G18G21G25G31G29
 126348869.053 7  24043370.175
 122545801.383 7  23319673.134
 120325562.311 7  22897186.861
 111188480.883 8  21158453.175
 111513513.917 8  21220313.286
 121710035.429 7  23160651.285
 109616805.992 8  20859367.962
 14  2 15  0 53  0.0000000  0  7G12G05G18G21G25G31G29
 126453220.116 7  24063227.078
 122607558.654 7  23331425.000
 120235273.058 7  22880005.571
 111171736.350 8  21155266.162
 111583908.837 8  21233708.574
 121751839.888 7  23168606.216
 109632449.231 8  20862344.736
 14  2 15  0 53 30.0000000  0  7G12G05G18G21G25G31G29
 126557726.176 7  24083113.509
 122669783.517 7  23343266.294
 120145140.548 7  22862854.039
 111155299.242 8  21152138.501
 111654728.844 8  21247185.459
 121794034.445 7  23176635.510
 109648266.064 8  20865354.798
 14  2 15  0 54  0.0000000  0  7G12G05G18G21G25G31G29
 126662389.216 7  24103030.173
 122732477.799 7  23355196.935
 120055171.407 7  22845732.979
 111139172.453 8  21149069.542
 111725976.256 8  21260743.353
 121836620.367 7  23184739.610
 109664260.837 8  20868397.991
 14  2 15  0 54 30.0000000  0  7G12G05G18G21G25G31G29
 126767214.331 7  24122977.024
 122795646.690 7  23367217.106
 119965375.408 7  22828644.836
 111123362.560 8  21146061.232
 111797656.824 8  21274383.798
 121879602.548 7  23192918.812
 109680441.064 8  20871476.924
 14  2 15  0 55  0.0000000  0  7G12G05G18G21G25G31G29
 126872189.056 7  24142952.337
 122859277.725 7  23379326.176
 119875744.575 7  22811588.581
 111107858.301 8  21143110.580
 111869758.505 8  21288104.187
 121922968.513 7  23201170.798
 109696796.904 8  20874589.801
 14  2 15  0 55 30.0000000  0  7G12G05G18G21G25G31G29
 126977310.047 7  24162958.124
 122923367.684 7  23391521.646
 119786280.106 7  22794563.938
 111092657.242 8  21140218.165
 111942277.931 8  21301904.345
 121966714.172 7  23209495.727
 109713326.936 8  20877735.406
 14  2 15  0 56  0.0000000  0  7G12G05G18G21G25G31G29
 127082582.657 7  24182989.847
 122987921.885 7  23403805.721
 119696991.654 7  22777572.951
 111077765.734 8  21137384.461
 112015220.945 8  21315785.083
 122010844.308 7  23217893.793
 109730039.255 8  20880915.356
 14  2 15  0 56 30.0000000  0  7G12G05G18G21G25G31G29
 127188007.554 7  24203052.381
 123052940.797 7  23416178.124
 119607884.500 7  22760616.406
 111063185.534 8  21134609.746
 112088588.709 8  21329746.124
 122055359.781 7  23226364.257
 109746936.996 8  20884131.127
 14  2 15  0 57  0.0000000  0  7G12G05G18G21G25G31G29
 127293570.437 7  24223139.509
 123118410.168 7  23428636.687
 119518949.003 7  22743693.308
 111048903.916 8  21131892.016
 112162367.101 8  21343785.849
 122100245.543 7  23234906.026
 109764008.571 8  20887379.670
 14  2 15  0 57 30.0000000  0  7G12G05G18G21G25G31G29
 127399278.694 7  24243256.381
 123184336.726 7  23441182.924
 119430196.672 7  22726804.522
 111034928.873 8  21129232.366
 112236563.645 8  21357904.510
 122145508.252 7  23243519.472
 109781263.526 9  20890662.906
 14  2 15  0 58  0.0000000  0  7G12G05G18G21G25G31G29
 127505126.646 7  24263398.872
 123250715.901 7  23453814.115
 119341626.902 7  22709949.695
 111021256.509 8  21126630.587
 112311173.415 8  21372102.663
 122191142.497 7  23252203.014
 109798699.341 8  20893981.117
 14  2 15  0 58 30.0000000  0  7G12G05G18G21G25G31G29
 127611112.879 7  24283566.871
 123317545.670 7  23466531.520
 119253242.516 8  22693131.267
 111007886.013 8  21124086.519
 112386194.997 8  21386378.949
 122237146.199 7  23260957.150
 109816316.653 8  20897333.328
 14  2 15  0 59  0.0000000  0  7G12G05G18G21G25G31G29
 127717242.381 7  24303763.498
 123384830.643 7  23479334.875
 119165053.107 7  22676349.399
 110994823.633 8  21121600.807
 112461633.775 8  21400734.494
 122283523.741 7  23269782.151
 109834122.697 8  20900721.892
 14  2 15  0 59 30.0000000  0  7G12G05G18G21G25G31G29
 127823501.983 7  24323982.978
 123452557.732 7  23492222.816
 119077049.842 7  22659602.105
 110982057.134 8  21119171.588
 112537476.676 8  21415167.158
 122330261.647 7  23278676.043
 109852106.995 8  20904144.327
 14  2 15  1  0  0.0000000  0  7G12G05G18G21G25G31G29
 127929898.512 7  24344228.870
 123520733.585 7  23505197.059
 118989243.866 7  22642893.121
 110969594.782 8  21116800.287
 112613730.636 8  21429677.551
 122377365.862 7  23287640.540
 109870278.972 9  20907602.707
 14  2 15  1  0 30.0000000  0  7G12G05G18G21G25G31G29
 128036421.986 7  24364500.418
 123589348.468 7  23518253.609
 118901630.042 7  22626220.389
 110957427.679 8  21114484.989
 112690386.309 8  21444264.753
 122424826.296 7  23296672.057
 109888631.231 9  20911094.833
 14  2 15  1  1  0.0000000  0  7G12G05G18G21G25G31G29
 128143075.123 7  24384796.486
 123658404.642 7  23531394.774
 118814216.056 7  22609586.880
 110945559.483 8  21112226.405
 112767446.530 8  21458928.596
 122472645.201 7  23305771.302
 109907169.031 8  20914622.088
 14  2 15  1  1 30.0000000  0  7G12G05G18G21G25G31G29
 128249855.894 7  24405116.205
 123727900.237 7  23544619.341
 118727004.111 7  22592991.256
 110933989.690 8  21110024.498
 112844909.702 8  21473669.622
 122520820.367 7  23314938.149
 109925893.086 8  20918185.221
 14  2 15  1  2  0.0000000  0  7G12G05G18G21G25G31G29
 128356759.625 6  24425457.503
 123797829.870 7  23557927.494
 118639993.903 8  22576433.275
 110922714.476 8  21107878.699
 112922771.151 8  21488486.223
 122569346.315 7  23324172.247
 109944800.785 9  20921783.318
 14  2 15  1  2 30.0000000  0  7G12G05G18G21G25G31G29
 128463790.798 7  24445825.846
 123868198.460 7  23571317.828
 118553194.706 7  22559916.191
 110911739.544 8  21105790.395
 113001035.709 8  21503379.299
 122618226.938 7  23333474.800
 109963899.777 8  20925417.839
 14  2 15  1  3  0.0000000  0  7G12G05G18G21G25G31G29
 128570941.861 7  24466216.522
 123938997.790 7  23584789.837
 118466603.098 7  22543437.322
 110901057.912 8  21103758.166
 113079695.633 8  21518348.009
 122667454.203 7  23342843.088
 109983184.503 8  20929087.472
 14  2 15  1  3 30.0000000  0  7G12G05G18G21G25G31G29
 128678208.429 6  24486627.674
 124010223.743 7  23598344.429
 118380219.537 7  22526999.660
 110890666.861 8  21101780.492
 113158747.051 8  21533390.788
 122717023.319 7  23352275.286
 110002653.468 9  20932792.245
 14  2 15  1  4  0.0000000  0  7G12G05G18G21G25G31G29
 128785591.130 7  24507062.378
 124081877.038 7  23611978.813
 118294049.676 8  22510601.984
 110880568.434 8  21099858.828
 113238191.156 8  21548508.626
 122766934.627 7  23361772.505
 110022310.416 9  20936532.961
 14  2 15  1  4 30.0000000  0  7G12G05G18G21G25G31G29
 128893093.228 7  24527518.991
 124153960.112 7  23625695.285
 118208100.473 8  22494246.162
 110870765.990 8  21097993.271
 113318030.694 8  21563701.668
 122817190.595 7  23371335.382
 110042159.834 8  20940310.166
 14  2 15  1  5  0.0000000  0  7G12G05G18G21G25G31G29
 129000706.364 7  24547997.517
 124226464.599 7  23639492.431
 118122368.260 8  22477932.128
 110861252.366 8  21096183.181
 113398257.590 8  21578968.157
 122867782.213 7  23380962.443
 110062196.891 8  20944123.108
 14  2 15  1  5 30.0000000  0  7G12G05G18G21G25G31G29
 129108432.850 7  24568497.775
 124299392.549 7  23653371.335
 118036860.148 8  22461660.632
 110852031.834 8  21094428.530
 113478874.493 8  21594308.998
 122918711.309 7  23390655.336
 110082426.466 8  20947972.762
 14  2 15  1  6  0.0000000  0  7G12G05G18G21G25G31G29
 129216259.521 7  24589017.240
 124372730.358 7  23667326.985
 117951567.064 8  22445429.889
 110843091.736 8  21092727.345
 113559868.249 8  21609721.493
 122969964.485 7  23400407.919
 110102837.624 8  20951856.651
 14  2 15  1  6 30.0000000  0  7G12G05G18G21G25G31G29
 129324194.859 7  24609556.469
 124446486.456 7  23681362.487
 117866502.439 8  22429242.949
 110834441.736 8  21091081.313
 113641247.544 8  21625207.389
 123021549.435 7  23410223.815
 110123441.808 8  20955777.459
 14  2 15  1  7  0.0000000  0  7G12G05G18G21G25G31G29
 129432234.786 7  24630115.186
 124520657.188 7  23695475.570
 117781666.397 8  22413098.907
 110826079.249 8  21089489.995
 113723008.655 8  21640765.982
 123073461.689 7  23420103.134
 110144237.348 9  20959734.774
 14  2 15  1  7 30.0000000  0  7G12G05G18G21G25G31G29
 129540386.218 6  24650693.371
 124595248.446 7  23709669.357
 117697070.680 7  22397000.566
 110818011.688 8  21087954.964
 113805158.338 8  21656398.547
 123125707.301 7  23430045.511
 110165234.155 8  20963730.628
 14  2 15  1  8  0.0000000  0  7G12G05G18G21G25G31G29
 129648629.549 6  24671291.471
 124670240.880 7  23723939.747
 117612700.609 8  22380945.719
 110810220.714 8  21086471.957
 113887677.328 8  21672101.614
 123178266.321 7  23440047.234
 110186415.152 8  20967761.151
 14  2 15  1  8 30.0000000  0  7G12G05G18G21G25G31G29
 129756973.075 6  24691909.015
 124745642.109 7  23738289.240
 117528568.236 8  22364936.314
 110802715.830 8  21085043.961
 113970573.612 8  21687875.932
 123231146.156 7  23450108.814
 110207790.840 8  20971828.895
 14  2 15  1  9  0.0000000  0  7G12G05G18G21G25G31G29
 129865413.972 6  24712545.431
 124821448.955 7  23752715.200
 117444675.443 8  22348971.324
 110795495.163 8  21083670.004
 114053844.702 8  21703722.182
 123284343.593 7  23460232.434
 110229361.206 8  20975933.474
 14  2 15  1  9 30.0000000  0  7G12G05G18G21G25G31G29
 129973946.403 6  24733197.832
 124897655.738 7  23767216.348
 117361020.824 8  22333052.685
 110788553.903 8  21082349.087
 114137484.727 8  21719638.512
 123337852.173 7  23470415.694
 110251123.141 8  20980074.395
 14  2 15  1 10  0.0000000  0  7G12G05G18G21G25G31G29
 130082568.772 6  24753868.930
 124974260.218 7  23781793.572
 117277607.503 8  22317179.611
 110781891.590 8  21081081.147
 114221492.057 8  21735624.913
 123391669.714 7  23480657.342
 110273077.397 8  20984252.022
 14  2 15  1 10 30.0000000  0  8G12G05G18G21G16G25G31G29
 130191282.748 7  24774557.223
 125051264.082 7  23796446.359
 117194441.675 8  22301353.315
 110775510.721 8  21079866.935
 132526977.724 6  25219044.441
 114305868.715 8  21751680.846
 123445797.319 7  23490956.691
 110295228.840 8  20988467.299
 14  2 15  1 11  0.0000000  0  8G12G05G18G21G16G25G31G29
 130300087.558 6  24795261.666
 125128666.342 7  23811175.433
 117111527.151 8  22285575.380
 110769412.292 8  21078706.502
 132423194.915 6  25199295.142
 114390613.915 8  21767807.544
 123500233.576 7  23501313.948
 110317579.042 8  20992720.823
 14  2 15  1 11 30.0000000  0  8G12G05G18G21G16G25G31G29
 130408982.614 6  24815982.093
 125206465.866 7  23825981.590
 117028867.803 8  22269846.173
 110763596.304 8  21077599.789
 132319493.930 6  25179561.969
 114475727.089 8  21784003.321
 123554977.300 7  23511731.963
 110340129.865 8  20997012.101
 14  2 15  1 12  0.0000000  0  8G12G05G18G21G16G25G31G29
 130517959.746 6  24836719.897
 125284654.129 7  23840860.162
 116946459.764 8  22254164.231
 110758055.363 8  21076545.221
 132215870.848 6  25159843.386
 114561199.824 8  21800268.751
 123610019.604 7  23522206.424
 110362876.078 8  21001340.473
 14  2 15  1 12 30.0000000  0  8G12G05G18G21G16G25G31G29
 130627013.540 6  24857472.130
 125363225.711 7  23855811.308
 116864302.055 8  22238529.838
 110752785.613 8  21075542.601
 132112324.918 6  25140138.688
 114647027.038 8  21816601.028
 123665354.537 7  23532737.703
 110385814.982 8  21005705.432
 14  2 15  1 13  0.0000000  0  8G12G05G18G21G16G25G31G29
 130736139.761 6  24878237.968
 125442175.584 7  23870835.283
 116782394.986 8  22222944.024
 110747783.677 8  21074590.836
 132008855.987 5  25120449.621
 114733204.302 8  21833000.281
 123720977.064 7  23543321.867
 110408944.964 8  21010106.952
 14  2 15  1 13 30.0000000  0  8G12G05G18G21G16G25G31G29
 130845351.217 6  24899020.084
 125521516.364 7  23885933.681
 116700756.172 8  22207408.308
 110743063.064 8  21073692.202
 131905481.560 6  25100779.526
 114819744.425 8  21849468.139
 123776899.331 7  23553962.116
 110432281.268 8  21014547.954
 14  2 15  1 14  0.0000000  0  8G12G05G18G21G16G25G31G29
 130954637.202 6  24919818.006
 125601237.381 7  23901103.574
 116619379.174 8  22191922.932
 110738614.487 8  21072845.717
 131802195.894 6  25081124.261
 114906637.047 8  21866002.901
 123833110.385 7  23564658.438
 110455816.370 8  21019026.524
 14  2 15  1 14 30.0000000  0  8G12G05G18G21G16G25G31G29
 131064002.622 6  24940629.959
 125681342.821 7  23916347.544
 116538273.033 8  22176489.105
 110734444.100 8  21072052.090
 131699007.547 6  25061488.490
 114993886.553 8  21882606.439
 123889613.895 7  23575411.329
 110479557.125 8  21023544.269
 14  2 15  1 15  0.0000000  0  8G12G05G18G21G16G25G31G29
 131173429.877 6  24961452.660
 125761814.868 7  23931660.610
 116457425.013 8  22161104.288
 110730535.094 8  21071308.409
 131595904.079 6  25041867.894
 115081475.577 8  21899274.110
 123946391.999 7  23586217.026
 110503489.082 8  21028098.456
 14  2 15  1 15 30.0000000  0  9G12G05G22G18G21G16G25G31G29
 131282931.606 6  24982290.305
 125842665.764 7  23947045.897
 129751694.894 6  24690927.007
 116376851.995 8  22145771.554
 110726901.021 8  21070616.886
 131492901.983 6  25022266.714
 115169416.631 8  21916008.887
 124003456.655 7  23597075.909
 110527627.355 8  21032691.842
 14  2 15  1 16  0.0000000  0  9G12G05G22G18G21G16G25G31G29
 131392501.056 6  25003140.888
 125923888.314 7  23962502.154
 129645924.816 6  24670799.157
 116296551.731 8  22130490.471
 110723536.637 8  21069976.496
 131389999.458 6  25002685.676
 115257703.062 8  21932808.672
 124060800.276 7  23607987.916
 110551967.995 9  21037323.432
 14  2 15  1 16 30.0000000  0  9G12G05G22G18G21G16G25G31G29
 131502129.792 6  25024001.929
 126005474.090 7  23978027.436
 129540131.167 6  24650667.547
 116216520.569 8  22115261.544
 110720434.307 8  21069386.090
 131287192.405 6  24983121.177
 115346326.454 8  21949673.516
 124118413.874 7  23618952.010
 110576505.338 8  21041992.780
 14  2 15  1 17  0.0000000  0  9G12G05G22G18G21G16G25G31G29
 131611827.515 6  25044876.415
 126087431.997 7  23993623.805
 129434327.681 6  24630534.356
 116136772.549 8  22100086.090
 110717604.231 8  21068847.668
 131184495.066 6  24963579.354
 115435296.139 8  21966604.145
 124176306.339 7  23629968.348
 110601251.629 8  21046701.938
 14  2 15  1 17 30.0000000  0  9G12G05G22G18G21G16G25G31G29
 131721581.835 6  25065760.817
 126169749.591 7  24009287.834
 129328506.660 6  24610398.170
 116057299.627 8  22084962.453
 110715035.528 8  21068358.422
 131081899.488 6  24944056.932
 115524599.741 8  21983597.786
 124234464.330 7  23641034.534
 110626196.953 8  21051448.714
 14  2 15  1 18  0.0000000  0  9G12G05G22G18G21G16G25G31G29
 131831397.748 6  25086656.962
 126252430.972 7  24025021.312
 129222677.184 6  24590258.066
 115978110.925 8  22069893.716
 110712734.236 8  21067920.826
 130979415.003 6  24924553.554
 115614241.993 8  22000656.282
 124292892.127 7  23652152.446
 110651349.342 8  21056235.262
 14  2 15  1 18 30.0000000  0  9G12G05G22G18G21G16G25G31G29
 131941266.026 6  25107565.030
 126335467.178 7  24040822.891
 129116834.990 6  24570117.813
 115899202.226 8  22054877.898
 110710692.167 8  21067532.089
 130877037.347 6  24905072.546
 115704214.156 8  22017776.932
 124351580.453 7  23663320.444
 110676702.528 8  21061059.851
 14  2 15  1 19  0.0000000  0  9G12G05G22G18G21G16G25G31G29
 132051197.463 6  25128484.241
 126418868.083 7  24056694.481
 129010994.993 6  24549976.961
 115820588.006 8  22039917.995
 110708921.020 8  21067195.546
 130774781.469 6  24885613.084
 115794526.376 8  22034963.500
 124410538.898 7  23674540.685
 110702269.399 8  21065925.021
 14  2 15  1 19 30.0000000  0  9G12G05G22G18G21G16G25G31G29
 132161171.219 6  25149411.698
 126502612.455 7  24072630.010
 128905140.787 6  24529833.171
 115742252.570 8  22025011.673
 110707401.250 8  21066905.932
 130672631.334 6  24866173.958
 115885157.857 8  22052209.991
 124469746.057 7  23685807.788
 110728032.110 8  21070827.354
 14  2 15  1 20  0.0000000  0 10G15G12G05G22G18G21G16G25G31G29
 131958499.730 6  25110866.610
 132271201.741 6  25170350.437
 126586714.718 7  24088633.569
 128799290.960 6  24509690.262
 115664214.576 8  22010160.964
 110706147.842 8  21066667.200
 130570605.815 6  24846759.662
 115976122.995 8  22069520.031
 124529215.636 7  23697125.373
 110754007.622 8  21075770.717
 14  2 15  1 20 30.0000000  0 10G15G12G05G22G18G21G16G25G31G29
 131896448.918 6  25099056.080
 132381280.230 5  25191297.368
 126671165.286 7  24104704.114
 128693441.527 6  24489546.921
 115586469.307 8  21995366.708
 110705153.550 8  21066478.371
 130468700.775 6  24827367.155
 116067412.806 8  22086891.784
 124588938.186 7  23708490.187
 110780189.911 9  21080752.705
 14  2 15  1 21  0.0000000  0 10G15G12G05G22G18G21G16G25G31G29
 131834468.185 6  25087263.984
 132491401.067 5  25212255.237
 126755958.346 7  24120839.502
 128587591.372 6  24469403.938
 115509015.973 8  21980628.218
 110704413.329 8  21066337.107
 130366914.872 6  24807997.883
 116159021.560 8  22104324.059
 124648907.419 7  23719900.187
 110806575.940 8  21085774.071
 14  2 15  1 21 30.0000000  0 10G15G12G05G22G18G21G16G25G31G29
 131772564.634 6  25075484.031
 132601566.578 5  25233221.002
 126841095.667 7  24137041.643
 128481747.188 6  24449262.524
 115431860.680 8  21965945.567
 110703930.833 8  21066245.267
 130265255.107 6  24788653.854
 116250951.317 8  22121817.789
 124709124.662 7  23731358.190
 110833170.930 8  21090834.718
 14  2 15  1 22  0.0000000  0  9G15G05G22G18G21G16G25G31G29
 131710741.960 6  25063716.628
 126926575.697 7  24153308.226
 128375912.288 6  24429122.380
 115355007.206 8  21951321.067
 110703705.919 8  21066202.677
 130163725.178 6  24769332.821
 116343200.969 8  22139372.701
 124769587.722 7  23742864.386
 110859976.317 8  21095935.738
 14  2 15  1 22 30.0000000  0  9G15G05G22G18G21G16G25G31G29
 131649004.167 6  25051968.112
 127012396.759 7  24169638.546
 128270089.625 6  24408984.471
 115278458.389 8  21936753.882
 110703738.300 8  21066208.694
 130062328.314 6  24750038.229
 116435769.021 8  22156987.341
 124830295.000 7  23754418.202
 110886993.246 9  21101076.977
 14  2 15  1 23  0.0000000  0  9G15G05G22G18G21G16G25G31G29
 131587346.878 6  25040237.868
 127098548.890 7  24186032.822
 128164274.480 6  24388848.928
 115202209.294 8  21922244.238
 110704019.064 8  21066262.156
 129961059.480 6  24730767.510
 116528645.860 8  22174661.306
 124891236.300 7  23766015.706
 110914216.230 8  21106257.273
 14  2 15  1 23 30.0000000  0  9G15G05G22G18G21G16G25G31G29
 131525773.508 6  25028520.697
 127185030.360 7  24202488.675
 128058470.037 6  24368713.411
 115126263.015 8  21907792.414
 110704548.363 8  21066362.947
 129859922.005 6  24711522.080
 116621830.011 8  22192394.315
 124952409.526 7  23777656.306
 110941645.684 8  21111476.914
 14  2 15  1 24  0.0000000  0  9G15G05G22G18G21G16G25G31G29
 131464296.744 6  25016820.545
 127271847.866 7  24219009.972
 127952687.836 6  24348584.872
 115050630.878 8  21893399.874
 110705334.761 8  21066512.564
 129758927.940 6  24692303.216
 116715328.495 8  22210185.847
 125013821.214 7  23789342.554
 110969291.466 8  21116737.811
 14  2 15  1 24 30.0000000  0  9G15G05G22G18G21G16G25G31G29
 131402916.977 6  25005140.473
 127358996.932 7  24235594.244
 127846927.952 6  24328460.524
 114975313.210 8  21879067.833
 110706374.633 8  21066710.574
 129658077.414 6  24673112.262
 116809136.769 8  22228037.277
 125075466.162 7  23801072.447
 110997151.814 8  21122039.742
 14  2 15  1 25  0.0000000  0  9G15G05G22G18G21G16G25G31G29
 131341634.475 6  24993480.234
 127446471.754 7  24252240.075
 127741189.938 6  24308339.138
 114900309.177 8  21864794.734
 110707663.817 8  21066955.799
 129557369.983 6  24653948.537
 116903249.641 8  22245946.221
 125137338.484 7  23812845.546
 111025224.844 8  21127381.561
 14  2 15  1 25 30.0000000  0  9G15G05G22G18G21G16G25G31G29
 131280451.366 6  24981837.659
 127534269.552 7  24268946.954
 127635475.593 6  24288222.278
 114825620.518 8  21850581.725
 110709200.847 8  21067248.323
 129456807.911 6  24634810.924
 116997664.358 8  22263913.218
 125199435.236 7  23824661.584
 111053510.724 8  21132764.464
 14  2 15  1 26  0.0000000  0  9G15G05G22G18G21G16G25G31G29
 131219364.421 6  24970212.455
 127622381.091 6  24285713.872
 127529781.093 6  24268107.465
 114751243.034 8  21836428.238
 110710977.889 8  21067586.482
 129356387.081 6  24615701.940
 117092372.186 8  22281935.206
 125261746.830 7  23836520.137
 111082003.603 8  21138186.279
 14  2 15  1 26 30.0000000  0  9G15G05G22G18G21G16G25G31G29
 131158383.249 6  24958607.696
 127710810.813 7  24302541.946
 127424115.529 6  24248000.886
 114677185.765 8  21822335.256
 110713000.877 8  21067971.578
 129256116.842 6  24596620.478
 117187377.691 8  22300013.851
 125324277.205 7  23848419.097
 111110710.702 8  21143649.123
 14  2 15  1 27  0.0000000  0  9G15G05G22G18G21G16G25G31G29
 131097512.448 6  24947024.582
 127799558.075 7  24319430.538
 127318483.240 6  24227900.082
 114603452.591 8  21808304.623
 110715270.873 8  21068403.757
 129156001.596 6  24577569.612
 117282680.318 7  22318149.161
 125387025.500 7  23860361.587
 111139634.379 8  21149153.148
 14  2 15  1 27 30.0000000  0 10G15G05G22G18G21G06G16G25G31G29
 131036761.859 5  24935461.206
 127888626.958 7  24336379.701
 127212893.100 6  24207807.345
 114530052.829 8  21794336.768
 110717793.093 8  21068883.776
 131454326.827 6  25014925.574
 129056050.767 7  24558549.607
 117378284.475 7  22336342.314
 125449995.470 7  23872343.825
 111168782.457 8  21154700.031
 14  2 15  1 28  0.0000000  0 10G15G05G22G18G21G06G16G25G31G29
 130976115.053 6  24923925.630
 127977995.379 6  24353385.686
 127107328.099 6  24187719.474
 114456969.020 8  21780429.504
 110720547.458 8  21069407.877
 131372268.352 6  24999310.552
 128956247.479 6  24539557.610
 117474168.364 8  22354588.785
 125513164.540 7  23884364.527
 111198135.857 8  21160285.626
 14  2 15  1 28 30.0000000  0 10G15G05G22G18G21G06G16G25G31G29
 130915584.921 6  24912404.517
 128067670.589 6  24370449.994
 127001800.524 7  24167637.107
 114384213.309 8  21766584.634
 110723542.684 8  21069977.804
 131290162.674 6  24983686.941
 128856604.045 6  24520596.435
 117570339.535 8  22372889.365
 125576540.025 7  23896423.735
 111227705.011 8  21165912.546
 14  2 15  1 29  0.0000000  0 10G15G05G22G18G21G06G16G25G31G29
 130855182.087 6  24900911.299
 128157657.502 7  24387574.889
 126896320.301 7  24147565.964
 114311795.120 8  21752804.179
 110726784.957 8  21070594.801
 131208017.930 6  24968055.966
 128757130.406 6  24501666.753
 117666803.225 7  22391245.597
 125640126.489 7  23908523.088
 111257498.247 8  21171581.885
 14  2 15  1 29 30.0000000  0 10G15G05G22G18G21G06G16G25G31G29
 130794893.158 6  24889436.721
 128247937.485 6  24404754.076
 126790874.204 7  24127500.595
 114239700.675 8  21739084.869
 110730256.578 8  21071255.210
 131125818.462 6  24952414.162
 128657813.619 6  24482767.595
 117763541.107 8  22409654.683
 125703905.049 7  23920660.319
 111287500.007 8  21177291.144
 14  2 15  1 30  0.0000000  0 10G15G05G22G18G21G06G16G25G31G29
 130734736.056 6  24877991.651
 128338522.945 7  24421991.962
 126685479.436 6  24107443.700
 114167947.252 8  21725431.009
 110733972.365 8  21071962.496
 131043579.441 6  24936763.347
 128558670.834 6  24463901.374
 117860565.602 7  22428117.631
 125767887.569 7  23932836.442
 111317725.837 8  21183042.910
 14  2 15  1 30 30.0000000  0 10G15G05G22G18G21G06G16G25G31G29
 130674707.338 6  24866565.275
 128429405.035 7  24439286.923
 126580131.427 7  24087397.058
 114096530.347 8  21711840.567
 110737924.454 8  21072714.404
 130961295.180 6  24921104.596
 128459698.134 7  24445067.290
 117957867.989 7  22446633.171
 125832065.334 7  23945049.534
 111348169.970 8  21188836.167
 14  2 15  1 31  0.0000000  0 10G15G05G22G18G21G06G16G25G31G29
 130614815.132 7  24855174.299
 128520586.583 7  24456638.422
 126474838.482 7  24067360.436
 114025457.148 8  21698315.519
 110742117.186 8  21073512.362
 130878971.340 5  24905438.446
 128360903.725 7  24426267.785
 118055451.287 8  22465203.359
 125896440.031 7  23957300.218
 111378838.117 8  21194672.126
 14  2 15  1 31 30.0000000  0 10G15G05G22G18G21G06G16G25G31G29
 130555053.223 6  24843799.320
 128612055.423 6  24474044.223
 126369593.543 7  24047332.382
 113954721.557 8  21684854.856
 110746540.151 8  21074353.760
 130796599.379 5  24889763.023
 128262280.767 6  24407499.829
 118153303.819 8  22483824.033
 125960999.728 7  23969585.126
 111409721.915 8  21200549.255
 14  2 15  1 32  0.0000000  0 10G15G05G22G18G21G06G16G25G31G29
 130495427.622 6  24832449.635
 128703811.732 6  24491505.229
 126264401.919 7  24027316.551
 113884327.761 8  21671459.683
 110751194.780 8  21075239.682
 130714182.332 5  24874081.093
 128163834.649 6  24388766.919
 118251425.939 8  22502496.182
 126025744.298 7  23981903.885
 111440824.976 9  21206467.919
 14  2 15  1 32 30.0000000  0 10G15G05G22G18G21G06G16G25G31G29
 130435948.377 6  24821130.339
 128795860.565 6  24509021.904
 126159273.161 7  24007310.892
 113814284.989 8  21658131.027
 110756087.415 8  21076170.641
 130631727.975 6  24858392.859
 128065575.323 6  24370068.445
 118349822.597 8  22521219.921
 126090678.277 6  23994260.136
 111472154.961 8  21212429.498
 14  2 15  1 33  0.0000000  0 10G15G05G22G18G21G06G16G25G31G29
 130376609.925 6  24809841.926
 128888190.345 7  24526591.489
 126054201.195 7  23987315.474
 113744587.016 8  21644867.821
 110761208.410 8  21077144.990
 130549228.327 6  24842691.840
 127967496.595 7  24351404.990
 118448482.777 8  22539994.091
 126155789.963 7  24006650.992
 111503703.724 8  21218433.299
 14  2 15  1 33 30.0000000  0 10G15G05G22G18G21G06G16G25G31G29
 130317420.284 6  24798577.046
 128980803.415 7  24544215.002
 125949193.371 7  23967333.354
 113675241.105 8  21631672.034
 110766561.774 8  21078163.666
 130466688.950 6  24826985.644
 127869606.453 6  24332776.441
 118547409.088 7  22558819.620
 126221081.587 6  24019075.179
 111535477.146 8  21224479.751
 14  2 15  1 34  0.0000000  0 10G15G05G22G18G21G06G16G25G31G29
 130258380.565 6  24787343.198
 129073696.007 7  24561891.286
 125844250.661 7  23947364.155
 113606247.621 8  21618542.679
 110772145.150 8  21079226.291
 130384108.923 6  24811270.838
 127771905.669 6  24314184.492
 118646597.711 8  22577694.981
 126286548.830 7  24031534.240
 111567474.384 8  21230568.576
 14  2 15  1 34 30.0000000  0 10G15G05G22G18G21G06G16G25G31G29
 130199491.023 6  24776138.166
 129166862.475 7  24579620.027
 125739372.469 7  23927405.019
 113537605.663 8  21605480.529
 110777954.076 8  21080331.909
 130301485.739 6  24795547.427
 127674394.260 7  24295629.727
 118746043.200 8  22596618.254
 126352185.721 7  24044024.541
 111599692.867 8  21236699.397
 14  2 15  1 35  0.0000000  0 10G15G05G22G18G21G06G16G25G31G29
 130140752.277 6  24764959.076
 129260297.837 6  24597400.141
 125634559.036 7  23907460.352
 113469315.031 8  21592485.285
 110783985.263 8  21081479.436
 130218817.679 6  24779814.728
 127577072.428 7  24277109.337
 118845740.873 8  22615589.753
 126417987.112 7  24056546.577
 111632131.110 8  21242872.439
 14  2 15  1 35 30.0000000  0 10G15G05G22G18G21G06G16G25G31G29
 130082174.944 6  24753812.041
 129354007.313 7  24615233.152
 125529820.300 7  23887528.913
 113401385.086 8  21579558.460
 110790245.006 8  21082670.665
 130136112.796 6  24764076.701
 127479950.060 6  24258627.264
 118945695.908 7  22634611.159
 126483957.770 7  24069100.233
 111664797.049 8  21249088.501
 14  2 15  1 36  0.0000000  0 10G15G05G22G18G21G06G16G25G31G29
 130023762.124 6  24742696.860
 129447988.269 6  24633117.204
 125425158.714 7  23867612.597
 113333818.067 8  21566700.700
 110796732.571 8  21083905.282
 130053371.842 6  24748332.405
 127383030.125 6  24240183.903
 119045905.942 7  22653680.161
 126550094.782 6  24081684.881
 111697691.717 8  21255348.093
 14  2 15  1 36 30.0000000  0 10G15G05G22G18G21G06G16G25G31G29
 129965513.815 6  24731612.013
 129542235.022 6  24651051.231
 125320574.039 7  23847711.092
 113266613.273 8  21553912.521
 110803443.983 8  21085182.264
 129970592.506 6  24732580.157
 127286312.382 6  24221779.088
 119146365.694 8  22672797.263
 126616392.256 6  24094300.285
 111730812.744 8  21261651.190
 14  2 15  1 37  0.0000000  0 10G15G05G22G18G21G06G16G25G31G29
 129907431.773 6  24720560.526
 129636744.081 6  24669035.362
 125216067.617 7  23827824.351
 113199771.832 8  21541192.848
 110810377.139 8  21086501.857
 129887774.385 5  24716819.888
 127189798.828 7  24203413.825
 119247071.766 7  22691961.111
 126682846.460 7  24106945.550
 111764159.657 8  21267996.568
 14  2 15  1 37 30.0000000  0 10G15G05G22G18G21G06G16G25G31G29
 129849519.390 6  24709540.282
 129731512.905 6  24687069.876
 125111642.159 7  23807952.646
 113133295.595 8  21528543.111
 110817530.859 8  21087862.946
 129804918.179 6  24701053.757
 127093491.805 7  24185087.789
 119348021.787 7  22711170.705
 126749454.501 7  24119622.598
 111797733.195 8  21274385.555
 14  2 15  1 38  0.0000000  0 10G15G05G22G18G21G06G16G25G31G29
 129791777.577 6  24698552.165
 129826536.888 6  24705152.190
 125007297.651 7  23788095.589
 113067184.375 8  21515962.184
 110824902.037 8  21089265.484
 129722022.209 6  24685278.421
 126997391.514 6  24166800.101
 119449211.055 7  22730426.524
 126816211.330 7  24132325.742
 111831531.596 8  21280816.983
 14  2 15  1 38 30.0000000  0 10G15G05G22G18G21G06G16G25G31G29
 129734216.129 7  24687598.896
 129921820.757 6  24723284.092
 124903043.843 7  23768257.489
 113001447.469 8  21503452.801
 110832496.384 8  21090710.791
 129639094.375 6  24669500.230
 126901508.462 7  24148553.541
 119550644.538 7  22749729.085
 126883121.160 7  24145059.098
 111865563.069 8  21287292.998
 14  2 15  1 39  0.0000000  0 10G15G05G22G18G21G06G16G25G31G29
 129676830.749 6  24676675.823
 130017354.305 6  24741464.232
 124798875.838 7  23748433.997
 112936079.691 8  21491013.750
 110840306.224 8  21092196.731
 129556128.085 6  24653711.547
 126805837.705 7  24130348.543
 119652312.500 7  22769075.389
 126950173.849 7  24157818.569
 111899820.708 8  21293811.916
 14  2 15  1 39 30.0000000  0 10G15G05G22G18G21G06G16G25G31G29
 129619628.642 6  24665792.961
 130113139.275 6  24759690.865
 124694800.388 7  23728629.145
 112871086.952 8  21478646.062
 110848334.720 8  21093724.613
 129473128.074 6  24637916.530
 126710386.190 7  24112184.416
 119754216.585 7  22788467.098
 127017370.763 7  24170604.383
 111934309.793 8  21300375.080
 14  2 15  1 40  0.0000000  0 10G15G05G22G18G21G06G16G25G31G29
 129562613.505 6  24654942.814
 130209173.563 6  24777965.503
 124590820.061 7  23708842.613
 112806471.927 8  21466350.354
 110856580.289 8  21095293.789
 129390095.598 6  24622115.889
 126615157.032 6  24094062.412
 119856354.906 7  22807903.184
 127084709.533 7  24183419.075
 111969030.979 8  21306982.487
 14  2 15  1 40 30.0000000  0 10G15G05G22G18G21G06G16G25G31G29
 129505781.060 6  24644127.491
 130305447.551 6  24796285.689
 124486930.922 7  23689073.587
 112742229.340 8  21454125.480
 110865036.062 8  21096902.803
 129307024.183 6  24606307.342
 126520145.900 6  24075982.732
 119958718.016 7  22827381.984
 127152180.357 6  24196258.151
 112003977.819 8  21313632.688
 14  2 15  1 41  0.0000000  0 10G15G05G22G18G21G06G16G25G31G29
 129449139.833 7  24633350.206
 130401964.366 6  24814651.352
 124383141.077 7  23669323.053
 112678367.045 8  21441972.919
 110873706.261 8  21098553.079
 129223920.275 6  24590493.863
 126425361.225 7  24057946.213
 120061309.117 7  22846904.605
 127219785.702 7  24209122.312
 112039156.924 8  21320326.788
 14  2 15  1 41 30.0000000  0 10G15G05G22G18G21G06G16G25G31G29
 129392692.025 6  24622607.617
 130498720.399 6  24833065.147
 124279451.212 7  23649591.062
 112614885.696 8  21429892.670
 110882588.227 8  21100242.977
 129140783.383 6  24574673.176
 126330804.495 6  24039951.364
 120164124.668 7  22866470.033
 127287521.688 6  24222012.459
 112074567.478 8  21327065.478
 14  2 15  1 42  0.0000000  0 10G15G05G22G18G21G06G16G25G31G29
 129336440.580 6  24611904.754
 130595713.053 6  24851522.704
 124175864.437 7  23629879.827
 112551787.534 8  21417885.388
 110891681.643 8  21101973.490
 129057614.346 6  24558846.173
 126236478.506 6  24022001.042
 120267162.378 7  22886077.481
 127355385.778 7  24234926.785
 112110210.424 8  21333847.782
 14  2 15  1 42 30.0000000  0 10G15G05G22G18G21G06G16G25G31G29
 129280387.462 7  24601237.569
 130692938.801 6  24870024.001
 124072382.354 7  23610186.906
 112489072.922 8  21405951.061
 110900984.060 8  21103743.437
 128974412.805 6  24543013.267
 126142385.023 6  24004095.911
 120370418.636 7  22905726.672
 127423373.802 7  24247865.206
 112146085.291 8  21340675.040
 14  2 15  1 43  0.0000000  0 10G15G05G22G18G21G06G16G25G31G29
 129224541.942 6  24590610.312
 130790401.601 6  24888570.306
 123969013.582 7  23590516.765
 112426750.765 8  21394091.772
 110910500.935 8  21105554.629
 128891185.916 6  24527175.453
 126048533.284 6  23986237.288
 120473897.610 7  22925418.510
 127491489.525 7  24260827.681
 112182199.156 8  21347547.001
 14  2 15  1 43 30.0000000  0 10G15G05G22G18G21G06G16G25G31G29
 129168895.020 6  24580020.565
 130888086.448 6  24907158.448
 123865748.408 7  23570866.378
 112364810.591 9  21382304.835
 110920219.399 8  21107403.826
 128807922.265 6  24511332.342
 125954913.758 7  23968422.308
 120577584.667 7  22945149.011
 127559717.901 7  24273810.623
 112218540.501 8  21354462.622
 14  2 15  1 44  0.0000000  0 10G15G05G22G18G21G06G16G25G31G29
 129113460.972 6  24569471.507
 130986002.017 6  24925791.638
 123762600.836 7  23551237.559
 112303265.585 8  21370593.432
 110930149.540 8  21109293.619
 128724634.104 6  24495482.280
 125861540.200 7  23950654.169
 120681488.696 7  22964921.015
 127628067.397 6  24286817.335
 112255121.429 8  21361423.804
 14  2 15  1 44 30.0000000  0 10G15G05G22G18G21G06G16G25G31G29
 129058241.441 6  24558963.117
 131084145.176 6  24944467.269
 123659572.014 7  23531631.710
 112242116.248 8  21358957.025
 110940288.946 8  21111222.971
 128641320.742 6  24479628.570
 125768414.666 7  23932932.695
 120785606.022 7  22984734.108
 127696533.761 6  24299846.161
 112291941.272 8  21368430.343
 14  2 15  1 45  0.0000000  0 10G15G05G22G18G21G06G16G25G31G29
 129003225.699 7  24548495.437
 131182499.240 6  24963184.380
 123556650.179 7  23512047.107
 112181350.709 8  21347393.670
 110950622.592 8  21113189.394
 128557969.167 6  24463767.486
 125675525.791 6  23915255.852
 120889920.297 7  23004584.472
 127765100.483 6  24312893.066
 112328986.942 8  21375480.229
 14  2 15  1 45 30.0000000  0 10G15G05G22G18G21G06G16G25G31G29
 128948435.206 6  24538069.826
 131281080.114 6  24981943.759
 123453857.168 7  23492486.120
 112120989.308 8  21335907.300
 110961168.355 8  21115196.455
 128474598.544 6  24447902.121
 125582894.794 7  23897629.372
 120994447.646 7  23024475.099
 127833783.166 7  24325963.827
 112366277.213 8  21382575.957
 14  2 15  1 46  0.0000000  0 10G15G05G22G18G21G06G16G25G31G29
 128893853.361 6  24527681.751
 131379865.963 6  25000740.558
 123351175.635 7  23472946.430
 112061014.878 9  21324493.979
 110971905.844 8  21117239.470
 128391190.555 6  24432030.352
 125490504.721 6  23880047.413
 121099166.255 7  23044402.608
 127902559.593 7  24339051.331
 112403793.418 8  21389715.339
 14  2 15  1 46 30.0000000  0 10G15G05G22G18G21G06G16G25G31G29
 128839500.949 6  24517339.126
 131478871.637 6  25019580.900
 123248625.872 7  23453431.835
 112001446.346 8  21313159.000
 110982851.729 8  21119322.374
 128307763.290 6  24416154.665
 125398376.160 6  23862515.997
 121204091.276 7  23064369.783
 127971444.494 7  24352160.047
 112441554.277 8  21396900.659
 14  2 15  1 47  0.0000000  0 10G15G05G22G18G21G06G16G25G31G29
 128785376.276 6  24507039.516
 131578090.072 6  25038460.777
 123146205.656 7  23433941.975
 111942281.142 8  21301900.425
 110994000.141 8  21121443.695
 128224313.180 6  24400274.581
 125306507.686 7  23845035.093
 121309215.567 7  23084373.840
 128040430.335 7  24365287.354
 112479555.343 8  21404132.043
 14  2 15  1 47 30.0000000  0 10G15G05G22G18G21G06G16G25G31G29
 128731477.078 6  24496781.613
 131677513.271 6  25057380.196
 123043911.765 7  23414475.848
 111883515.651 9  21290717.749
 111005344.312 8  21123602.452
 128140835.606 6  24384389.245
 125214896.067 7  23827601.197
 121414531.443 7  23104414.468
 128109509.088 7  24378433.286
 112517791.693 8  21411408.294
 14  2 15  1 48  0.0000000  0 10G15G05G22G18G21G06G16G25G31G29
 128677815.802 7  24486571.616
 131777148.823 6  25076340.751
 122941756.725 7  23395036.064
 111825161.642 8  21279613.003
 111016893.474 8  21125800.219
 128057340.988 6  24368501.446
 125123553.997 7  23810219.569
 121520046.100 7  23124493.329
 128178687.642 7  24391596.946
 112556274.284 8  21418730.986
 14  2 15  1 48 30.0000000  0 10G15G05G22G18G21G06G16G25G31G29
 128624380.393 6  24476402.128
 131876978.977 6  25095338.423
 122839728.249 7  23375621.804
 111767205.310 9  21268584.474
 111028631.674 8  21128033.963
 127973815.153 6  24352605.767
 125032469.282 6  23792885.557
 121625742.105 7  23144606.824
 128247947.977 7  24404775.930
 112594988.428 8  21426098.413
 14  2 15  1 49  0.0000000  0 10G15G05G22G18G21G06G16G25G31G29
 128571179.648 6  24466280.193
 131977006.782 6  25114372.659
 122737834.152 7  23356231.003
 111709654.416 8  21257633.032
 111040563.116 8  21130304.257
 127890264.586 6  24336706.882
 124941650.074 7  23775604.094
 121731622.464 7  23164754.312
 128317293.015 6  24417971.598
 112633940.441 8  21433510.834
 14  2 15  1 49 30.0000000  0 10G15G05G22G18G21G06G16G25G31G29
 128518223.382 6  24456202.055
 132077236.727 6  25133445.247
 122636083.864 7  23336867.555
 111652517.744 8  21246760.226
 111052694.253 8  21132612.974
 127806697.302 6  24320804.188
 124851106.172 7  23758374.280
 121837691.824 7  23184938.837
 128386726.843 6  24431185.237
 112673137.810 8  21440969.734
 14  2 15  1 50  0.0000000  0 10G15G05G22G18G21G06G16G25G31G29
 128465510.966 6  24446170.760
 132177662.669 6  25152557.155
 122534476.731 7  23317532.357
 111595793.429 8  21235966.027
 111065020.889 8  21134958.664
 127723110.505 6  24304897.931
 124760837.028 6  23741196.447
 121943944.299 7  23205158.165
 128456243.287 6  24444413.483
 112712577.533 8  21448475.114
 14  2 15  1 50 30.0000000  0 10G15G05G22G18G21G06G16G25G31G29
 128413034.821 6  24436185.376
 132278271.655 6  25171702.964
 122433004.397 7  23298223.169
 111539472.389 8  21225248.021
 111077530.547 8  21137338.815
 127639494.295 6  24288987.314
 124670834.502 7  23724069.720
 122050366.670 7  23225409.655
 128525828.779 7  24457655.706
 112752249.668 8  21456024.111
 14  2 15  1 51  0.0000000  0 10G15G05G22G18G21G06G16G25G31G29
 128360812.493 7  24426247.558
 132379075.810 6  25190885.261
 122331684.131 7  23278943.200
 111483571.265 8  21214610.431
 111090237.115 8  21139756.978
 127555864.513 6  24273072.369
 124581116.179 7  23706996.970
 122156971.262 7  23245696.578
 128595495.049 6  24470912.013
 112792169.675 8  21463620.583
 14  2 15  1 51 30.0000000  0 10G15G05G22G18G21G06G16G25G31G29
 128308840.970 7  24416357.618
 132480066.387 6  25210102.967
 122230511.892 7  23259690.291
 111428085.518 8  21204052.070
 111103134.131 8  21142211.184
 127472215.816 6  24257153.583
 124491678.591 7  23689977.247
 122263749.410 7  23266016.079
 128665233.298 6  24484183.305
 112832331.950 8  21471263.363
 14  2 15  1 52  0.0000000  0 10G15G05G22G18G21G06G16G25G31G29
 128257122.489 6  24406515.642
 132581240.786 6  25229353.578
 122129490.340 7  23240467.187
 111373016.596 8  21193572.588
 111116219.644 8  21144701.352
 127388548.853 6  24241234.281
 124402523.809 7  23673012.248
 122370698.465 7  23286366.755
 128735040.415 6  24497466.729
 112872736.763 8  21478951.779
 14  2 15  1 52 30.0000000  0 10G15G05G22G18G21G06G16G25G31G29
 128205659.151 6  24396722.264
 132682595.479 6  25248641.877
 122028620.415 7  23221272.450
 111318364.966 8  21183172.845
 111129491.423 8  21147227.078
 127304863.545 6  24225308.915
 124313654.392 7  23656099.764
 122477814.797 7  23306750.553
 128804912.468 6  24510762.565
 112913383.565 8  21486686.544
 14  2 15  1 53  0.0000000  0 10G15G05G22G18G21G06G16G25G31G29
 128154464.555 7  24386981.482
 132784138.611 6  25267963.280
 121927915.773 7  23202108.993
 111264143.053 8  21172854.587
 111142959.769 8  21149789.921
 127221171.203 6  24209382.441
 124225083.277 6  23639244.996
 122585106.675 7  23327167.926
 128874857.540 6  24524073.650
 112954283.901 8  21494469.862
 14  2 15  1 53 30.0000000  0 10G15G05G22G18G21G06G16G25G31G29
 128103522.925 6  24377285.905
 132885848.795 6  25287319.075
 121827360.044 7  23182973.359
 111210333.457 9  21162615.167
 111156605.079 8  21152386.399
 127137454.148 6  24193452.293
 124136794.304 7  23622444.842
 122692552.827 7  23347614.254
 128944853.825 6  24537392.220
 112995419.433 8  21502297.859
 14  2 15  1 54  0.0000000  0 10G15G05G22G18G21G06G16G25G31G29
 128052847.847 6  24367643.838
 132987734.126 6  25306707.324
 121726966.513 7  23163869.110
 111156949.006 8  21152456.386
 111170437.163 8  21155018.745
 127053723.889 6  24177519.676
 124048800.819 7  23605700.667
 122800161.554 7  23368091.679
 129014909.302 6  24550723.614
 113036801.462 8  21510172.670
 14  2 15  1 54 30.0000000  0 10G15G05G22G18G21G06G16G25G31G29
 128002439.976 7  24358051.498
 133089789.879 6  25326128.915
 121626735.261 7  23144795.369
 111103988.636 8  21142378.480
 111184452.363 8  21157685.648
 126969979.391 7  24161584.107
 123961103.781 7  23589012.973
 122907928.085 7  23388598.665
 129085018.821 6  24564065.260
 113078428.440 8  21518093.988
 14  2 15  1 55  0.0000000  0  9G15G22G18G21G06G16G25G31G29
 127952304.224 6  24348511.723
 121526671.008 7  23125753.394
 111051456.549 8  21132381.960
 111198652.050 8  21160387.706
 126886223.626 6  24145644.728
 123873708.063 7  23572381.561
 123015852.257 7  23409135.915
 129155182.130 6  24577417.209
 113120302.973 8  21526062.356
 14  2 15  1 55 30.0000000  0  9G15G22G18G21G06G16G25G31G29
 127902445.499 6  24339022.015
 121426777.848 7  23106744.908
 110999355.748 8  21122467.456
 111213036.975 8  21163125.133
 126802459.589 6  24129706.896
 123786618.038 7  23555809.054
 123123933.343 7  23429702.544
 129225398.084 7  24590779.204
 113162427.606 8  21534078.259
 14  2 15  1 56  0.0000000  0 10G15G22G18G21G06G16G25G27G31G29
 127852854.164 6  24329585.139
 121327045.995 7  23087767.038
 110947675.241 9  21112632.615
 111227593.761 8  21165895.508
 126718675.481 6  24113761.693
 123699824.021 7  23539292.500
 123232156.302 7  23450296.867
 132588697.551 6  25230791.071
 129295651.169 6  24604147.052
 113204790.191 8  21542139.883
 14  2 15  1 56 30.0000000  0 10G15G22G18G21G06G16G25G27G31G29
 127803547.121 7  24320201.896
 121227492.004 7  23068822.169
 110896430.815 8  21102881.173
 111242335.466 8  21168700.315
 126634886.343 7  24097817.529
 123613342.475 7  23522834.704
 123340532.693 7  23470920.808
 132502391.053 6  25214367.295
 129365952.784 6  24617525.792
 113247405.068 8  21550249.387
 14  2 15  1 57  0.0000000  0 10G15G22G18G21G06G16G25G27G31G29
 127754522.598 7  24310873.791
 121128113.595 7  23049911.129
 110845619.412 8  21093212.183
 111257256.317 8  21171539.778
 126551088.470 6  24081870.384
 123527172.144 7  23506437.987
 123449055.510 7  23491572.166
 132416010.628 6  25197930.903
 129436295.817 7  24630911.595
 113290268.812 8  21558405.908
 14  2 15  1 57 30.0000000  0 10G15G22G18G21G06G16G25G27G31G29
 127705779.401 7  24301599.444
 121028909.188 8  23031033.810
 110795238.392 9  21083625.202
 111272351.081 8  21174412.162
 126467279.013 6  24065922.201
 123441311.175 7  23490099.859
 123557718.257 7  23512249.773
 132329552.845 6  25181477.832
 129506673.074 7  24644304.809
 113333377.985 8  21566609.407
 14  2 15  1 58  0.0000000  0 10G15G22G18G21G06G16G25G27G31G29
 127657327.219 7  24292379.172
 120929888.314 7  23012190.238
 110745296.342 8  21074121.103
 111287626.631 8  21177318.818
 126383465.917 6  24049972.603
 123355769.500 7  23473821.708
 123666525.270 7  23532955.083
 132243025.257 6  25165012.478
 129577088.744 7  24657704.670
 113376740.039 8  21574860.760
 14  2 15  1 58 30.0000000  0 10G15G22G18G21G06G16G25G27G31G29
 127609161.505 7  24283213.169
 120831045.625 7  22993381.568
 110695786.852 8  21064700.011
 111303074.316 8  21180258.548
 126299642.530 6  24034020.542
 123270542.020 7  23457602.992
 123775466.503 7  23553685.253
 132156421.058 5  25148531.269
 129647532.665 7  24671108.833
 113420347.464 8  21583158.633
 14  2 15  1 59  0.0000000  0 10G15G22G18G21G06G16G25G27G31G29
 127561288.571 7  24274103.681
 120732387.386 7  22974607.197
 110646715.284 9  21055362.095
 111318696.819 8  21183231.454
 126215813.480 6  24018069.435
 123185634.998 7  23441445.764
 123884543.277 7  23574442.012
 132069744.518 6  25132037.348
 129718005.581 7  24684519.554
 113464204.718 8  21591504.803
 14  2 15  1 59 30.0000000  0 10G15G22G18G21G06G16G25G27G31G29
 127513712.629 7  24265050.726
 120633916.961 7  22955869.039
 110598084.281 9  21046107.814
 111334494.080 8  21186237.514
 126131981.037 6  24002115.785
 123101052.656 7  23425350.010
 123993754.214 7  23595224.466
 131982997.732 6  25115529.438
 129788506.030 6  24697935.543
 113508313.659 8  21599898.816
 14  2 15  2  0  0.0000000  0 10G15G22G18G21G06G16G25G27G31G29
 127466435.598 6  24256053.242
 120535636.126 7  22937166.342
 110549894.121 9  21036937.734
 111350463.390 8  21189276.220
 126048145.148 6  23986163.818
 123016796.747 7  23409317.325
 124103095.793 7  23616031.903
 131896180.237 6  25099009.333
 129859030.212 6  24711356.393
 113552673.709 8  21608339.916
 14  2 15  2  0 30.0000000  0 10G15G22G18G21G06G16G25G27G31G29
 127419460.666 6  24247113.613
 120437548.051 7  22918500.726
 110502146.939 8  21027851.566
 111366605.849 8  21192348.199
 125964307.686 6  23970208.903
 122932870.752 7  23393345.615
 124212566.365 7  23636862.498
 131809293.517 6  25082475.408
 129929575.995 6  24724780.604
 113597286.064 8  21616829.502
 14  2 15  2  1  0.0000000  0 10G15G22G18G21G06G16G25G27G31G29
 127372787.325 7  24238232.436
 120339652.101 7  22899872.578
 110454840.874 9  21018849.567
 111382916.982 8  21195451.867
 125880466.378 6  23954254.097
 122849273.989 7  23377438.497
 124322160.084 7  23657719.070
 131722334.976 6  25065927.916
 130000137.600 6  24738208.459
 113642147.810 8  21625366.533
 14  2 15  2  1 30.0000000  0 10G15G22G18G21G06G16G25G27G31G29
 127326421.334 7  24229407.917
 120241953.206 7  22881280.766
 110407980.176 8  21009932.013
 111399397.954 8  21198588.272
 125796624.944 6  23938300.755
 122766011.362 7  23361593.517
 124431877.173 7  23678596.743
 131635307.982 6  25049366.908
 130070714.751 6  24751637.604
 113687262.364 8  21633951.350
 14  2 15  2  2  0.0000000  0 10G15G22G18G21G06G16G25G27G31G29
 127280363.452 7  24220645.159
 120144451.495 8  22862726.591
 110361564.071 8  21001099.508
 111416046.714 8  21201756.359
 125712782.515 6  23922346.096
 122683084.262 7  23345813.295
 124541713.127 7  23699498.145
 131548211.400 6  25032793.336
 130141302.857 6  24765069.897
 113732628.449 8  21642584.773
 14  2 15  2  2 30.0000000  0 10G15G22G18G21G06G16G25G27G31G29
 127234618.127 7  24211939.948
 120047151.679 8  22844211.309
 110315595.687 9  20992352.077
 111432863.866 8  21204956.674
 125628941.940 6  23906391.534
 122600497.169 7  23330097.811
 124651667.440 7  23720421.266
 131461047.916 6  25016207.162
 130211901.095 6  24778504.496
 113778248.377 8  21651265.490
 14  2 15  2  3  0.0000000  0 10G15G22G18G21G06G16G25G27G31G29
 127189186.152 7  24203293.585
 119950054.111 8  22825733.957
 110270074.264 9  20983689.625
 111449846.551 8  21208188.448
 125545102.555 6  23890438.162
 122518250.215 7  23314446.501
 124761735.672 7  23741365.248
 131373816.248 6  24999606.446
 130282504.690 6  24791941.147
 113824120.669 8  21659994.473
 14  2 15  2  3 30.0000000  0 10G15G22G18G21G06G16G25G27G31G29
 127144065.916 7  24194707.496
 119853156.461 7  22807295.220
 110224996.695 8  20975111.508
 111466988.677 8  21211450.461
 125461260.583 6  23874482.971
 122436342.133 7  23298860.334
 124871910.487 7  23762332.714
 131286512.364 6  24982993.803
 130353105.980 6  24805375.144
 113870240.697 8  21668771.124
 14  2 15  2  4  0.0000000  0 10G15G22G18G21G06G16G25G27G31G29
 127099268.068 7  24186184.231
 119756469.325 7  22788894.910
 110180372.298 9  20966619.909
 111484297.877 8  21214744.252
 125377425.180 7  23858529.929
 122354783.572 7  23283340.265
 124982197.568 7  23783319.267
 131199145.184 6  24966368.442
 130423710.411 6  24818810.817
 113916617.418 8  21677596.030
 14  2 15  2  4 30.0000000  0 10G15G22G18G21G06G16G25G27G31G29
 127054790.104 7  24177718.980
 119659989.887 8  22770536.584
 110136197.110 9  20958213.622
 111501768.161 8  21218068.858
 125293592.261 7  23842576.966
 122273571.379 7  23267885.601
 125092589.175 7  23804326.038
 131111710.357 6  24949730.289
 130494310.179 6  24832245.879
 113963246.037 8  21686469.018
 14  2 15  2  5  0.0000000  0 10G15G22G18G21G06G16G25G27G31G29
 127010638.496 6  24169318.016
 119563723.740 7  22752217.131
 110092476.086 8  20949893.890
 111519402.382 8  21221424.438
 125209766.527 6  23826625.530
 122192712.153 7  23252498.293
 125203086.498 7  23825352.987
 131024212.289 6  24933079.770
 130564906.213 6  24845680.423
 114010130.821 8  21695391.329
 14  2 15  2  5 30.0000000  0 10G15G22G18G21G06G16G25G27G31G29
 126966819.220 6  24160979.490
 119467677.230 7  22733940.006
 110049213.613 9  20941661.172
 111537202.883 8  21224811.833
 125125952.826 6  23810676.418
 122112212.396 7  23237179.933
 125313690.632 7  23846400.074
 130936655.279 6  24916417.347
 130635499.291 6  24859113.365
 114057275.418 8  21704362.673
 14  2 15  2  6  0.0000000  0 10G15G22G18G21G06G16G25G27G31G29
 126923331.897 6  24152704.091
 119371849.975 7  22715705.191
 110006407.826 8  20933515.529
 111555165.575 8  21228229.909
 125042148.888 6  23794727.823
 122032071.243 7  23221928.532
 125424395.840 7  23867466.642
 130849036.995 6  24899745.325
 130706083.509 6  24872545.498
 114104677.303 8  21713382.849
 14  2 15  2  6 30.0000000  0 10G15G22G18G21G06G16G25G27G31G29
 126880172.115 7  24144490.997
 119276236.314 8  22697510.885
 109964053.080 8  20925455.515
 111573282.485 8  21231677.257
 124958348.610 7  23778782.760
 121952284.089 7  23206746.250
 125535192.302 6  23888550.796
 130761350.867 6  24883059.356
 130776648.772 5  24885972.799
 114152329.707 8  21722450.530
 14  2 15  2  7  0.0000000  0 10G15G22G18G21G06G16G25G27G31G29
 126837344.145 7  24136340.779
 119180841.018 8  22679357.331
 109922151.682 8  20917481.944
 111591554.331 8  21235154.740
 124874554.925 7  23762835.886
 121872855.043 7  23191631.422
 125646079.251 7  23909651.904
 130673599.418 6  24866359.229
 130847193.806 5  24899397.215
 114200235.112 8  21731567.065
 14  2 15  2  7 30.0000000  0 10G15G22G18G21G06G16G25G27G31G29
 126794860.205 7  24128257.023
 119085675.689 8  22661247.464
 109880714.800 8  20909596.521
 111609989.682 8  21238662.783
 124790778.484 6  23746893.911
 121793796.870 7  23176587.946
 125757063.825 6  23930770.249
 130585793.169 6  24849650.376
 130917726.185 5  24912819.812
 114248403.085 8  21740733.300
 14  2 15  2  8  0.0000000  0 10G15G22G18G21G06G16G25G27G31G29
 126752707.883 7  24120233.914
 118990727.772 8  22643179.850
 109839728.280 8  20901797.251
 111628572.505 8  21242198.760
 124707005.393 6  23730951.170
 121715097.064 7  23161611.238
 125868128.478 6  23951905.250
 130497917.903 6  24832927.362
 130988227.929 5  24926235.209
 114296819.065 8  21749946.185
 14  2 15  2  8 30.0000000  0 10G15G22G18G21G06G16G25G27G31G29
 126710903.114 7  24112279.552
 118896012.763 7  22625156.294
 109799206.600 9  20894086.413
 111647315.513 8  21245765.414
 124623250.214 6  23715014.165
 121636771.368 7  23146707.245
 125979284.075 7  23973058.265
 130409987.775 6  24816194.820
 131058709.549 4  24939646.152
 114345496.642 8  21759209.249
 14  2 15  2  9  0.0000000  0 10G15G22G18G21G06G16G25G27G31G29
 126669449.249 7  24104392.059
 118801533.856 8  22607177.825
 109759151.660 8  20886464.451
 111666218.557 8  21249362.447
 124539514.751 6  23699079.488
 121558822.705 7  23131874.312
 126090528.763 6  23994225.785
 130322004.259 6  24799452.178
 131129169.204 4  24953054.444
 114394437.091 8  21768522.167
 14  2 15  2  9 30.0000000  0  9G15G22G18G21G06G16G25G27G29
 126628339.340 7  24096569.053
 118707283.809 8  22589242.863
 109719555.076 8  20878929.276
 111685271.014 8  21252988.295
 124455790.779 6  23683148.280
 121481244.858 7  23117111.365
 126201850.690 6  24015410.365
 130233958.856 5  24782697.879
 114443631.470 8  21777883.856
 14  2 15  2 10  0.0000000  0  9G15G22G18G21G06G16G25G27G29
 126587578.796 7  24088811.283
 118613267.827 8  22571351.365
 109680420.419 8  20871481.808
 111704474.953 8  21256642.555
 124372081.987 6  23667218.338
 121404042.813 7  23102420.664
 126313249.772 7  24036610.491
 130145854.979 6  24765933.032
 114493082.525 8  21787294.280
 14  2 15  2 10 30.0000000  0  9G15G22G18G21G06G16G25G27G29
 126547173.659 6  24081123.510
 118519491.649 8  22553506.605
 109641751.952 9  20864123.886
 111723832.834 8  21260326.474
 124288393.189 6  23651293.171
 121327222.502 7  23087801.217
 126424727.168 7  24057822.491
 130057697.061 6  24749157.082
 114542794.465 8  21796753.606
 14  2 15  2 11  0.0000000  0  9G15G22G18G21G06G16G25G27G29
 126507117.717 6  24073500.197
 118425948.689 8  22535705.730
 109603542.322 8  20856852.517
 111743335.089 8  21264037.546
 124204716.651 7  23635369.542
 121250777.740 7  23073254.736
 126536271.535 6  24079049.483
 129969477.104 6  24732369.060
 114592758.729 8  21806261.588
 14  2 15  2 11 30.0000000  0  9G15G22G18G21G06G16G25G27G29
 126467424.930 7  24065947.324
 118332652.808 8  22517952.002
 109565803.606 9  20849671.085
 111762992.326 8  21267777.875
 124121065.230 6  23619451.439
 121174722.828 7  23058781.891
 126647892.028 7  24100290.268
 129881207.690 6  24715573.191
 114642987.267 8  21815820.114
 14  2 15  2 12  0.0000000  0  9G15G22G18G21G06G16G25G27G29
 126428096.791 6  24058462.279
 118239604.954 8  22500245.677
 109528535.989 8  20842578.994
 111782802.100 8  21271547.437
 124037438.890 6  23603537.076
 121099058.815 7  23044383.152
 126759584.768 6  24121544.990
 129792888.295 6  24698766.016
 114693479.384 8  21825427.999
 14  2 15  2 12 30.0000000  0  9G15G22G18G21G06G16G25G27G29
 126389124.199 7  24051047.429
 118146796.213 8  22482584.787
 109491728.645 9  20835575.314
 111802752.803 8  21275343.833
 123953827.334 6  23587627.842
 121023776.896 7  23030057.786
 126871335.850 6  24142810.610
 129704508.489 6  24681947.745
 114744223.901 8  21835084.441
 14  2 15  2 13  0.0000000  0  9G15G22G18G21G06G16G25G27G29
 126350516.238 7  24043699.798
 118054235.391 8  22464971.280
 109455389.429 8  20828660.101
 111822849.754 8  21279168.306
 123870238.159 6  23571719.742
 120948886.096 7  23015806.453
 126983149.236 6  24164087.170
 129616075.546 6  24665119.863
 114795227.152 8  21844790.497
 14  2 15  2 13 30.0000000  0  9G15G22G18G21G06G16G25G27G29
 126312282.463 7  24036423.912
 117961931.832 8  22447406.026
 109419525.817 8  20821835.696
 111843098.969 8  21283021.704
 123786679.676 6  23555819.883
 120874395.946 7  23001631.287
 127095029.400 6  24185377.548
 129527597.479 6  24648283.148
 114846496.941 8  21854546.678
 14  2 15  2 14  0.0000000  0  9G15G22G18G21G06G16G25G27G29
 126274415.460 7  24029219.077
 117869877.862 8  22429889.456
 109384128.385 9  20815099.730
 111863489.660 8  21286901.795
 123703143.286 7  23539924.620
 120800298.991 7  22987531.684
 127206964.075 6  24206678.308
 129439065.329 6  24631436.480
 114898023.630 8  21864351.340
 14  2 15  2 14 30.0000000  0  9G15G22G18G21G06G16G25G27G29
 126236918.336 6  24022083.898
 117778076.383 8  22412420.110
 109349199.794 8  20808452.775
 111884022.161 8  21290808.875
 123619631.001 6  23524031.342
 120726598.251 7  22973506.680
 127318951.337 6  24227988.420
 129350480.667 6  24614577.417
 114949808.347 8  21874205.963
 14  2 15  2 15  0.0000000  0  9G15G22G18G21G06G16G25G27G29
 126199799.435 7  24015020.618
 117686535.737 8  22395000.142
 109314746.513 9  20801896.872
 111904700.787 8  21294744.285
 123536149.891 7  23508147.148
 120653302.512 7  22959559.019
 127430994.634 6  24249308.864
 129261850.372 6  24597713.421
 115001857.440 8  21884110.315
 14  2 15  2 15 30.0000000  0  9G15G22G18G21G06G16G25G27G29
 126163053.988 7  24008027.073
 117595250.703 8  22377629.333
 109280761.671 8  20795429.606
 111925517.909 8  21298705.489
 123452693.947 7  23492265.521
 120580406.743 7  22945687.752
 127543084.265 6  24270638.445
 129173168.247 6  24580836.475
 115054164.044 8  21894064.819
 14  2 15  2 16  0.0000000  0  9G15G22G18G21G06G16G25G27G29
 126126695.288 7  24001109.103
 117504234.447 8  22360309.378
 109247257.162 9  20789053.907
 111946484.298 8  21302695.653
 123369275.207 7  23476391.715
 120507924.410 7  22931894.043
 127655228.592 6  24291980.179
 129084445.978 6  24563953.051
 115106738.737 8  21904068.873
 14  2 15  2 16 30.0000000  0  9G15G22G18G21G06G16G25G27G29
 126090714.642 7  23994262.878
 117413478.322 8  22343039.325
 109214222.695 8  20782767.572
 111967586.940 8  21306711.230
 123285884.225 7  23460523.048
 120435847.322 7  22918178.942
 127767414.105 6  24313329.025
 128995673.622 6  24547059.712
 115159571.028 8  21914122.592
 14  2 15  2 17  0.0000000  0  9G15G22G18G21G06G16G25G27G29
 126055116.387 7  23987487.568
 117322986.786 8  22325819.305
 109181661.231 8  20776571.269
 111988826.948 8  21310752.882
 123202524.214 7  23444659.769
 120364179.589 7  22904540.242
 127879640.442 6  24334685.567
 128906854.249 6  24530158.858
 115212663.437 8  21924225.602
 14  2 15  2 17 30.0000000  0  9G15G22G18G21G06G16G25G27G29
 126019902.491 6  23980786.748
 117232761.010 8  22308649.916
 109149572.346 8  20770464.969
 112010203.836 8  21314820.716
 123119195.518 7  23428802.675
 120292922.465 7  22890980.583
 127991904.196 6  24356047.187
 128817987.972 6  24513247.682
 115266015.372 8  21934378.313
 14  2 15  2 18  0.0000000  0  9G15G22G18G21G06G16G25G27G29
 125985086.317 7  23974161.475
 117142814.258 8  22291533.594
 109117968.333 8  20764451.024
 112031727.128 8  21318916.726
 123035910.605 7  23412954.082
 120222090.092 7  22877501.759
 128104214.051 6  24377418.149
 128729086.843 6  24496329.854
 115319638.251 8  21944582.144
 14  2 15  2 18 30.0000000  0  9G15G22G18G21G06G16G25G27G29
 125950655.564 7  23967609.885
 117053133.980 8  22274467.622
 109086835.096 8  20758526.538
 112053381.688 8  21323037.383
 122952656.257 7  23397111.816
 120151669.982 7  22864101.006
 128216552.720 6  24398796.902
 128640137.054 6  24479403.713
 115373517.399 8  21954835.162
 14  2 15  2 19  0.0000000  0  9G15G22G18G21G06G16G25G27G29
 125916619.895 7  23961132.618
 116963730.347 8  22257454.901
 109056181.044 8  20752692.989
 112075174.148 8  21327184.176
 122869441.004 7  23381275.958
 120081672.074 7  22850781.279
 128328925.399 6  24420179.813
 128551147.442 6  24462469.680
 115427661.000 8  21965138.739
 14  2 15  2 19 30.0000000  0  9G15G22G18G21G06G16G25G27G29
 125882981.594 7  23954731.780
 116874605.101 8  22240494.703
 109026006.528 8  20746951.306
 112097103.541 8  21331357.238
 122786266.253 7  23365448.291
 120012098.782 7  22837541.967
 128441329.420 6  24441569.632
 128462118.700 6  24445528.334
 115482069.055 8  21975491.922
 14  2 15  2 20  0.0000000  0  9G15G22G18G21G06G16G25G27G29
 125849737.630 7  23948405.884
 116785755.114 8  22223586.642
 108996306.759 8  20741299.348
 112119163.439 8  21335555.144
 122703128.005 7  23349627.160
 119942947.119 7  22824382.153
 128553756.881 6  24462963.892
 128373046.511 6  24428577.361
 115536736.506 8  21985894.684
 14  2 15  2 20 30.0000000  0  9G15G22G18G21G06G16G25G27G29
 125816902.964 6  23942155.609
 116697195.196 8  22206734.957
 108967094.628 8  20735740.744
 112141365.837 8  21339780.009
 122620040.100 7  23333816.408
 119874231.679 7  22811306.095
 128666217.940 6  24484365.325
 128283944.560 6  24411622.843
 115591675.925 8  21996349.397
 14  2 15  2 21  0.0000000  0  9G15G22G18G21G06G16G25G27G29
 125784462.645 7  23935983.402
 116608910.640 8  22189934.870
 108938354.682 8  20730271.421
 112163693.031 8  21344028.971
 122536986.857 7  23318011.847
 119805937.992 7  22798310.797
 128778693.043 6  24505766.434
 128194796.837 6  24394657.240
 115646870.655 8  22006852.710
 14  2 15  2 21 30.0000000  0  9G15G22G18G21G06G16G25G27G29
 125752425.321 7  23929887.823
 116520909.295 8  22173188.054
 108910092.642 8  20724893.695
 112186150.667 8  21348302.359
 122453975.604 6  23302214.864
 119738074.609 7  22785396.730
 128891185.921 6  24527174.582
 128105610.559 6  24377687.300
 115702326.800 8  22017405.654
 14  2 15  2 22  0.0000000  0  9G15G22G18G21G06G16G25G27G29
 125720800.720 7  23923869.226
 116433201.250 8  22156498.694
 108882317.118 8  20719607.822
 112208744.847 8  21352601.822
 122371015.460 7  23286428.235
 119670651.551 7  22772566.331
 129003701.629 6  24548585.355
 128016394.123 6  24360709.845
 115758052.358 8  22028009.263
 14  2 15  2 22 30.0000000  0  9G15G22G18G21G06G16G25G27G29
 125689584.275 7  23917928.085
 116345782.296 8  22139863.013
 108855022.137 8  20714413.765
 112231468.667 8  21356925.737
 122288101.198 7  23270650.527
 119603664.078 7  22759818.683
 129116231.165 6  24569997.425
 127927142.299 6  24343724.578
 115814041.092 8  22038664.009
 14  2 15  2 23  0.0000000  0  9G15G22G18G21G06G16G25G27G29
 125658782.267 7  23912067.494
 116258658.028 8  22123283.888
 108828211.992 8  20709311.878
 112254324.376 8  21361275.317
 122205238.018 7  23254881.201
 119537119.088 7  22747155.937
 129228775.819 6  24591414.700
 127837860.046 6  24326735.996
 115870296.931 8  22049369.181
 14  2 15  2 23 30.0000000  0  9G15G22G18G21G06G16G25G27G29
 125628392.421 7  23906284.506
 116171826.146 8  22106760.838
 108801882.731 8  20704301.615
 112277308.004 8  21365648.843
 122122423.000 7  23239122.524
 119471014.386 7  22734576.743
 129341328.805 6  24612832.766
 127748543.974 6  24309739.623
 115926815.549 8  22060124.864
 14  2 15  2 24  0.0000000  0  9G15G22G18G21G06G16G25G27G29
 125598412.421 7  23900579.901
 116085284.373 8  22090291.571
 108776030.403 8  20699381.969
 112300413.890 8  21370045.800
 122039652.698 7  23223372.339
 119405346.948 7  22722080.501
 129453883.056 6  24634251.067
 127659190.470 6  24292736.937
 115983592.529 8  22070929.008
 14  2 15  2 24 30.0000000  0  9G15G22G18G21G06G16G25G27G29
 125568854.693 7  23894955.253
 115999045.024 8  22073880.599
 108750665.684 9  20694555.593
 112323651.639 8  21374467.597
 121956939.064 7  23207631.982
 119340130.017 7  22709670.004
 129566446.388 6  24655671.278
 127569811.117 6  24275726.681
 116040638.577 8  22081784.436
 14  2 15  2 25  0.0000000  0  9G15G22G18G21G06G16G25G27G29
 125539712.938 7  23889408.913
 115913101.912 8  22057526.544
 108725780.492 8  20689819.659
 112347012.165 8  21378913.410
 121874274.915 7  23191901.816
 119275357.408 7  22697344.771
 129679007.966 6  24677091.141
 127480398.580 6  24258712.566
 116097945.203 8  22092689.448
 14  2 15  2 25 30.0000000  0  9G15G22G18G21G06G16G25G27G29
 125510994.757 7  23883944.393
 115827462.564 8  22041229.838
 108701380.970 8  20685177.120
 112370499.541 8  21383383.001
 121791667.106 7  23176181.729
 119211036.767 7  22685104.233
 129791570.739 6  24698510.264
 127390959.339 6  24241693.091
 116155518.052 8  22103645.093
 14  2 15  2 26  0.0000000  0  9G15G22G18G21G06G16G25G27G29
 125482699.769 6  23878560.422
 115742126.478 8  22024991.102
 108677464.923 8  20680625.552
 112394111.168 8  21387875.926
 121709114.708 7  23160472.896
 119147167.519 7  22672951.067
 129904129.720 6  24719930.706
 127301492.035 6  24224667.591
 116213354.961 8  22114650.671
 14  2 15  2 26 30.0000000  0  9G15G22G18G21G06G16G25G27G29
 125454833.970 7  23873256.652
 115657099.700 8  22008810.773
 108654036.399 8  20676167.189
 112417850.024 8  21392393.320
 121626622.965 7  23144774.704
 119083755.700 7  22660883.873
 130016686.561 6  24741349.137
 127212001.873 6  24207638.836
 116271459.957 8  22125708.236
 14  2 15  2 27  0.0000000  0  9G15G22G18G21G06G16G25G27G29
 125427394.506 7  23868035.336
 115572379.379 8  21992689.462
 108631091.152 8  20671801.006
 112441710.124 8  21396933.379
 121544188.528 7  23129088.835
 119020799.192 7  22648903.441
 130129233.724 6  24762765.954
 127122485.054 6  24190603.129
 116329828.017 8  22136815.016
 14  2 15  2 27 30.0000000  0  9G15G22G18G21G06G16G25G27G29
 125400388.674 7  23862897.770
 115487972.860 8  21976627.095
 108608634.669 8  20667527.632
 112465695.597 8  21401497.982
 121461817.956 7  23113414.108
 118958305.196 7  22637011.102
 130241773.997 5  24784180.176
 127032947.898 6  24173566.029
 116388464.302 8  22147973.303
 14  2 15  2 28  0.0000000  0  9G15G22G18G21G06G16G25G27G29
 125373812.483 6  23857838.861
 115403875.944 8  21960624.280
 108586661.581 8  20663346.234
 112489801.225 8  21406084.880
 121379506.548 7  23097749.658
 118896269.595 7  22625206.077
 130354298.859 5  24805594.703
 126943385.535 7  24156523.872
 116447363.249 8  22159181.365
 14  2 15  2 28 30.0000000  0  9G15G22G18G21G06G16G25G27G29
 125347673.725 7  23852864.899
 115320096.678 8  21944681.134
 108565177.715 8  20659257.915
 112514031.706 8  21410695.730
 121297261.596 7  23082099.655
 118834701.026 7  22613490.371
 130466811.869 6  24827006.669
 126853805.034 6  24139476.383
 116506530.731 8  22170440.607
 14  2 15  2 29  0.0000000  0  9G15G22G18G21G06G16G25G27G29
 125321965.103 7  23847973.925
 115236627.632 8  21928797.231
 108544173.589 8  20655261.117
 112538375.792 8  21415328.434
 121215075.184 7  23066459.657
 118773591.651 7  22601861.511
 130579300.990 5  24848411.407
 126764197.972 6  24122425.106
 116565957.285 8  22181748.858
 14  2 15  2 29 30.0000000  0  9G15G22G18G21G06G16G25G27G29
 125296695.071 7  23843164.723
 115153477.307 8  21912975.072
 108523656.478 8  20651356.901
 112562840.124 8  21419984.012
 121132955.502 7  23050831.930
 118712950.144 8  22590321.839
 130691770.434 5  24869816.172
 126674572.346 6  24105369.542
 116625649.707 8  22193107.764
 14  2 15  2 30  0.0000000  0  9G15G22G18G21G06G16G25G27G29
 125271867.616 7  23838439.638
 115070649.889 8  21897213.526
 108503628.499 8  20647545.772
 112587425.887 8  21424662.509
 121050906.021 7  23035219.179
 118652781.127 7  22578871.878
 130804220.008 5  24891213.570
 126584931.334 7  24088311.568
 116685610.071 8  22204518.291
 14  2 15  2 30 30.0000000  0  9G15G22G18G21G06G16G25G27G29
 125247484.471 7  23833799.396
 114988147.048 8  21881513.750
 108484089.795 8  20643827.540
 112612132.641 8  21429363.994
 120968927.761 7  23019618.699
 118593086.156 8  22567512.334
 130916646.652 5  24912606.804
 126495275.764 6  24071250.598
 116745837.938 8  22215979.377
 14  2 15  2 31  0.0000000  0  9G15G22G18G21G06G16G25G27G29
 125223544.204 7  23829245.386
 114905967.282 8  21865875.146
 108465037.237 8  20640202.105
 112636955.827 8  21434087.456
 120887019.185 7  23004032.671
 118533863.878 8  22556242.695
 131029044.862 5  24933998.041
 126405603.660 7  24054186.657
 116806330.251 8  22227490.369
 14  2 15  2 31 30.0000000  0  9G15G22G18G21G06G16G25G27G29
 125200045.975 7  23824773.017
 114824109.807 8  21850298.180
 108446468.123 8  20636668.403
 112661891.918 8  21438832.816
 120805178.783 7  22988459.037
 118475113.877 7  22545062.657
 131141409.422 5  24955375.798
 126315913.386 6  24037118.347
 116867084.401 8  22239052.123
 14  2 15  2 32  0.0000000  0  9G15G22G18G21G06G16G25G27G29
 125176997.742 7  23820386.308
 114742582.809 8  21834783.990
 108428388.665 8  20633228.114
 112686947.043 8  21443600.553
 120723414.020 7  22972899.129
 118416844.059 7  22533974.221
 131253743.752 5  24976754.683
 126226212.324 7  24020049.963
 116928106.238 8  22250664.104
 14  2 15  2 32 30.0000000  0  9G15G22G18G21G06G16G25G27G29
 125154401.295 7  23816087.169
 114661388.283 8  21819333.283
 108410798.914 8  20629880.721
 112712119.727 8  21448390.982
 120641726.646 7  22957355.493
 118359056.102 7  22522977.977
 131366045.716 5  24998126.151
 126136501.663 6  24002977.444
 116989395.754 8  22262326.454
 14  2 15  2 33  0.0000000  0  9G15G22G18G21G06G16G25G27G29
 125132255.232 6  23811872.555
 114580524.769 8  21803945.085
 108393695.869 8  20626625.833
 112737405.909 8  21453202.770
 120560114.824 7  22941824.793
 118301749.468 8  22512072.473
 131478309.294 5  25019487.996
 126046779.377 6  23985903.658
 117050949.963 8  22274040.653
 14  2 15  2 33 30.0000000  0  9G15G22G18G21G06G16G25G27G29
 125110566.710 7  23807745.511
 114499999.440 8  21788621.865
 108377084.887 8  20623465.158
 112762810.592 8  21458037.203
 120478585.409 7  22926310.117
 118244931.281 8  22501260.425
 131590537.653 5  25040844.894
 125957051.979 6  23968828.964
 117112773.845 7  22285804.689
 14  2 15  2 34  0.0000000  0  9G15G22G18G21G06G16G25G27G29
 125089317.580 7  23803701.586
 114419793.876 8  21773359.707
 108360946.003 8  20620393.991
 112788312.755 8  21462889.534
 120397119.777 7  22910807.072
 118188583.282 8  22490537.990
 131702708.230 5  25062186.934
 125867300.767 6  23951750.249
 117174847.491 8  22297617.302
 14  2 15  2 34 30.0000000  0  9G15G22G18G21G06G16G25G27G29
 125068535.324 7  23799747.660
 114339936.490 8  21758162.509
 108345305.226 8  20617417.884
 112813938.967 8  21467766.328
 120315745.436 7  22895322.004
 118132733.626 7  22479909.448
 131814844.586 4  25083525.493
 125777552.926 6  23934671.821
 117237196.636 8  22309482.299
 14  2 15  2 35  0.0000000  0  9G15G22G18G21G06G16G25G27G29
 125048207.852 7  23795879.238
 114260414.871 8  21743030.641
 108330148.632 8  20614533.432
 112839673.457 8  21472663.598
 120234449.891 7  22879852.163
 118077369.842 8  22469374.892
 131926930.607 4  25104856.993
 125687795.659 6  23917591.834
 117299807.334 8  22321396.303
 14  2 15  2 35 30.0000000  0  9G15G22G18G21G06G16G25G27G29
 125028339.363 7  23792098.442
 114181233.452 8  21727962.772
 108315478.690 8  20611741.722
 112865518.177 8  21477581.508
 120153237.268 7  22864397.788
 118022496.382 8  22458932.786
 132038967.147 4  25126176.643
 125598032.844 6  23900510.552
 117362682.184 8  22333360.646
 14  2 15  2 36  0.0000000  0  9G15G22G18G21G06G16G25G27G29
 125008938.601 7  23788406.539
 114102401.015 8  21712961.376
 108301302.164 8  20609044.243
 112891479.253 8  21482522.003
 120072116.101 7  22848961.288
 117968123.012 8  22448586.046
 132150956.063 4  25147487.938
 125508272.802 7  23883430.314
 117425828.203 8  22345377.099
 14  2 15  2 36 30.0000000  0  9G15G22G18G21G06G16G25G27G29
 124989994.056 7  23784800.688
 114023906.533 8  21698024.915
 108287606.297 8  20606437.862
 112917543.204 8  21487481.477
 119991074.790 7  22833540.099
 117914237.585 8  22438331.121
 132262883.817 4  25168788.468
 125418503.671 7  23866347.941
 117489232.241 7  22357442.736
 14  2 15  2 37  0.0000000  0  9G15G22G18G21G06G16G25G27G29
 124971519.444 7  23781285.266
 113945763.228 8  21683154.195
 108274402.565 8  20603925.289
 112943721.398 8  21492463.146
 119910126.808 7  22818135.698
 117860854.397 8  22428173.356
 132374760.323 4  25190078.063
 125328738.612 7  23849265.323
 117552905.600 8  22369558.376
 14  2 15  2 37 30.0000000  0  9G15G22G18G21G06G16G25G27G29
 124953510.835 7  23777858.171
 113867967.956 8  21668350.270
 108261685.719 8  20601505.294
 112970007.779 8  21497464.907
 119829268.416 7  22802749.565
 117807969.554 8  22418108.978
 132486559.192 4  25211353.895
 125238973.735 7  23832184.653
 117616843.060 8  22381725.753
 14  2 15  2 38  0.0000000  0  8G15G22G18G21G06G16G27G29
 124935969.256 7  23774520.980
 113790521.614 8  21653612.660
 108249454.833 8  20599177.790
 112996400.718 8  21502487.391
 119748500.207 7  22787379.046
 117755583.906 8  22408140.657
 125149209.362 7  23815101.864
 117681043.791 8  22393943.246
 14  2 15  2 38 30.0000000  0  8G15G22G18G21G06G16G27G29
 124918899.655 7  23771272.686
 113713429.285 8  21638942.440
 108237713.442 8  20596943.563
 113022903.702 8  21507530.981
 119667827.167 7  22772027.388
 117703703.759 7  22398268.402
 125059450.532 7  23798021.557
 117745511.135 8  22406210.949
 14  2 15  2 39  0.0000000  0  8G15G22G18G21G06G16G27G29
 124902300.683 7  23768114.442
 113636690.126 8  21624339.469
 108226458.432 8  20594802.062
 113049512.696 8  21512594.769
 119587248.380 7  22756694.269
 117652327.494 8  22388491.561
 124969695.456 7  23780942.084
 117810242.029 7  22418528.781
 14  2 15  2 39 30.0000000  0  8G15G22G18G21G06G16G27G29
 124886174.610 7  23765045.164
 113560306.294 8  21609804.105
 108215690.121 8  20592752.801
 113076227.558 8  21517678.516
 119506765.547 7  22741377.915
 117601457.164 8  22378810.916
 124879946.077 6  23763862.941
 117875236.995 7  22430896.940
 14  2 15  2 40  0.0000000  0  8G15G22G18G21G06G16G27G29
 124870524.029 7  23762066.465
 113484280.585 8  21595337.110
 108205409.312 8  20590796.305
 113103049.023 8  21522782.296
 119426381.587 7  22726082.494
 117551095.232 8  22369227.400
 124790204.767 7  23746785.553
 117940496.829 8  22443315.460
 14  2 15  2 40 30.0000000  0  9G15G22G18G21G06G16G27G03G29
 124855353.472 7  23759179.369
 113408617.915 8  21580938.707
 108195618.755 8  20588933.222
 113129979.580 8  21527906.624
 119346100.807 7  22710805.058
 117501246.949 8  22359741.876
 124700475.846 7  23729711.114
 129780325.352 6  24696375.148
 118006024.554 8  22455784.965
 14  2 15  2 41  0.0000000  0  9G15G22G18G21G06G16G27G03G29
 124840657.268 7  23756382.981
 113333312.746 8  21566608.659
 108186311.288 8  20587162.091
 113157011.213 8  21533050.577
 119265918.326 7  22695547.490
 117451907.542 8  22350352.459
 124610753.957 7  23712636.575
 129674382.076 6  24676215.545
 118071812.728 7  22468304.061
 14  2 15  2 41 30.0000000  0  9G15G22G18G21G06G16G27G03G29
 124826437.916 7  23753677.901
 113258367.522 8  21552347.130
 108177487.039 8  20585482.864
 113184144.230 8  21538214.186
 119185835.937 7  22680307.924
 117403078.740 8  22341060.957
 124521040.881 7  23695566.197
 129568426.137 6  24656052.533
 118137862.048 7  22480872.934
 14  2 15  2 42  0.0000000  0  9G15G22G18G21G06G16G27G03G29
 124812699.771 7  23751063.345
 113183787.388 8  21538155.178
 108169149.353 8  20583896.342
 113211381.352 8  21543397.395
 119105858.607 7  22665088.702
 117354765.419 7  22331866.762
 124431341.429 7  23678495.842
 129462462.216 6  24635886.911
 118204175.715 7  22493491.744
 14  2 15  2 42 30.0000000  0  9G15G22G18G21G06G16G27G03G29
 124799448.128 7  23748541.114
 113109577.754 8  21524033.168
 108161302.259 8  20582403.059
 113238726.033 8  21548600.677
 119025991.986 7  22649890.119
 117306973.588 8  22322772.982
 124341660.874 7  23661430.748
 129356496.217 6  24615723.014
 118270757.195 8  22506161.775
 14  2 15  2 43  0.0000000  0  9G15G22G18G21G06G16G27G03G29
 124786675.623 7  23746110.356
 113035731.484 8  21509980.788
 108153935.953 8  20581001.251
 113266168.502 8  21553822.910
 118946228.766 7  22634712.389
 117259695.678 8  22313776.348
 124251991.688 6  23644367.336
 129250520.828 6  24595556.723
 118337597.248 7  22518881.107
 14  2 15  2 43 30.0000000  0  9G15G22G18G21G06G16G27G03G29
 124774392.505 7  23743773.692
 112962258.832 8  21495999.831
 108147059.242 8  20579692.680
 113293716.890 8  21559064.942
 118866579.438 7  22619555.241
 117212942.348 8  22304879.603
 124162344.056 7  23627307.788
 129144546.813 6  24575390.628
 118404704.950 7  22531650.903
 14  2 15  2 44  0.0000000  0  9G15G22G18G21G06G16G27G03G29
 124762593.071 7  23741527.102
 112889154.607 8  21482087.835
 108140664.801 8  20578475.613
 113321364.172 8  21564325.930
 118787038.694 7  22604419.003
 117166707.740 8  22296081.145
 124072712.625 7  23610251.272
 129038568.815 6  24555223.834
 118472072.631 7  22544471.154
 14  2 15  2 44 30.0000000  0  9G15G22G18G21G06G16G27G03G29
 124751282.101 7  23739376.259
 112816423.869 8  21468248.395
 108134755.557 8  20577351.264
 113349112.977 8  21569606.450
 118707611.490 7  22589305.002
 117120997.645 8  22287383.386
 123983102.015 6  23593198.904
 128932591.724 5  24535055.300
 118539703.517 7  22557340.503
 14  2 15  2 45  0.0000000  0  9G15G22G18G21G06G16G27G03G29
 124740459.988 7  23737315.658
 112744067.450 8  21454479.256
 108129330.264 8  20576318.802
 113376961.436 8  21574905.624
 118628298.434 7  22574212.085
 117075812.257 8  22278784.030
 123893512.824 6  23576150.773
 128826616.324 6  24514889.563
 118607596.541 7  22570259.775
 14  2 15  2 45 30.0000000  0  9G15G22G18G21G06G16G27G03G29
 124730132.107 7  23735350.466
 112672090.549 8  21440782.172
 108124391.942 8  20575379.131
 113404912.847 8  21580224.923
 118549104.977 7  22559142.188
 117031156.533 8  22270286.159
 123803950.121 7  23559107.563
 128720648.006 6  24494724.116
 118675754.996 8  22583230.460
 14  2 15  2 46  0.0000000  0  9G15G22G18G21G06G16G27G03G29
 124720290.437 7  23733477.540
 112600485.998 8  21427156.342
 108119931.804 8  20574530.411
 113432958.280 8  21585561.748
 118470024.330 7  22544093.151
 116987023.340 8  22261888.129
 123714406.806 7  23542067.243
 128614679.860 6  24474560.299
 118744170.262 8  22596249.706
 14  2 15  2 46 30.0000000  0  9G15G22G18G21G06G16G27G03G29
 124710942.023 7  23731699.086
 112529261.001 8  21413602.729
 108115955.050 8  20573773.520
 113461102.901 8  21590917.353
 118391063.476 7  22529067.479
 116943420.244 8  22253590.823
 123624889.905 6  23525032.857
 128508719.270 6  24454395.007
 118812847.620 7  22609318.627
 14  2 15  2 47  0.0000000  0  9G15G22G18G21G06G16G27G03G29
 124702091.580 7  23730014.629
 112458420.234 8  21400121.975
 108112464.607 8  20573109.628
 113489349.514 8  21596292.589
 118312227.856 7  22514065.550
 116900352.381 8  22245395.048
 123535404.399 7  23508004.143
 128402771.347 6  24434234.229
 118881789.858 7  22622437.206
 14  2 15  2 47 30.0000000  0  9G15G22G18G21G06G16G27G03G29
 124693736.692 7  23728424.948
 112387962.016 8  21386714.275
 108109456.315 8  20572536.996
 113517693.775 8  21601686.442
 118233515.176 8  22499087.769
 116857817.270 8  22237301.356
 123445948.022 7  23490981.645
 128296834.244 5  24414074.007
 118950993.244 7  22635606.202
 14  2 15  2 48  0.0000000  0  9G15G22G18G21G06G16G27G03G29
 124685876.851 7  23726930.453
 112317886.025 8  21373379.418
 108106927.703 8  20572055.933
 113546133.518 8  21607098.660
 118154925.516 7  22484132.107
 116815814.351 8  22229308.172
 123356520.508 6  23473963.274
 128190907.774 5  24393916.889
 119020455.834 7  22648824.948
 14  2 15  2 48 30.0000000  0  9G15G22G18G21G06G16G27G03G29
 124678517.445 7  23725528.765
 112248197.990 9  21360118.698
 108104882.729 8  20571666.519
 113574672.421 8  21612528.960
 118076464.809 7  22469201.467
 116774349.484 8  22221417.202
 123267127.723 7  23456952.811
 128084998.255 6  24373763.485
 119090181.511 7  22662093.349
 14  2 15  2 49  0.0000000  0  9G15G22G18G21G06G16G27G03G29
 124671654.261 7  23724223.315
 112178894.297 8  21346930.332
 108103315.654 8  20571368.460
 113603304.885 8  21617977.667
 117998129.431 7  22454294.986
 116733418.466 8  22213628.576
 123177765.855 7  23439948.388
 127979102.285 6  24353611.571
 119160164.462 8  22675411.745
 14  2 15  2 49 30.0000000  0  9G15G22G18G21G06G16G27G03G29
 124665289.757 7  23723011.887
 112109977.527 8  21333815.991
 108102227.457 8  20571161.190
 113632031.419 8  21623444.273
 117919922.330 7  22439412.562
 116693024.312 8  22205942.370
 123088437.629 6  23422949.073
 127873222.524 6  24333464.024
 119230405.858 7  22688776.942
 14  2 15  2 50  0.0000000  0  9G15G22G18G21G06G16G27G03G29
 124659423.545 7  23721895.304
 112041447.801 8  21320774.742
 108101615.294 8  20571044.545
 113660850.324 8  21628928.371
 117841843.867 7  22424554.204
 116653167.053 8  22198356.865
 122999143.069 7  23405958.089
 127767359.476 6  24313319.303
 119300903.646 7  22702192.274
 14  2 15  2 50 30.0000000  0  9G15G22G18G21G06G16G27G03G29
 124654069.335 7  23720876.883
 111973319.298 8  21307810.449
 108101492.086 8  20571021.416
 113689774.077 8  21634432.134
 117763908.564 7  22409723.952
 116613860.309 7  22190877.997
 122909896.625 7  23388974.304
 127661527.861 6  24293180.225
 119371670.533 7  22715658.865
 14  2 15  2 51  0.0000000  0  9G15G22G18G21G06G16G27G03G29
 124649214.584 7  23719953.257
 111905579.856 8  21294920.063
 108101843.345 8  20571088.359
 113718788.236 8  21639953.572
 117686104.507 7  22394918.051
 116575092.234 8  22183500.644
 122820686.214 7  23371997.764
 127555715.651 6  24273045.380
 119442692.444 7  22729174.430
 14  2 15  2 51 30.0000000  0  9G15G22G18G21G06G16G27G03G29
 124644862.779 7  23719124.777
 111838232.973 8  21282104.426
 108102670.624 8  20571245.840
 113747894.558 8  21645492.623
 117608435.575 7  22380138.113
 116536866.275 8  22176226.570
 122731515.598 7  23355029.119
 127449927.217 6  24252913.670
 119513971.257 7  22742737.880
 14  2 15  2 52  0.0000000  0  9G15G22G18G21G06G16G27G03G29
 124641021.502 7  23718393.972
 111771286.867 8  21269364.884
 108103980.170 8  20571494.891
 113777099.472 8  21651049.751
 117530910.560 7  22365385.370
 116499190.615 8  22169056.489
 122642393.208 7  23338070.510
 127344170.963 6  24232788.835
 119585513.384 8  22756351.975
 14  2 15  2 52 30.0000000  0  9G15G22G18G21G06G16G27G03G29
 124637682.163 7  23717758.174
 111704733.801 8  21256700.304
 108105761.674 8  20571833.782
 113806392.348 8  21656624.034
 117453521.289 7  22350658.523
 116462056.129 8  22161990.118
 122553310.878 7  23321118.290
 127238439.295 6  24212669.773
 119657308.693 8  22770013.981
 14  2 15  2 53  0.0000000  0  9G15G22G18G21G06G16G27G03G29
 124634850.421 7  23717219.373
 111638579.446 8  21244111.169
 108108019.186 8  20572263.263
 113835778.213 8  21662215.851
 117376274.063 8  22335959.611
 116425469.257 8  22155028.331
 122464274.803 7  23304174.130
 127132738.567 6  24192556.144
 119729361.463 7  22783725.085
 14  2 15  2 53 30.0000000  0  9G15G22G18G21G06G16G27G03G29
 124632534.932 7  23716778.391
 111572832.852 8  21231600.317
 108110759.611 8  20572784.664
 113865264.298 8  21667826.965
 117299178.621 7  22321288.197
 116389439.197 8  22148171.506
 122375294.449 7  23287242.594
 127027078.203 6  24172448.960
 119801678.839 7  22797486.599
 14  2 15  2 54  0.0000000  0  9G15G22G18G21G06G16G27G03G29
 124630719.897 7  23716433.528
 111507478.820 8  21219163.964
 108113965.627 8  20573394.779
 113894833.227 8  21673453.746
 117222220.101 8  22306643.367
 116353950.147 8  22141418.295
 122286354.691 7  23270317.657
 126921443.554 6  24152347.629
 119874243.771 7  22811295.914
 14  2 15  2 54 30.0000000  0  9G15G22G18G21G06G16G27G03G29
 124629418.423 7  23716186.310
 111442530.927 8  21206804.918
 108117648.699 8  20574095.905
 113924496.785 8  21679099.047
 117145412.407 8  22292027.655
 116319015.336 8  22134769.971
 122197469.427 7  23253403.709
 126815849.236 6  24132254.244
 119947068.448 7  22825153.700
 14  2 15  2 55  0.0000000  0  9G15G22G18G21G06G16G27G03G29
 124628626.531 7  23716034.239
 111377985.655 8  21194521.926
 108121803.473 8  20574886.386
 113954249.960 8  21684760.206
 117068752.437 7  22277439.359
 116284631.293 8  22128227.768
 122108635.380 7  23236498.451
 126710291.799 6  24112166.845
 120020147.387 7  22839059.950
 14  2 15  2 55 30.0000000  0  9G15G22G18G21G06G16G27G03G29
 124628352.422 6  23715983.155
 111313851.539 8  21182318.204
 108126436.139 8  20575767.988
 113984099.446 8  21690440.538
 116992249.363 7  22262881.651
 116250806.589 7  22121790.682
 122019861.499 7  23219606.129
 126604780.397 6  24092088.778
 120093487.360 7  22853016.238
 14  2 15  2 56  0.0000000  0  9G15G22G18G21G06G16G27G03G29
 124628586.363 6  23716027.125
 111250119.379 8  21170190.240
 108131535.466 8  20576738.403
 114014034.539 8  21696136.783
 116915894.328 7  22248351.060
 116217531.649 8  22115458.672
 121931138.962 7  23202723.166
 126499306.711 6  24072017.313
 120167077.361 7  22867019.560
 14  2 15  2 56 30.0000000  0  9G15G22G18G21G06G16G27G03G29
 124629339.818 7  23716170.046
 111186801.429 8  21158141.134
 108137111.869 8  20577799.724
 114044065.239 8  21701851.504
 116839700.174 7  22233852.374
 116184818.254 8  22109234.057
 121842480.168 7  23185850.974
 126393883.439 6  24051956.441
 120240927.908 7  22881072.920
 14  2 15  2 57  0.0000000  0  9G15G22G18G21G06G16G27G03G29
 124630602.383 6  23716411.197
 111123887.645 8  21146168.636
 108143152.641 8  20578948.946
 114074180.093 8  21707581.900
 116763657.305 7  22219381.495
 116152656.203 8  22103113.187
 121753875.584 7  23168991.388
 126288501.023 6  24031901.951
 120315026.949 7  22895173.304
 14  2 15  2 57 30.0000000  0  9G15G22G18G21G06G16G27G03G29
 124632382.635 6  23716749.419
 111061386.956 8  21134275.282
 108149665.059 8  20580188.237
 114104386.797 8  21713330.303
 116687775.029 8  22204941.380
 116121054.299 8  22097099.997
 121665334.446 7  23152141.335
 126183169.570 6  24011858.766
 120389381.798 7  22909323.448
 14  2 15  2 58  0.0000000  0  9G15G22G18G21G06G16G27G03G29
 124634680.585 6  23717186.752
 110999300.089 8  21122460.547
 108156647.753 8  20581516.979
 114134683.835 8  21719095.646
 116612055.019 8  22190532.871
 116090012.798 8  22091192.429
 121576857.977 7  23135304.526
 126077890.211 6  23991824.689
 120463991.518 7  22923520.923
 14  2 15  2 58 30.0000000  0  9G15G22G18G21G06G16G27G03G29
 124637495.967 6  23717721.777
 110937627.188 8  21110724.416
 108164098.657 8  20582935.071
 114165069.887 8  21724877.829
 116536497.678 8  22176154.730
 116059532.071 8  22085392.491
 121488446.708 7  23118481.312
 125972663.626 6  23971800.284
 120538854.722 7  22937766.867
 14  2 15  2 59  0.0000000  0  9G15G22G18G21G06G16G27G03G29
 124640825.518 7  23718356.572
 110876365.087 8  21099066.859
 108172012.600 8  20584440.882
 114195540.228 8  21730675.991
 116461100.581 8  22161806.908
 116029608.569 8  22079698.996
 121400098.174 7  23101668.539
 125867487.833 6  23951785.951
 120613966.051 7  22952060.070
 14  2 15  2 59 30.0000000  0  9G15G22G18G21G06G16G27G03G29
 124644676.070 7  23719089.101
 110815521.891 8  21087488.726
 108180395.288 8  20586035.740
 114226101.625 8  21736491.709
 116385872.554 7  22147491.579
 116000249.821 8  22074111.931
 121311820.747 7  23084870.643
 125762371.323 6  23931782.781
 120689332.073 7  22966401.535
 14  2 15  3  0  0.0000000  0  9G15G22G18G21G06G16G27G03G29
 124649047.098 7  23719921.744
 110755097.285 9  21075990.443
 108189244.202 8  20587720.041
 114256752.215 8  21742324.793
 116310813.726 7  22133208.365
 115971455.542 8  22068631.710
 121223614.794 7  23068084.921
 125657314.928 6  23911790.358
 120764951.145 7  22980791.730
 14  2 15  3  0 30.0000000  0  9G15G22G18G21G06G16G27G03G29
 124653938.053 7  23720851.600
 110695091.320 8  21064571.626
 108198558.095 8  20589492.459
 114287490.516 8  21748173.734
 116235925.102 8  22118957.585
 115943225.235 8  22063259.756
 121135480.991 7  23051313.773
 125552319.431 6  23891810.893
 120840820.910 7  22995229.010
 14  2 15  3  1  0.0000000  0  9G15G22G18G21G06G16G27G03G29
 124659346.311 7  23721880.368
 110635501.846 8  21053232.100
 108208332.505 8  20591352.314
 114318312.848 8  21754039.365
 116161205.029 8  22104738.772
 115915556.583 8  22057994.630
 121047417.657 7  23034556.179
 125447383.466 6  23871840.977
 120916938.134 7  23009714.171
 14  2 15  3  1 30.0000000  0  9G15G22G18G21G06G16G27G03G29
 124665274.085 7  23723009.174
 110576331.824 8  21041972.528
 108218568.234 8  20593300.053
 114349220.893 8  21759921.223
 116086657.364 8  22090552.747
 115888452.716 8  22052836.870
 120959428.479 7  23017811.668
 125342511.446 6  23851885.498
 120993304.074 7  23024245.723
 14  2 15  3  2  0.0000000  0  9G15G22G18G21G06G16G27G03G29
 124671731.358 7  23724237.478
 110517591.601 8  21030794.364
 108229273.381 8  20595337.420
 114380223.453 8  21765820.338
 116012293.103 8  22076401.591
 115861923.267 8  22047788.757
 120871524.325 7  23001084.658
 125237713.999 6  23831943.031
 121069926.930 7  23038826.863
 14  2 15  3  2 30.0000000  0  9G15G22G18G21G06G16G27G03G29
 124678708.024 7  23725563.684
 110459272.096 8  21019696.656
 108240436.508 8  20597461.549
 114411309.740 8  21771735.613
 115938103.578 8  22062283.724
 115835958.645 8  22042847.474
 120783696.551 7  22984371.022
 125132983.058 6  23812014.172
 121146795.767 7  23053454.600
 14  2 15  3  3  0.0000000  0  9G15G22G18G21G06G16G27G03G29
 124686206.028 6  23726991.114
 110401375.566 8  21008679.190
 108252057.711 8  20599673.110
 114442480.756 8  21777667.664
 115864092.227 7  22048199.420
 115810560.841 8  22038014.625
 120695948.406 7  22967672.397
 125028321.977 6  23792097.616
 121223911.652 7  23068129.093
 14  2 15  3  3 30.0000000  0  9G15G22G18G21G06G16G27G03G29
 124694225.993 7  23728517.129
 110343903.327 8  20997742.304
 108264136.838 8  20601971.538
 114473736.269 8  21783615.348
 115790260.954 8  22034150.472
 115785731.010 8  22033290.329
 120608281.750 7  22950990.764
 124923733.089 6  23772195.289
 121301274.104 7  23082849.978
 14  2 15  3  4  0.0000000  0  9G15G22G18G21G06G16G27G03G29
 124702767.799 7  23730143.415
 110286855.613 8  20986886.505
 108276672.056 8  20604356.923
 114505075.753 8  21789578.734
 115716611.169 8  22020135.096
 115761469.205 8  22028672.940
 120520697.862 7  22934324.072
 124819217.708 6  23752306.594
 121378881.892 7  23097618.666
 14  2 15  3  4 30.0000000  0  9G15G22G18G21G06G16G27G03G29
 124711838.056 7  23731868.979
 110230239.907 8  20976113.392
 108289668.099 8  20606830.119
 114536504.711 8  21795559.836
 115643150.629 8  22006156.596
 115737781.476 8  22024164.706
 120433204.399 7  22917674.292
 124714784.034 6  23732433.040
 121456740.397 7  23112433.653
 14  2 15  3  5  0.0000000  0  9G15G22G18G21G06G16G27G03G29
 124721431.898 7  23733694.858
 110174052.206 8  20965421.050
 108303119.082 8  20609389.542
 114568018.224 8  21801556.197
 115569876.888 8  21992212.333
 115714664.836 8  22019766.255
 120345798.532 7  22901041.609
 124610429.281 6  23712574.194
 121534844.157 7  23127297.703
 14  2 15  3  5 30.0000000  0  9G15G22G18G21G06G16G27G03G29
 124731548.722 7  23735620.498
 110118292.073 9  20954810.681
 108317022.798 8  20612035.234
 114599614.885 8  21807569.409
 115496790.365 8  21978304.426
 115692118.530 8  22015475.963
 120258480.957 7  22884425.245
 124506154.795 6  23692731.907
 121613191.317 7  23142206.522
 14  2 15  3  6  0.0000000  0  9G15G22G18G21G06G16G27G03G29
 124742193.890 7  23737646.509
 110062965.799 8  20944282.152
 108331382.865 8  20614767.799
 114631298.845 8  21813598.640
 115423897.239 7  21964433.330
 115670147.874 8  22011294.880
 120171258.211 7  22867828.015
 124401967.095 6  23672906.562
 121691786.139 7  23157162.676
 14  2 15  3  6 30.0000000  0  9G15G22G18G21G06G16G27G03G29
 124753367.465 7  23739772.010
 110008073.924 8  20933836.398
 108346198.002 8  20617587.105
 114663069.754 8  21819644.752
 115351199.410 8  21950600.142
 115648752.836 8  22007224.184
 120084131.657 7  22851247.770
 124297867.676 6  23653096.771
 121770627.726 7  23172165.516
 14  2 15  3  7  0.0000000  0  9G15G22G18G21G06G16G27G03G29
 124765061.681 7  23741998.139
 109953609.635 8  20923472.316
 108361458.902 8  20620491.074
 114694919.628 8  21825705.390
 115278691.104 8  21936801.769
 115627925.848 8  22003260.740
 119997095.367 7  22834685.989
 124193851.280 6  23633303.159
 121849707.482 7  23187213.995
 14  2 15  3  7 30.0000000  0  9G15G22G18G21G06G16G27G03G29
 124777278.290 7  23744321.967
 109899575.181 8  20913189.840
 108377166.851 8  20623480.282
 114726849.805 8  21831781.180
 115206375.909 8  21923040.825
 115607669.883 8  21999405.695
 119910152.858 7  22818141.099
 124089921.674 6  23613526.331
 121929026.138 7  23202308.296
 14  2 15  3  8  0.0000000  0  9G15G22G18G21G06G16G27G03G29
 124790026.435 6  23746747.888
 109845980.142 8  20902990.909
 108393328.595 8  20626555.890
 114758868.854 8  21837874.399
 115134264.409 8  21909318.250
 115587993.941 8  21995661.392
 119823314.683 7  22801616.225
 123986089.871 7  23593767.949
 122008591.656 7  23217448.027
 14  2 15  3  8 30.0000000  0  9G15G22G18G21G06G16G27G03G29
 124803308.129 7  23749275.154
 109792827.691 8  20892876.254
 108409945.135 8  20629717.977
 114790978.271 8  21843984.189
 115062359.954 8  21895635.614
 115568900.001 8  21992028.566
 119736584.545 7  22785112.211
 123882359.710 6  23574027.697
 122088405.274 7  23232636.845
 14  2 15  3  9  0.0000000  0  9G15G22G18G21G06G16G27G03G29
 124817113.226 6  23751902.472
 109740108.239 8  20882844.365
 108427005.128 8  20632964.334
 114823167.659 8  21850110.363
 114990654.664 8  21881990.337
 115550378.194 8  21988503.437
 119649953.974 7  22768626.572
 123778722.555 6  23554307.632
 122168456.287 7  23247869.258
 14  2 15  3  9 30.0000000  0  9G15G22G18G21G06G16G27G03G29
 124831446.554 7  23754629.633
 109687827.263 8  20872895.673
 108444511.789 8  20636295.657
 114855441.009 8  21856251.393
 114919154.865 8  21868384.301
 115532434.373 7  21985088.802
 119563429.552 7  22752161.074
 123675185.628 6  23534604.991
 122248748.398 7  23263148.125
 14  2 15  3 10  0.0000000  0  9G15G22G18G21G06G16G27G03G29
 124846303.604 7  23757456.930
 109635980.742 8  20863029.546
 108462459.126 8  20639710.871
 114887793.861 8  21862407.738
 114847857.976 8  21854817.165
 115515063.846 8  21981783.684
 119477008.561 7  22735716.240
 123571746.633 6  23514920.436
 122329276.150 7  23278473.354
 14  2 15  3 10 30.0000000  0  9G15G22G18G21G06G16G27G03G29
 124861685.163 6  23760384.879
 109584570.406 8  20853246.597
 108480846.603 8  20643209.971
 114920226.413 8  21868579.567
 114776766.736 8  21841288.577
 115498267.144 8  21978587.161
 119390693.454 7  22719290.425
 123468408.001 6  23495256.146
 122410039.464 7  23293842.318
 14  2 15  3 11  0.0000000  0  9G15G22G18G21G06G16G27G03G29
 124877598.013 7  23763411.795
 109533603.890 8  20843547.810
 108499680.025 8  20646793.713
 114952745.087 8  21874767.534
 114705889.546 7  21827801.104
 115482052.218 8  21975501.593
 119304492.885 7  22702887.108
 123365178.843 6  23475611.761
 122491044.460 7  23309256.950
 14  2 15  3 11 30.0000000  0  9G15G22G18G21G06G16G27G03G29
 124894039.488 6  23766541.283
 109483078.793 8  20833933.040
 108518954.754 8  20650461.232
 114985346.848 8  21880971.690
 114635225.326 8  21814354.192
 115466416.439 8  21972525.940
 119218405.798 7  22686506.323
 123262058.590 7  23455989.834
 122572287.358 7  23324716.646
 14  2 15  3 12  0.0000000  0  9G15G22G18G21G06G16G27G03G29
 124911016.775 7  23769771.963
 109433003.053 8  20824404.213
 108538676.854 8  20654214.704
 115018039.063 8  21887192.680
 114564783.163 8  21800949.421
 115451366.871 8  21969662.264
 119132441.409 7  22670147.545
 123159056.825 6  23436388.750
 122653774.570 7  23340223.167
 14  2 15  3 12 30.0000000  0  9G15G22G18G21G06G16G27G03G29
 124928518.073 7  23773102.672
 109383366.377 8  20814958.399
 108558833.309 8  20658049.960
 115050809.342 8  21893428.494
 114494553.705 8  21787585.606
 115436891.730 8  21966907.726
 119046589.784 7  22653810.989
 123056163.586 6  23416807.800
 122735493.599 7  23355773.259
 14  2 15  3 13  0.0000000  0  9G15G22G18G21G06G16G27G03G29
 124946546.991 7  23776533.364
 109334173.017 8  20805597.185
 108579426.860 8  20661969.149
 115083661.464 8  21899680.476
 114424541.950 8  21774262.552
 115422995.900 8  21964263.604
 118960856.693 7  22637495.841
 122953384.720 7  23397250.205
 122817447.507 7  23371368.385
 14  2 15  3 13 30.0000000  0  9G15G22G18G21G06G16G27G03G29
 124965104.684 6  23780063.634
 109285424.354 9  20796321.039
 108600456.974 8  20665970.826
 115116596.102 8  21905947.702
 114354751.766 8  21760981.982
 115409680.002 8  21961729.308
 118875245.016 7  22621204.335
 122850723.883 6  23377714.051
 122899636.385 7  23387008.780
 14  2 15  3 14  0.0000000  0  9G15G22G18G21G06G16G27G03G29
 124984186.558 7  23783695.950
 109237116.092 8  20787127.845
 108621917.237 8  20670054.502
 115149608.500 8  21912230.025
 114285179.007 8  21747743.073
 115396939.663 8  21959305.543
 118789751.750 7  22604935.651
 122748178.425 6  23358199.821
 122982054.544 7  23402692.248
 14  2 15  3 14 30.0000000  0  9G15G22G18G21G06G16G27G03G29
 125003801.544 7  23787427.851
 109189259.101 8  20778021.106
 108643816.093 8  20674221.856
 115182708.179 8  21918528.798
 114215836.194 8  21734547.274
 115384784.467 8  21956992.457
 118704388.573 7  22588691.654
 122645760.038 6  23338710.515
 123064710.484 7  23418421.920
 14  2 15  3 15  0.0000000  0  9G15G22G18G21G06G16G27G03G29
 125023941.339 7  23791260.957
 109141845.521 9  20768998.593
 108666143.637 8  20678470.822
 115215886.407 8  21924841.830
 114146716.821 8  21721394.068
 115373206.479 8  21954789.000
 118619149.078 7  22572471.528
 122543462.604 6  23319244.326
 123147595.581 7  23434194.294
 14  2 15  3 15 30.0000000  0  9G15G22G18G21G06G16G27G03G29
 125044610.611 6  23795193.391
 109094880.649 8  20760061.308
 108688903.359 8  20682801.749
 115249147.926 8  21931171.939
 114077827.218 8  21708284.618
 115362210.179 8  21952696.367
 118534039.831 7  22556275.619
 122441293.305 6  23299801.727
 123230713.234 7  23450010.688
 14  2 15  3 16  0.0000000  0  9G15G22G18G21G06G16G27G03G29
 125065806.281 7  23799227.206
 109048362.064 8  20751209.173
 108712090.879 8  20687214.114
 115282489.488 8  21937515.894
 114009166.431 8  21695219.049
 115351792.842 8  21950713.930
 118449059.922 7  22540104.366
 122339251.104 6  23280383.687
 123314059.902 7  23465871.202
 14  2 15  3 16 30.0000000  0  9G15G22G18G21G06G16G27G03G29
 125087535.411 7  23803362.380
 109002297.765 8  20742443.729
 108735711.941 8  20691709.049
 115315917.859 8  21943877.890
 113940743.613 8  21682198.183
 115341961.686 8  21948843.322
 118364218.536 7  22523959.390
 122237345.698 7  23260991.763
 123397641.969 7  23481776.517
 14  2 15  3 17  0.0000000  0  9G15G22G18G21G06G16G27G03G29
 125109787.560 6  23807596.439
 108956677.758 9  20733762.172
 108759754.411 8  20696284.440
 115349422.762 8  21950253.183
 113872550.526 8  21669221.727
 115332706.009 8  21947081.946
 118279507.235 7  22507839.270
 122135568.829 7  23241624.610
 123481447.964 7  23497723.561
 14  2 15  3 17 30.0000000  0  9G15G22G18G21G06G16G27G03G29
 125132572.268 7  23811932.867
 108911512.939 8  20725167.507
 108784227.840 8  20700941.505
 115383014.469 8  21956645.552
 113804599.134 8  21656291.541
 115324037.123 8  21945431.976
 118194938.363 7  22491745.628
 122033933.287 7  23222283.253
 123565487.010 7  23513715.628
 14  2 15  3 18  0.0000000  0  9G15G22G18G21G06G16G27G03G29
 125155882.227 6  23816367.829
 108866796.860 8  20716658.718
 108809123.054 8  20705678.792
 115416685.386 8  21963052.859
 113736883.980 8  21643405.793
 115315947.260 8  21943893.173
 118110506.461 7  22475679.987
 121932433.960 7  23202969.371
 123649751.389 7  23529750.423
 14  2 15  3 18 30.0000000  0  9G15G22G18G21G06G16G27G03G29
 125179717.132 6  23820904.092
 108822529.753 8  20708234.697
 108834438.690 8  20710496.445
 115450435.887 8  21969475.405
 113669407.676 8  21630565.508
 115308436.262 8  21942463.306
 118026213.552 8  22459638.446
 121831072.930 7  23183680.470
 123734240.064 7  23545828.601
 14  2 15  3 19  0.0000000  0  9G15G22G18G21G06G16G27G03G29
 125204082.712 6  23825540.205
 108778718.278 9  20699897.842
 108860179.062 8  20715394.622
 115484270.804 8  21975913.819
 113602177.591 8  21617771.874
 115301509.678 8  21941145.238
 117942067.541 8  22443626.885
 121729858.624 7  23164419.854
 123818957.776 7  23561950.775
 14  2 15  3 19 30.0000000  0  9G15G22G18G21G06G16G27G03G29
 125228974.046 6  23830277.023
 108735357.752 8  20691646.378
 108886338.455 8  20720372.633
 115518186.429 8  21982368.067
 113535191.303 8  21605024.198
 115295163.320 8  21939937.427
 117858066.047 8  22427641.554
 121628789.099 6  23145186.452
 123903899.325 7  23578114.226
 14  2 15  3 20  0.0000000  0  9G15G22G18G21G06G16G27G03G29
 125254390.889 6  23835113.878
 108692449.976 8  20683481.316
 108912915.310 8  20725429.934
 115552182.298 8  21988836.942
 113468450.816 8  21592324.328
 115289396.972 8  21938840.354
 117774211.292 7  22411685.172
 121527866.497 6  23125981.540
 123989064.069 7  23594320.183
 14  2 15  3 20 30.0000000  0  9G15G22G18G21G06G16G27G03G29
 125280334.665 6  23840049.779
 108649996.754 9  20675402.865
 108939909.981 8  20730566.615
 115586259.937 8  21995322.223
 113401960.011 8  21579671.275
 115284212.271 8  21937853.391
 117690506.883 7  22395756.246
 121427094.881 7  23106805.224
 124074452.697 7  23610568.470
 14  2 15  3 21  0.0000000  0  9G15G22G18G21G06G16G27G03G29
 125306807.846 6  23845088.340
 108608001.408 8  20667411.336
 108967323.822 8  20735783.496
 115620422.533 7  22001822.994
 113335723.561 8  21567067.206
 115279612.280 8  21936978.570
 117606957.882 7  22379857.476
 121326479.365 7  23087660.118
 124160067.063 7  23626861.165
 14  2 15  3 21 30.0000000  0  9G15G22G18G21G06G16G27G03G29
 125333800.928 6  23850224.772
 108566455.080 8  20659505.223
 108995145.885 8  20741077.536
 115654660.869 8  22008338.303
 113269734.298 8  21554510.059
 115275587.398 8  21936212.349
 117523557.043 8  22363987.179
 121226013.567 7  23068541.061
 124245897.062 7  23643194.138
 14  2 15  3 22  0.0000000  0  9G15G22G18G21G06G16G27G03G29
 125361318.116 6  23855461.057
 108525362.904 8  20651685.509
 109023379.511 8  20746450.485
 115688979.139 8  22014869.060
 113203999.155 8  21542000.974
 115272142.341 8  21935557.621
 117440311.338 8  22348145.380
 121125704.246 7  23049453.197
 124331946.726 7  23659568.472
 14  2 15  3 22 30.0000000  0  9G15G22G18G21G06G16G27G03G29
 125389360.524 6  23860796.585
 108484726.877 8  20643952.756
 109052024.761 8  20751901.462
 115723379.645 8  22021415.210
 113138521.666 8  21529541.042
 115269277.730 8  21935012.456
 117357224.249 7  22332334.026
 121025555.321 7  23030396.535
 124418216.157 7  23675985.610
 14  2 15  3 23  0.0000000  0  9G15G22G18G21G06G16G27G03G29
 125417931.050 6  23866234.945
 108444550.947 9  20636307.553
 109081083.234 8  20757430.909
 115757865.427 8  22027977.351
 113073306.852 8  21517131.188
 115266997.143 8  21934578.227
 117274301.086 7  22316554.762
 120925572.493 7  23011368.949
 124504707.790 7  23692443.750
 14  2 15  3 23 30.0000000  0  9G15G22G18G21G06G16G27G03G29
 125447023.571 6  23871769.745
 108404829.830 9  20628748.970
 109110548.203 8  20763038.242
 115792430.154 8  22034554.404
 113008351.358 8  21504770.253
 115265295.133 8  21934254.208
 117191538.581 7  22300805.158
 120825752.833 7  22992373.895
 124591415.096 7  23708944.588
 14  2 15  3 24  0.0000000  0  9G15G22G18G21G06G16G27G03G29
 125476641.144 6  23877406.781
 108365567.482 9  20621277.534
 109140421.187 8  20768722.650
 115827077.906 8  22041148.016
 112943660.594 8  21492459.468
 115264174.479 8  21934040.604
 117108942.227 7  22285087.732
 120726102.336 7  22973410.975
 124678340.812 7  23725486.709
 14  2 15  3 24 30.0000000  0  9G15G22G18G21G06G16G27G03G29
 125506783.790 6  23883141.746
 108326764.722 8  20613893.730
 109170701.269 8  20774484.825
 115861809.051 8  22047757.116
 112879237.021 8  21480200.562
 115263635.416 8  21933937.845
 117026514.631 7  22269401.920
 120626623.503 7  22954481.249
 124765484.566 7  23742068.731
 14  2 15  3 25  0.0000000  0  9G15G22G18G21G06G16G27G03G29
 125537445.942 6  23888977.153
 108288416.677 8  20606596.265
 109201381.961 8  20780322.886
 115896618.788 8  22054380.611
 112815077.979 8  21467991.138
 115263672.112 8  21933945.530
 116944253.063 7  22253748.732
 120527314.217 7  22935582.745
 124852840.158 7  23758691.581
 14  2 15  3 25 30.0000000  0  9G15G22G18G21G06G16G27G03G29
 125568636.084 6  23894913.736
 108250533.066 8  20599387.151
 109232470.398 8  20786238.727
 115931515.866 8  22061022.149
 112751194.355 8  21455835.002
 115264294.268 8  21934063.180
 116862168.653 8  22238128.330
 120428185.707 7  22916718.928
 124940415.543 6  23775356.596
 14  2 15  3 26  0.0000000  0  9G15G22G18G21G06G16G27G03G29
 125600344.555 6  23900946.792
 108213105.183 8  20592264.937
 109263956.488 8  20792230.600
 115966491.710 8  22067677.555
 112687579.173 8  21443729.286
 115265491.839 8  21934290.876
 116780254.432 7  22222540.402
 120329231.002 7  22897889.085
 125028200.885 7  23792061.321
 14  2 15  3 26 30.0000000  0 10G15G14G22G18G21G06G16G27G03G29
 125632575.429 6  23907079.326
 129278887.190 5  24600950.956
 108176137.735 9  20585230.575
 109295842.958 8  20798298.053
 116001550.357 8  22074349.378
 112624238.852 8  21431676.262
 115267269.006 8  21934629.322
 116698517.172 7  22206986.258
 120230457.891 7  22879092.559
 125116199.788 7  23808806.577
 14  2 15  3 27  0.0000000  0 10G15G14G22G18G21G06G16G27G03G29
 125665328.278 7  23913312.762
 129187692.691 5  24583600.151
 108139631.589 9  20578283.436
 109328128.848 8  20804442.196
 116036692.738 8  22081036.627
 112561176.094 8  21419675.630
 115269625.525 8  21935077.827
 116616959.508 8  22191466.812
 120131869.109 7  22860332.263
 125204411.566 6  23825592.540
 14  2 15  3 27 30.0000000  0 10G15G14G22G18G21G06G16G27G03G29
 125698592.119 6  23919642.198
 129096390.920 5  24566223.717
 108103576.705 9  20571422.457
 109360801.821 8  20810659.838
 116071908.297 8  22087737.831
 112498382.316 8  21407726.606
 115272551.253 8  21935634.839
 116535573.182 8  22175979.845
 120033456.643 7  22841604.970
 125292824.818 7  23842418.242
 14  2 15  3 28  0.0000000  0 10G15G14G22G18G21G06G16G27G03G29
 125732383.032 7  23926072.639
 129005000.913 5  24548835.075
 108067989.876 8  20564650.412
 109393877.352 8  20816953.713
 116107213.418 8  22094455.792
 112435876.345 8  21395831.787
 115276062.149 8  21936303.236
 116454377.099 7  22160528.529
 119935239.679 7  22822914.690
 125381455.236 7  23859284.036
 14  2 15  3 28 30.0000000  0 10G15G14G22G18G21G06G16G27G03G29
 125766686.070 7  23932600.297
 128913510.787 6  24531424.985
 108032856.950 9  20557964.719
 109427338.931 8  20823321.307
 116142594.110 8  22101188.854
 112373645.585 8  21383989.472
 115280143.078 8  21937079.775
 116373358.901 8  22145111.016
 119837206.180 7  22804260.079
 125470287.298 7  23876188.333
 14  2 15  3 29  0.0000000  0 10G15G14G22G18G21G06G16G27G03G29
 125801504.891 7  23939226.268
 128821927.915 6  24513997.140
 107998182.677 8  20551366.464
 109461189.323 8  20829762.886
 116178055.582 8  22107936.749
 112311696.948 8  21372201.032
 115284798.147 8  21937965.609
 116292525.548 8  22129728.711
 119739362.992 7  22785640.633
 125559324.648 7  23893132.338
 14  2 15  3 29 30.0000000  0 10G15G14G22G18G21G06G16G27G03G29
 125836844.336 7  23945951.314
 128730260.623 6  24496552.976
 107963973.234 8  20544856.563
 109495433.256 8  20836279.482
 116213602.961 8  22114701.430
 112250037.867 8  21360468.046
 115290032.281 8  21938960.853
 116211884.696 7  22114382.810
 119641718.725 7  22767058.948
 125648571.711 7  23910115.037
 14  2 15  3 30  0.0000000  0 11G15G14G22G19G18G21G06G16G27G03G29
 125872699.618 7  23952774.714
 128638506.988 6  24479093.324
 107930224.187 9  20538434.493
 132099399.794 6  25137679.186
 109530064.637 8  20842869.513
 116249231.715 8  22121481.622
 112188666.295 8  21348789.239
 115295840.324 8  21940066.059
 116131434.287 8  22099074.619
 119544271.348 7  22748515.493
 125738023.271 7  23927137.132
 14  2 15  3 30 30.0000000  0 11G15G14G22G19G18G21G06G16G27G03G29
 125909072.539 7  23959695.732
 128546672.517 6  24461617.029
 107896938.789 8  20532100.395
 132002611.983 6  25119261.363
 109565084.251 8  20849533.069
 116284945.613 8  22128277.251
 112127587.235 8  21337166.787
 115302225.338 8  21941281.385
 116051179.470 7  22083801.770
 119447025.873 7  22730010.518
 125827680.901 6  23944197.334
 14  2 15  3 31  0.0000000  0 11G15G14G22G19G18G21G06G16G27G03G29
 125945962.228 7  23966716.075
 128454759.790 6  24444126.988
 107864117.504 8  20525854.622
 131905796.479 6  25100838.090
 109600491.031 8  20856271.115
 116320743.827 8  22135089.958
 112066802.244 8  21325599.313
 115309186.340 8  21942606.580
 115971122.321 8  22068568.102
 119349985.418 7  22711545.068
 125917543.951 6  23961297.821
 14  2 15  3 31 30.0000000  0 11G15G14G22G19G18G21G06G16G27G03G29
 125983358.977 7  23973832.700
 128362761.973 6  24426620.318
 107831750.655 8  20519695.592
 131808945.096 6  25082406.737
 109636273.422 8  20863080.109
 116356617.434 8  22141915.984
 112006304.592 8  21314087.044
 115316713.476 8  21944038.848
 115891256.046 8  22053369.679
 119253143.295 7  22693116.066
 126007601.750 7  23978435.462
 14  2 15  3 32  0.0000000  0 11G15G14G22G19G18G21G06G16G27G03G29
 126021277.335 7  23981049.070
 128270697.470 6  24409101.478
 107799853.728 8  20513625.804
 131712074.653 6  25063971.721
 109672445.092 8  20869963.516
 116392582.393 8  22148759.874
 111946111.282 8  21302632.210
 115324821.170 8  21945581.859
 115811598.123 8  22038211.178
 119156517.267 7  22674728.402
 126097868.587 7  23995613.172
 14  2 15  3 32 30.0000000  0 11G15G14G22G19G18G21G06G16G27G03G29
 126059700.171 7  23988359.317
 128178552.645 6  24391566.469
 107768411.206 8  20507642.323
 131615170.795 6  25045532.543
 109708988.681 8  20876917.510
 116428622.970 8  22155618.273
 111886208.703 8  21291233.635
 115333492.952 8  21947231.997
 115732134.821 8  22023090.039
 119060093.924 7  22656379.881
 126188327.293 7  24012827.339
 14  2 15  3 33  0.0000000  0 11G15G14G22G19G18G21G06G16G27G03G29
 126098646.491 7  23995770.165
 128086350.199 5  24374021.490
 107737442.895 9  20501749.370
 131518254.587 6  25027089.911
 109745922.562 8  20883945.713
 116464758.389 7  22162495.061
 111826618.508 8  21279893.987
 115342747.845 8  21948992.541
 115652888.130 8  22008009.775
 118963895.362 7  22638073.805
 126278996.910 7  24030081.733
 14  2 15  3 33 30.0000000  0 11G15G14G22G19G18G21G06G16G27G03G29
 126138085.441 7  24003275.964
 127994062.829 5  24356458.442
 107706919.108 8  20495940.876
 131421297.307 6  25008639.678
 109783214.863 8  20891041.976
 116500959.127 8  22169383.506
 111767313.039 8  21268608.483
 115352555.054 8  21950858.712
 115573830.604 7  21992965.271
 118867894.572 7  22619805.130
 126369846.518 7  24047369.219
 14  2 15  3 34  0.0000000  0 11G15G14G22G19G18G21G06G16G27G03G29
 126178045.106 7  24010880.855
 127901721.830 6  24338888.300
 107676868.336 8  20490222.328
 131324329.486 6  24990186.977
 109820892.322 8  20898212.192
 116537254.243 8  22176290.222
 111708322.757 8  21257382.803
 115362943.065 8  21952835.628
 115494992.994 8  21977963.779
 118772122.680 7  22601580.363
 126460903.388 7  24064697.310
 14  2 15  3 34 30.0000000  0 11G15G14G22G19G18G21G06G16G27G03G29
 126218513.555 7  24018580.721
 127809319.436 6  24321306.301
 107647280.111 8  20484591.661
 131227341.591 6  24971730.730
 109858942.800 8  20905452.862
 116573633.096 7  22183212.939
 111649639.300 8  21246215.769
 115373900.130 8  21954920.960
 115416366.966 8  21963000.940
 118676571.531 7  22583397.977
 126552155.678 7  24082061.576
 14  2 15  3 35  0.0000000  0 11G15G14G22G19G18G21G06G16G27G03G29
 126259492.283 7  24026378.620
 127716859.868 6  24303710.732
 107618156.429 8  20479049.856
 131130337.201 6  24953270.610
 109897366.912 8  20912764.808
 116610098.218 8  22190152.158
 111591266.520 8  21235107.891
 115385426.940 8  21957114.598
 115337956.773 8  21948080.329
 118581245.459 7  22565258.568
 126643604.447 6  24099463.628
 14  2 15  3 35 30.0000000  0 11G15G14G22G19G18G21G06G16G27G03G29
 126300976.822 7  24034273.610
 127624343.663 6  24286104.662
 107589494.879 8  20473595.794
 131033314.794 6  24934808.101
 109936159.843 8  20920146.666
 116646646.092 8  22197107.242
 111533203.832 8  21224058.588
 115397520.304 8  21959415.885
 115259762.051 8  21933200.726
 118486144.962 7  22547161.167
 126735245.986 6  24116901.590
 14  2 15  3 36  0.0000000  0 11G15G14G22G19G18G21G06G16G27G03G29
 126342964.177 7  24042262.994
 127531770.593 6  24268490.265
 107561292.579 8  20468229.430
 130936273.823 6  24916342.652
 109975317.297 8  20927598.474
 116683274.963 7  22204077.718
 111475450.728 8  21213069.211
 115410176.843 8  21961823.939
 115181782.513 8  21918361.958
 118391269.780 7  22529106.362
 126827076.331 6  24134376.738
 14  2 15  3 36 30.0000000  0 11G15G14G22G19G18G21G06G16G27G03G29
 126385458.016 7  24050349.282
 127439148.318 6  24250864.002
 107533554.509 9  20462950.740
 130839220.095 6  24897873.934
 110014842.409 8  20935119.841
 116719990.065 8  22211063.702
 111418013.936 8  21202138.850
 115423400.128 8  21964340.143
 115104025.115 8  21903564.653
 118296627.065 7  22511096.906
 126919099.177 7  24151889.935
 14  2 15  3 37  0.0000000  0 11G15G14G22G19G18G21G06G16G27G03G29
 126428447.551 7  24058530.431
 127346469.877 6  24233228.772
 107506271.143 8  20457758.493
 130742145.343 6  24879400.394
 110054723.846 8  20942708.727
 116756781.216 7  22218064.670
 111360885.882 8  21191268.137
 115437180.009 8  21966962.821
 115026482.538 8  21888809.434
 118202209.784 7  22493130.443
 127011303.600 6  24169435.887
 14  2 15  3 37 30.0000000  0 11G15G14G22G19G18G21G06G16G27G03G29
 126471942.791 7  24066805.853
 127253748.896 6  24215584.699
 107479453.306 8  20452655.486
 130645062.290 6  24860925.192
 110094970.586 8  20950367.605
 116793659.926 7  22225082.506
 111304079.922 8  21180458.152
 115451526.482 8  21969692.446
 114949168.160 8  21874096.053
 118108031.868 7  22475207.962
 127103699.611 6  24187016.788
 14  2 15  3 38  0.0000000  0 11G15G14G22G19G18G21G06G16G27G03G29
 126515942.744 6  24075179.662
 127160988.427 6  24197932.798
 107453100.693 9  20447640.826
 130547972.105 6  24842450.388
 110135581.204 8  20958095.525
 116830626.888 7  22232117.064
 111247597.629 8  21169710.094
 115466437.973 8  21972530.017
 114872084.318 8  21859428.172
 118014095.618 7  22457333.049
 127196286.129 6  24204636.621
 14  2 15  3 38 30.0000000  0 11G15G14G22G19G18G21G06G16G27G03G29
 126560443.341 7  24083648.875
 127068187.785 6  24180272.514
 107427210.623 8  20442714.344
 130450873.863 6  24823972.911
 110176550.865 8  20965892.015
 116867678.734 7  22239168.080
 111191438.399 8  21159023.084
 115481911.493 8  21975474.844
 114795230.338 8  21844803.160
 117920400.683 7  22439503.167
 127289059.178 6  24222288.268
 14  2 15  3 39  0.0000000  0 11G15G14G22G19G18G21G06G16G27G03G29
 126605445.490 7  24092212.097
 126975351.978 6  24162607.050
 107401784.990 9  20437875.817
 130353770.572 6  24805495.151
 110217880.018 8  20973756.448
 116904817.867 7  22246235.061
 111135606.290 8  21148398.571
 115497947.828 8  21978526.473
 114718610.670 8  21830222.884
 117826952.171 7  22421720.286
 127382019.446 6  24239980.717
 14  2 15  3 39 30.0000000  0 11G15G14G22G19G18G21G06G16G27G03G29
 126650945.892 6  24100869.370
 126882481.782 6  24144933.651
 107376821.284 9  20433125.327
 130256661.839 6  24787016.315
 110259564.415 8  20981688.439
 116942042.258 8  22253318.783
 111080100.960 8  21137836.583
 115514543.280 8  21981684.480
 114642225.249 8  21815687.489
 117733750.299 7  22403984.534
 127475163.246 6  24257703.805
 14  2 15  3 40  0.0000000  0 11G15G14G22G19G18G21G06G16G27G03G29
 126696939.568 6  24109622.201
 126789576.093 6  24127254.176
 107352315.839 8  20428462.052
 130159545.585 6  24768534.861
 110301598.635 8  20989687.332
 116979348.793 8  22260418.406
 111024920.883 8  21127335.814
 115531693.286 8  21984947.813
 114566072.849 8  21801195.643
 117640794.204 7  22386295.928
 127568485.980 6  24275463.118
 14  2 15  3 40 30.0000000  0 11G15G14G22G19G18G21G06G16G27G03G29
 126743432.164 6  24118469.132
 126696644.586 6  24109569.489
 107328275.489 9  20423887.333
 130062429.983 6  24750055.185
 110343987.972 8  20997753.772
 117016744.015 7  22267534.094
 110970074.920 8  21116898.978
 115549404.153 8  21988318.546
 114490162.626 8  21786751.034
 117548093.185 7  22368654.997
 127661993.259 6  24293256.690
 14  2 15  3 41  0.0000000  0 11G15G14G22G19G18G21G06G16G27G03G29
 126790418.337 6  24127409.790
 126603685.769 6  24091880.189
 107304695.768 9  20419400.557
 129965312.408 6  24731573.844
 110386726.144 8  21005886.641
 117054224.337 8  22274666.467
 110915560.570 8  21106525.197
 115567669.972 8  21991793.644
 114414492.486 8  21772350.538
 117455645.055 7  22351062.547
 127755680.243 6  24311084.289
 14  2 15  3 41 30.0000000  0 11G15G14G22G19G18G21G06G16G27G03G29
 126837903.129 6  24136448.027
 126510708.223 6  24074187.451
 107281582.145 9  20415002.102
 129868200.264 6  24713094.534
 110429817.558 8  21014086.643
 117091795.586 7  22281816.404
 110861385.998 8  21096216.481
 115586495.344 8  21995376.002
 114339070.746 8  21757998.526
 117363458.799 7  22333520.502
 127849550.489 6  24328949.556
 14  2 15  3 42  0.0000000  0 11G15G14G22G19G18G21G06G16G27G03G29
 126885876.973 6  24145576.180
 126417706.844 6  24056490.867
 107258927.155 8  20410691.169
 129771087.612 6  24694613.548
 110473252.375 8  21022352.225
 117129450.439 8  22288982.194
 110807545.587 8  21085970.713
 115605871.094 8  21999063.589
 114263892.185 8  21743692.422
 117271529.639 7  22316026.854
 127943595.573 6  24346845.028
 14  2 15  3 42 30.0000000  0 11G15G14G22G19G18G21G06G16G27G03G29
 126934336.565 6  24154796.845
 126324682.680 6  24038788.109
 107236728.258 9  20406466.573
 129673973.740 6  24676134.725
 110517026.439 8  21030682.148
 117167186.710 8  22296163.001
 110754039.029 8  21075788.814
 115625794.479 8  22002855.383
 114188956.757 8  21729433.447
 117179857.771 7  22298582.626
 128037812.191 6  24364772.634
 14  2 15  3 43  0.0000000  0 11G15G14G22G19G18G21G06G16G27G03G29
 126983287.905 6  24164111.540
 126231645.337 6  24021083.186
 107214992.295 8  20402330.050
 129576867.610 6  24657656.717
 110561145.646 8  21039077.555
 117205012.333 8  22303361.003
 110700875.841 8  21065671.975
 115646271.646 8  22006751.544
 114114274.252 8  21715220.852
 117088453.102 7  22281188.736
 128132206.224 6  24382737.474
 14  2 15  3 43 30.0000000  0 11G15G14G22G19G18G21G06G16G27G03G29
 127032732.272 6  24173521.776
 126138600.679 6  24003378.324
 107193721.525 9  20398282.294
 129479773.042 6  24639179.704
 110605610.350 8  21047538.996
 117242929.680 7  22310576.093
 110648059.877 8  21055621.791
 115667303.554 8  22010754.034
 114039849.280 8  21701058.744
 116997320.958 7  22263847.306
 128226778.555 6  24400731.633
 14  2 15  3 44  0.0000000  0 11G15G14G22G19G18G21G06G16G27G03G29
 127082660.732 6  24183022.994
 126045543.552 6  23985669.573
 107172908.198 9  20394321.942
 129382684.351 6  24620703.871
 110650411.351 8  21056064.672
 117280931.744 8  22317808.113
 110595586.535 8  21045636.276
 115688881.307 8  22014860.431
 113965676.780 8  21686944.029
 116906456.292 7  22246556.022
 128321520.761 6  24418762.685
 14  2 15  3 44 30.0000000  0 11G15G14G22G19G18G21G06G16G27G03G29
 127133073.931 6  24192616.443
 125952478.638 6  23967961.026
 107152553.905 8  20390448.791
 129285604.637 6  24602230.345
 110695548.602 8  21064653.725
 117319020.555 8  22325056.131
 110543458.885 8  21035716.862
 115711005.819 8  22019070.625
 113891760.969 8  21672878.762
 116815863.430 7  22229316.324
 128416433.554 6  24436822.032
 14  2 15  3 45  0.0000000  0 11G15G14G22G19G18G21G06G16G27G03G29
 127183978.649 6  24202303.226
 125859417.124 6  23950251.100
 107132666.797 8  20386664.615
 129188544.056 6  24583760.712
 110741028.600 8  21073308.357
 117357204.621 7  22332322.369
 110491687.240 8  21025865.291
 115733683.853 8  22023385.766
 113818112.506 8  21658863.644
 116725553.711 7  22212131.931
 128511523.846 6  24454917.392
 14  2 15  3 45 30.0000000  0 11G15G14G22G19G18G21G06G16G27G03G29
 127235359.424 6  24212081.315
 125766347.781 6  23932540.481
 107113232.224 9  20382966.372
 129091490.139 6  24565291.547
 110786835.416 8  21082025.131
 117395470.136 8  22339603.574
 110440259.736 8  21016078.643
 115756899.732 8  22027803.602
 113744719.620 8  21644897.445
 116635515.558 7  22194997.633
 128606776.216 6  24473044.323
 14  2 15  3 46  0.0000000  0 11G15G14G22G19G18G21G06G16G27G03G29
 127287223.147 6  24221950.608
 125673281.696 6  23914829.038
 107094258.151 8  20379355.207
 128994452.819 6  24546826.044
 110832975.498 8  21090804.949
 117433825.371 8  22346902.555
 110389186.387 8  21006359.612
 115780660.761 8  22032325.360
 113671592.790 8  21630981.708
 116545759.590 7  22177917.837
 128702197.472 6  24491202.899
 14  2 15  3 46 30.0000000  0 11G15G14G22G19G18G21G06G16G27G03G29
 127339567.757 6  24231911.108
 125580220.933 6  23897121.851
 107075743.649 9  20375831.845
 128897432.947 6  24528363.205
 110879446.226 8  21099648.118
 117472270.098 7  22354218.327
 110338468.627 8  20996707.945
 115804964.657 8  22036950.190
 113598733.761 8  21617117.039
 116456287.989 8  22160892.332
 128797785.757 6  24509391.844
 14  2 15  3 47  0.0000000  0 11G15G14G22G19G18G21G06G16G27G03G29
 127392391.598 6  24241962.043
 125487168.231 6  23879415.339
 107057688.175 8  20372396.050
 128800431.944 6  24509905.807
 110926245.561 8  21108553.956
 117510804.515 7  22361551.555
 110288108.264 8  20987125.104
 115829809.786 7  22041677.661
 113526144.687 8  21603304.150
 116367103.106 7  22143920.165
 128893539.685 6  24527614.056
 14  2 15  3 47 30.0000000  0 11G15G14G22G19G18G21G06G16G27G03G29
 127445693.036 6  24252106.309
 125394126.393 6  23861708.566
 107040091.251 9  20369047.520
 128703451.813 6  24491450.894
 110973371.725 8  21117521.790
 117549428.906 7  22368901.221
 110238107.164 8  20977610.443
 115855194.588 8  22046508.549
 113453828.012 8  21589542.756
 116278207.937 7  22127004.499
 128989457.854 6  24545866.604
 14  2 15  3 48  0.0000000  0 11G15G14G22G19G18G21G06G16G27G03G29
 127499469.488 7  24262340.273
 125301096.682 6  23844008.220
 107022951.425 8  20365786.083
 128606492.641 6  24472998.278
 111020821.424 8  21126551.228
 117588142.088 7  22376268.537
 110188466.092 8  20968163.995
 115881116.483 8  22051440.798
 113381784.677 8  21575833.253
 116189603.370 7  22110144.250
 129085537.594 6  24564151.272
 14  2 15  3 48 30.0000000  0 11G15G14G22G19G18G21G06G16G27G03G29
 127553724.553 6  24272664.124
 125208087.309 6  23826307.040
 107006273.172 9  20362612.366
 128509561.245 6  24454553.794
 111068598.133 8  21135643.011
 117626949.838 7  22383653.094
 110139192.162 8  20958787.018
 115907579.576 8  22056476.139
 113310022.475 8  21562177.296
 116101297.643 7  22093339.457
 129181782.579 6  24582464.520
 14  2 15  3 49  0.0000000  0 11G15G14G22G19G18G21G06G16G27G03G29
 127608454.809 6  24283078.033
 125115099.402 6  23808612.103
 106990054.283 8  20359526.312
 128412657.585 6  24436113.392
 111116697.937 8  21144795.560
 117665849.993 8  22391055.795
 110090285.458 8  20949480.545
 115934580.075 8  22061615.171
 113238541.652 8  21548574.740
 116013291.390 7  22076592.094
 129278189.803 6  24600810.464
 14  2 15  3 49 30.0000000  0 11G15G14G22G19G18G21G06G16G27G03G29
 127663653.048 6  24293581.976
 125022129.889 6  23790920.440
 106974288.477 9  20356525.880
 128315777.572 6  24417677.890
 111165112.968 8  21154009.159
 117704837.574 8  22398474.994
 110041741.829 8  20940243.074
 115962110.176 8  22066854.330
 113167338.629 8  21535025.299
 115925581.245 7  22059901.079
 129374752.125 6  24619185.753
 14  2 15  3 50  0.0000000  0 11G15G14G22G19G18G21G06G16G27G03G29
 127719314.752 6  24304174.233
 124929178.759 6  23773231.915
 106958972.249 8  20353611.255
 128218919.900 6  24399245.447
 111213838.610 8  21163281.349
 117743909.966 7  22405910.013
 109993560.537 8  20931074.702
 115990166.071 8  22072192.201
 113096413.055 8  21521528.912
 115838167.404 7  22043268.081
 129471465.558 6  24637588.924
 14  2 15  3 50 30.0000000  0 11G15G14G22G19G18G21G06G16G27G03G29
 127775450.922 7  24314857.711
 124836261.422 6  23755550.936
 106944117.613 9  20350784.598
 128122098.655 6  24380821.299
 111262885.208 8  21172614.285
 117783079.424 8  22413363.800
 109945755.770 8  20921977.558
 116018758.350 8  22077632.790
 113025779.407 8  21508087.379
 115751064.471 7  22026693.027
 129568340.841 6  24656025.276
 14  2 15  3 51  0.0000000  0 11G15G14G22G19G18G21G06G16G27G03G29
 127832047.009 7  24325627.585
 124743367.931 6  23737873.971
 106929711.461 8  20348042.976
 128025302.772 6  24362401.390
 111312238.647 8  21182005.678
 117822334.264 8  22420833.886
 109898316.879 8  20912949.723
 116047872.854 8  22083174.263
 112955427.727 8  21494700.257
 115664262.820 7  22010174.656
 129665363.720 6  24674489.848
 14  2 15  3 51 30.0000000  0 11G15G14G22G19G18G21G06G16G27G03G29
 127889114.762 6  24336486.058
 124650514.334 6  23720205.466
 106915766.708 9  20345389.443
 127928547.720 6  24343989.682
 111361910.220 8  21191458.213
 117861687.713 8  22428322.845
 109851259.140 8  20903995.175
 116077520.826 8  22088815.834
 112885373.524 8  21481369.737
 115577777.744 7  21993716.654
 129762546.273 6  24692981.317
 14  2 15  3 52  0.0000000  0 11G15G14G22G19G18G21G06G16G27G03G29
 127946649.089 6  24347434.414
 124557700.299 6  23702543.820
 106902279.143 8  20342822.907
 127831831.653 6  24325585.737
 111411894.227 8  21200970.297
 117901136.807 8  22435829.637
 109804580.855 8  20895112.450
 116107697.671 8  22094558.049
 112815615.750 8  21468094.580
 115491609.202 7  21977319.694
 129859883.866 6  24711504.971
 14  2 15  3 52 30.0000000  0 11G15G14G22G19G18G21G06G16G27G03G29
 128004643.342 6  24358471.152
 124464923.794 6  23684887.946
 106889243.338 9  20340342.445
 127735150.971 6  24307188.422
 111462184.118 8  21210539.918
 117940676.404 7  22443354.159
 109758278.853 8  20886301.670
 116138396.506 8  22100400.038
 112746151.762 8  21454876.388
 115405754.434 7  21960982.540
 129957369.892 6  24730054.327
 14  2 15  3 53  0.0000000  0 11G15G14G22G19G18G21G06G16G27G03G29
 128063094.143 6  24369594.495
 124372185.571 6  23667241.221
 106876656.798 9  20337947.305
 127638505.819 6  24288796.118
 111512775.880 8  21220166.714
 117980305.205 8  22450894.971
 109712353.447 8  20877563.030
 116169613.778 8  22106340.860
 112676982.165 8  21441713.543
 115320214.662 7  21944704.092
 130055000.882 6  24748633.769
 14  2 15  3 53 30.0000000  0 11G15G14G22G19G18G21G06G16G27G03G29
 128122003.815 6  24380804.877
 124279492.375 6  23649602.633
 106864523.270 8  20335638.295
 127541902.235 6  24270413.869
 111563671.965 8  21229852.401
 118020028.007 7  22458453.765
 109666810.512 8  20868896.654
 116201352.055 8  22112380.555
 112608113.375 8  21428608.238
 115234996.402 7  21928487.858
 130152780.156 6  24767241.970
 14  2 15  3 54  0.0000000  0 11G15G14G22G19G18G21G06G16G27G03G29
 128181374.145 6  24392101.663
 124186851.085 6  23631973.245
 106852845.219 9  20333416.225
 127445345.338 6  24252038.938
 111614873.804 8  21239595.853
 118059848.388 7  22466031.574
 109621655.411 8  20860303.234
 116233612.975 8  22118519.188
 112539551.197 8  21415561.439
 115150105.703 7  21912333.564
 130250709.639 6  24785876.248
 14  2 15  3 54 30.0000000  0 11G15G14G22G19G18G21G06G16G27G03G29
 128241198.370 6  24403486.550
 124094259.393 6  23614353.698
 106841617.365 8  20331279.794
 127348831.784 6  24233673.317
 111666374.219 8  21249396.135
 118099761.507 7  22473626.902
 109576884.831 8  20851783.711
 116266389.815 8  22124756.508
 112471292.858 8  21402572.298
 115065540.431 7  21896241.111
 130348782.707 6  24804539.556
 14  2 15  3 55  0.0000000  0 11G15G14G22G19G18G21G06G16G27G03G29
 128301478.174 6  24414957.053
 124001723.618 6  23596744.309
 106830842.369 8  20329229.126
 127252366.754 6  24215316.176
 111718174.980 8  21259253.004
 118139771.136 8  22481240.327
 109532504.097 8  20843338.406
 116299684.133 8  22131092.729
 112403344.135 8  21389642.494
 114981306.426 7  21880212.044
 130447001.153 6  24823228.532
 14  2 15  3 55 30.0000000  0 11G15G14G22G19G18G21G06G16G27G03G29
 128362207.512 6  24426514.182
 123909242.396 6  23579145.072
 106820515.045 8  20327263.792
 127155947.682 6  24196968.876
 111770269.496 8  21269166.659
 118179873.309 7  22488871.671
 109488510.667 8  20834966.856
 116333489.554 8  22137525.366
 112335703.070 8  21376770.443
 114897401.958 7  21864245.624
 130545359.150 6  24841947.780
 14  2 15  3 56  0.0000000  0 11G15G14G22G19G18G21G06G16G27G03G29
 128423391.772 6  24438155.822
 123816825.403 6  23561558.647
 106810641.948 8  20325385.180
 127059583.303 6  24178629.898
 111822663.229 8  21279136.923
 118220075.530 7  22496521.915
 109444913.427 8  20826670.721
 116367811.578 7  22144055.867
 112268379.087 8  21363959.307
 114813836.770 7  21848342.803
 130643862.727 6  24860692.365
 14  2 15  3 56 30.0000000  0 11G15G14G22G19G18G21G06G16G27G03G29
 128485022.129 6  24449883.617
 123724468.797 6  23543983.467
 106801215.726 8  20323591.388
 126963268.856 6  24160303.013
 111875347.173 8  21289162.074
 118260371.292 7  22504190.048
 109401707.409 8  20818448.532
 116402641.425 8  22150683.888
 112201367.760 8  21351207.363
 114730606.354 7  21832505.660
 130742503.541 6  24879462.874
 14  2 15  3 57  0.0000000  0 11G15G14G22G19G18G21G06G16G27G03G29
 128547094.179 6  24461696.049
 123632173.194 6  23526421.046
 106792232.857 9  20321881.689
 126867003.368 6  24141984.064
 111928316.930 8  21299241.380
 118300758.460 7  22511875.316
 109358892.186 8  20810301.555
 116437974.799 8  22157408.098
 112134668.877 8  21338514.946
 114647711.405 7  21816730.624
 130841277.492 6  24898256.945
 14  2 15  3 57 30.0000000  0 11G15G14G22G19G18G21G06G16G27G03G29
 128609619.593 6  24473594.214
 123539954.897 6  23508872.488
 106783706.260 8  20320258.957
 126770802.255 6  24123676.767
 111981584.057 8  21309378.326
 118341250.552 7  22519580.922
 109316482.665 8  20802231.229
 116473823.157 8  22164230.467
 112068298.151 8  21325884.794
 114565167.585 7  21801023.265
 130940196.415 6  24917081.510
 14  2 15  3 58  0.0000000  0 11G15G14G22G19G18G21G06G16G27G03G29
 128672585.039 6  24485577.108
 123447804.708 6  23491337.397
 106775623.318 8  20318721.395
 126674655.674 6  24105381.123
 112035135.001 8  21319569.181
 118381836.401 7  22527304.034
 109274468.773 8  20794236.178
 116510172.552 8  22171146.728
 112002246.146 8  21313315.766
 114482965.911 7  21785380.552
 131039247.169 6  24935929.530
 14  2 15  3 58 30.0000000  0 11G15G14G22G19G18G21G06G16G27G03G29
 128735990.951 6  24497642.903
 123355728.443 6  23473816.101
 106767985.785 8  20317267.779
 126578568.175 6  24087097.389
 112088970.398 8  21329813.486
 118422518.998 7  22535045.612
 109232855.125 8  20786317.505
 116547023.988 8  22178159.230
 111936517.855 8  21300807.995
 114401111.691 7  21769804.989
 131138430.791 6  24954807.014
 14  2 15  3 59  0.0000000  0 11G15G14G22G19G18G21G06G16G27G03G29
 128799840.840 6  24509793.386
 123263734.000 7  23456310.121
 106760798.301 9  20315900.073
 126482546.296 6  24068824.763
 112143093.165 8  21340112.505
 118463303.430 7  22542806.795
 109191648.517 8  20778475.660
 116584380.482 8  22185268.317
 111871120.731 8  21288363.953
 114319612.355 8  21754295.712
 131237750.982 6  24973706.083
 14  2 15  3 59 30.0000000  0 11G15G14G22G19G18G21G06G16G27G03G29
 128864120.180 6  24522024.913
 123171812.113 6  23438817.662
 106754047.495 8  20314615.109
 126386579.794 6  24050563.063
 112197488.783 8  21350463.729
 118504177.992 7  22550585.082
 109150838.434 8  20770709.744
 116622227.610 8  22192470.490
 111806044.676 8  21275979.497
 114238458.622 8  21738853.484
 131337193.671 6  24992630.715
 14  2 15  4  0  0.0000000  0 11G15G14G22G19G18G21G06G16G27G03G29
 128928843.865 6  24534341.095
 123079982.116 6  23421342.696
 106747749.294 9  20313416.864
 126290687.205 6  24032316.120
 112252172.341 8  21360869.774
 118545159.741 7  22558383.568
 109110443.226 8  20763022.955
 116660579.810 8  22199768.492
 111741308.805 8  21263661.331
 114157669.488 8  21723479.294
 131436774.598 6  25011579.451
 14  2 15  4  0 30.0000000  0 11G15G14G22G19G18G21G06G16G27G03G29
 128993997.625 6  24546739.465
 122988234.620 6  23403883.085
 106741890.444 8  20312302.090
 126194857.938 6  24014078.985
 112307129.218 8  21371327.782
 118586236.600 7  22566200.221
 109070452.169 8  20755412.753
 116699423.279 8  22207159.876
 111676903.023 8  21251404.780
 114077235.251 7  21708172.924
 131536479.573 6  25030552.096
 14  2 15  4  1  0.0000000  0 11G15G14G22G19G18G21G06G16G27G03G29
 129059582.070 6  24559220.621
 122896575.378 6  23386441.538
 106736472.863 9  20311271.414
 126099096.621 6  23995856.133
 112362360.343 8  21381837.692
 118627411.739 7  22574035.619
 109030870.258 8  20747880.615
 116738758.718 7  22214645.100
 111612832.323 8  21239212.887
 113997161.342 8  21692935.214
 131636309.793 6  25049549.467
 14  2 15  4  1 30.0000000  0 11G15G14G22G19G18G21G06G16G27G03G29
 129125595.348 6  24571782.646
 122805007.229 7  23369016.978
 106731495.736 9  20310324.267
 126003405.032 6  23977647.195
 112417863.863 8  21392400.080
 118668685.336 7  22581889.914
 108991698.381 8  20740426.808
 116778583.538 8  22222223.943
 111549099.018 8  21227084.721
 113917450.195 7  21677766.508
 131736263.643 6  25068569.026
 14  2 15  4  2  0.0000000  0 10G15G14G22G19G18G21G06G16G27G03
 129192037.271 6  24584425.914
 122713534.762 7  23351610.771
 106726960.045 9  20309461.002
 125907786.853 6  23959452.032
 112473639.506 8  21403013.486
 118710059.588 7  22589763.025
 108952940.528 8  20733051.199
 116818897.430 8  22229895.482
 111485707.192 8  21215021.963
 113838106.057 8  21662668.440
 14  2 15  4  2 30.0000000  0 10G15G14G22G19G18G21G06G16G27G03
 129258904.972 6  24597150.407
 122622160.034 7  23334222.377
 106722863.858 9  20308681.359
 125812243.092 6  23941269.989
 112529684.299 8  21413678.635
 118751533.839 7  22597655.491
 108914597.268 8  20725754.763
 116859697.609 7  22237659.200
 111422658.271 8  21203024.012
 113759131.005 7  21647639.980
 14  2 15  4  3  0.0000000  0 10G15G14G22G19G18G21G06G16G27G03
 129326202.286 6  24609956.866
 122530891.954 7  23316855.399
 106719212.276 9  20307986.653
 125716781.427 6  23923104.816
 112586002.229 8  21424395.620
 118793114.716 7  22605568.331
 108876676.232 8  20718539.006
 116900987.856 8  22245516.281
 111359960.373 8  21191093.100
 113680533.275 7  21632683.199
 14  2 15  4  3 30.0000000  0 10G15G14G22G19G18G21G06G16G27G03
 129393922.170 6  24622843.258
 122439728.569 7  23299508.278
 106715999.175 8  20307375.214
 125621398.892 6  23904953.712
 112642586.276 8  21435163.269
 118834797.132 7  22613500.097
 108839174.087 8  20711402.487
 116942761.101 8  22253465.775
 111297610.898 8  21179228.560
 113602310.422 7  21617797.619
 14  2 15  4  4  0.0000000  0 10G15G14G22G19G18G21G06G16G27G03
 129462057.130 6  24635809.748
 122348666.747 7  23282178.824
 106713218.215 9  20306846.001
 125526091.796 6  23886816.832
 112699428.827 8  21445979.675
 118876575.986 7  22621450.882
 108802087.151 8  20704344.499
 116985009.059 7  22261504.770
 111235606.360 8  21167428.704
 113524459.376 8  21602983.320
 14  2 15  4  4 30.0000000  0 10G15G14G22G19G18G21G06G16G27G03
 129530618.341 6  24648856.613
 122257723.054 7  23264872.116
 106710881.628 9  20306401.506
 125430875.374 6  23868697.998
 112756541.300 8  21456848.068
 118918465.074 7  22629421.144
 108765429.990 8  20697369.121
 117027743.143 8  22269637.030
 111173962.624 8  21155699.086
 113446996.237 8  21588243.204
 14  2 15  4  5  0.0000000  0 10G15G14G22G19G18G21G06G16G27G03
 129599592.637 6  24661981.815
 122166889.332 7  23247587.538
 106708977.543 8  20306038.928
 125335740.735 7  23850594.164
 112813910.598 8  21467764.846
 118960453.967 7  22637412.073
 108729193.694 8  20690473.738
 117070950.229 8  22277859.091
 111112670.891 8  21144035.270
 113369912.526 8  21573574.326
 14  2 15  4  5 30.0000000  0 10G15G14G22G19G18G21G06G16G27G03
 129668976.487 6  24675185.142
 122076167.143 6  23230322.941
 106707503.730 8  20305758.538
 125240687.956 6  23832506.031
 112871533.520 8  21478730.277
 119002541.222 7  22645420.940
 108693377.986 8  20683658.222
 117114626.492 8  22286171.205
 111051731.887 8  21132438.832
 113293209.172 8  21558977.952
 14  2 15  4  6  0.0000000  0 10G15G14G22G19G18G21G06G16G27G03
 129738779.347 6  24688467.850
 121985570.732 7  23213084.017
 106706470.214 9  20305561.878
 125145730.250 7  23814436.897
 112929419.028 8  21489745.519
 119044738.612 7  22653450.790
 108657996.232 8  20676925.522
 117158780.932 7  22294572.901
 110991159.268 8  21120912.352
 113216899.992 7  21544456.782
 14  2 15  4  6 30.0000000  0 10G15G14G22G19G18G21G06G16G27G03
 129808991.518 6  24701827.532
 121895095.287 7  23195867.822
 106705868.603 9  20305447.291
 125050862.324 6  23796383.380
 112987557.817 8  21500809.314
 119087039.210 7  22661499.930
 108623042.051 8  20670273.483
 117203404.110 8  22303064.972
 110930947.747 8  21109454.448
 113140979.943 8  21530009.412
 14  2 15  4  7  0.0000000  0 10G15G14G22G19G18G21G06G16G27G03
 129879609.944 6  24715267.291
 121804743.049 7  23178673.544
 106705696.991 8  20305414.720
 124956085.298 6  23778348.560
 113045947.241 8  21511920.524
 119129442.327 7  22669569.162
 108588516.370 8  20663703.784
 117248492.696 7  22311644.436
 110871098.876 8  21098065.832
 113065451.198 7  21515636.999
 14  2 15  4  7 30.0000000  0 10G15G14G22G19G18G21G06G16G27G03
 129950634.835 6  24728781.301
 121714519.200 7  23161504.689
 106705956.583 8  20305464.111
 124861403.403 7  23760330.810
 113104587.493 8  21523078.904
 119171950.734 7  22677658.379
 108554423.146 8  20657215.995
 117294046.772 7  22320313.277
 110811617.077 8  21086746.229
 112990318.359 8  21501339.694
 14  2 15  4  8  0.0000000  0 10G15G14G22G19G18G21G06G16G27G03
 130022067.620 6  24742375.573
 121624430.364 7  23144361.366
 106706649.833 9  20305596.243
 124766822.215 7  23742332.497
 113163480.033 8  21534285.714
 119214568.221 7  22685768.564
 108520767.770 8  20650811.242
 117340067.412 7  22329070.443
 110752508.288 8  21075498.712
 112915587.474 7  21487118.389
 14  2 15  4  8 30.0000000  0 10G15G14G22G19G18G21G06G16G27G03
 130093900.958 6  24756045.680
 121534474.226 7  23127243.102
 106707771.024 9  20305809.602
 124672338.549 6  23724352.838
 113222618.128 8  21545540.150
 119257290.584 7  22693898.267
 108487546.454 8  20644489.947
 117386547.467 8  22337915.515
 110693769.712 8  21064321.104
 112841256.092 8  21472973.559
 14  2 15  4  9  0.0000000  0 10G15G14G22G19G18G21G06G16G27G03
 130166130.734 6  24769790.805
 121444651.868 7  23110150.795
 106709316.946 9  20306103.964
 124577952.303 6  23706391.518
 113281997.137 8  21556839.010
 119300115.824 7  22702047.644
 108454758.986 8  20638250.554
 117433482.148 7  22346846.942
 110635401.451 8  21053214.007
 112767324.731 8  21458905.133
 14  2 15  4  9 30.0000000  0 10G15G14G22G19G18G21G06G16G27G03
 130238763.821 6  24783612.275
 121354975.230 7  23093085.970
 106711295.574 9  20306480.301
 124483674.465 6  23688451.318
 113341624.638 8  21568185.872
 119343053.305 7  22710218.627
 108422415.357 8  20632095.699
 117480877.978 7  22355865.977
 110577414.857 8  21042179.131
 112693805.018 8  21444915.271
 14  2 15  4 10  0.0000000  0 10G15G14G22G19G18G21G06G16G27G03
 130311789.206 6  24797507.604
 121265438.077 7  23076047.555
 106713696.679 9  20306937.174
 124389498.022 6  23670530.391
 113401490.042 8  21579577.756
 119386094.609 7  22718409.140
 108390508.717 8  20626024.335
 117528723.768 8  22364971.243
 110519803.198 8  21031216.240
 112620690.271 8  21431001.835
 14  2 15  4 10 30.0000000  0 10G15G14G22G19G18G21G06G16G27G03
 130385207.097 6  24811480.004
 121176046.161 7  23059037.237
 106716521.727 8  20307474.830
 124295428.015 6  23652629.458
 113461593.408 8  21591015.365
 119429242.927 7  22726619.556
 108359043.023 8  20620036.424
 117577020.332 7  22374161.443
 110462571.377 8  21020325.362
 112547985.626 8  21417166.474
 14  2 15  4 11  0.0000000  0 10G15G14G22G19G18G21G06G16G27G03
 130459022.314 6  24825525.240
 121086809.205 7  23042055.509
 106719776.390 9  20308094.214
 124201472.935 6  23634750.085
 113521939.415 8  21602498.762
 119472504.948 7  22734852.484
 108328026.622 8  20614134.280
 117625771.687 7  22383439.181
 110405728.324 8  21009508.472
 112475700.561 7  21403411.241
 14  2 15  4 11 30.0000000  0 10G15G14G22G19G18G21G06G16G27G03
 130533222.872 6  24839646.696
 120997720.640 7  23025102.792
 106723450.309 9  20308793.251
 124107625.353 6  23616891.401
 113582517.154 8  21614026.552
 119515872.261 7  22743104.989
 108297451.523 8  20608315.799
 117674965.775 8  22392800.022
 110349266.973 8  20998764.416
 112403827.623 7  21389734.326
 14  2 15  4 12  0.0000000  0 10G15G14G22G19G18G21G06G16G27G03
 130607813.138 6  24853840.549
 120908790.062 7  23008179.892
 106727548.594 9  20309573.281
 124013893.842 7  23599054.959
 113643330.431 8  21625598.999
 119559351.196 7  22751378.966
 108267325.396 8  20602583.184
 117724606.694 7  22402246.206
 110293195.938 8  20988094.429
 112332376.416 8  21376137.933
 14  2 15  4 12 30.0000000  0 10G15G14G22G19G18G21G06G16G27G03
 130682789.288 6  24868108.547
 120820018.669 7  22991287.271
 106732068.833 8  20310433.415
 123920278.814 6  23581240.949
 113704376.141 8  21637215.502
 119602940.800 7  22759673.998
 108237648.426 8  20596935.768
 117774690.293 8  22411777.089
 110237515.729 8  20977498.785
 112261347.821 8  21362621.242
 14  2 15  4 13  0.0000000  0 10G15G14G22G19G18G21G06G16G27G03
 130758148.579 6  24882449.061
 120731408.821 7  22974424.946
 106737009.072 9  20311373.649
 123826781.716 6  23563447.934
 113765652.062 8  21648876.221
 119646641.139 7  22767989.366
 108208421.259 8  20591374.241
 117825213.830 8  22421391.526
 110182228.147 8  20966977.699
 112190743.729 8  21349185.995
 14  2 15  4 13 30.0000000  0 10G15G14G22G19G18G21G06G16G27G03
 130833885.673 6  24896860.501
 120642960.105 7  22957593.697
 106742364.995 9  20312392.866
 123733401.684 7  23545679.018
 113827152.760 8  21660579.060
 119690449.392 7  22776326.645
 108179642.647 8  20585897.895
 117876171.189 8  22431088.132
 110127332.271 8  20956531.547
 112120563.173 8  21335830.541
 14  2 15  4 14  0.0000000  0 10G15G14G22G19G18G21G06G16G27G03
 130910008.047 6  24911344.401
 120554685.875 7  22940796.099
 106748145.428 9  20313492.877
 123640150.578 7  23527933.262
 113888886.385 8  21672326.974
 119734375.983 7  22784685.347
 108151323.658 8  20580508.852
 117927570.376 7  22440869.185
 110072840.282 8  20946162.335
 112050818.507 8  21322558.237
 14  2 15  4 14 30.0000000  0 10G15G14G22G19G18G21G06G16G27G03
 130986497.167 6  24925902.490
 120466572.410 7  22924028.523
 106754332.477 8  20314669.821
 123547014.083 6  23510209.623
 113950834.694 8  21684115.225
 119778404.744 7  22793063.571
 108123449.762 8  20575204.728
 117979391.798 8  22450730.704
 110018737.881 8  20935866.784
 111981495.938 8  21309367.366
 14  2 15  4 15  0.0000000  0 10G15G14G22G19G18G21G06G16G27G03
 131063364.605 6  24940529.162
 120378636.658 7  22907294.458
 106760939.216 9  20315927.191
 123454008.294 7  23492511.750
 114013009.233 8  21695946.747
 119822549.974 7  22801464.320
 108096036.001 8  20569987.998
 118031647.651 7  22460674.451
 109965041.159 8  20925648.290
 111912611.791 8  21296259.223
 14  2 15  4 15 30.0000000  0 10G15G14G22G19G18G21G06G16G27G03
 131140604.717 6  24955227.284
 120290878.167 7  22890594.782
 106767961.001 8  20317263.374
 123361131.694 6  23474837.279
 114075404.921 8  21707819.739
 119866809.044 7  22809886.532
 108069079.748 8  20564858.606
 118084331.505 7  22470699.815
 109911748.982 8  20915507.505
 111844165.197 8  21283234.056
 14  2 15  4 16  0.0000000  0 10G15G14G22G19G18G21G06G16G27G03
 131218215.944 6  24969997.489
 120203300.690 7  22873930.692
 106775397.268 9  20318678.513
 123268387.161 7  23457189.545
 114138020.292 8  21719735.246
 119911183.039 7  22818331.011
 108042584.117 8  20559816.736
 118137441.614 7  22480806.337
 109858864.260 8  20905444.047
 111776159.204 8  21270293.197
 14  2 15  4 16 30.0000000  0 10G15G14G22G19G18G21G06G16G27G03
 131296191.583 6  24984834.586
 120115902.933 7  22857299.336
 106783242.818 8  20320171.318
 123175772.528 7  23439564.828
 114200849.468 8  21731691.429
 119955668.071 7  22826796.558
 108016545.762 8  20554861.902
 118190970.950 7  22490992.716
 109806384.895 8  20895457.685
 111708592.141 8  21257435.449
 14  2 15  4 17  0.0000000  0 10G15G14G22G19G18G21G06G16G27G03
 131374530.213 6  24999740.860
 120028688.328 7  22840701.923
 106791496.880 8  20321742.215
 123083290.678 7  23421967.019
 114263891.320 8  21743687.821
 120000265.166 7  22835282.697
 107990966.824 8  20549994.316
 118244917.758 7  22501258.293
 109754313.918 8  20885548.789
 111641467.154 8  21244661.850
 14  2 15  4 17 30.0000000  0 10G15G14G22G19G18G21G06G16G27G03
 131453238.816 6  25014720.319
 119941669.479 7  22824142.557
 106800167.568 8  20323392.191
 122990953.605 6  23404395.469
 114327153.156 8  21755726.244
 120044984.635 7  22843792.459
 107965858.260 8  20545216.082
 118299289.092 8  22511604.857
 109702662.848 8  20875719.363
 111574796.248 8  21231974.926
 14  2 15  4 18  0.0000000  0 10G15G14G22G19G18G21G06G16G27G03
 131532306.127 6  25029766.533
 119854840.303 7  22807620.169
 106809244.552 9  20325119.426
 122898754.103 7  23386849.787
 114390623.832 8  21767804.104
 120089817.472 7  22852323.608
 107941212.025 8  20540526.133
 118354072.710 8  22522030.036
 109651424.740 8  20865969.644
 111508572.598 8  21219373.317
 14  2 15  4 18 30.0000000  0 10G15G14G22G19G18G21G06G16G27G03
 131611731.650 6  25044879.852
 119768205.542 7  22791134.147
 106818728.723 9  20326924.227
 122806696.014 7  23369332.549
 114454303.465 8  21779922.376
 120134766.014 7  22860876.948
 107917031.587 8  20535924.981
 118409268.666 8  22532533.471
 109600603.729 9  20856298.630
 111442800.423 8  21206856.733
 14  2 15  4 19  0.0000000  0 10G15G14G22G19G18G21G06G16G27G03
 131691513.655 6  25060063.770
 119681768.922 7  22774685.715
 106828619.337 9  20328806.551
 122714782.060 7  23351842.147
 114518191.052 8  21792080.067
 120179831.372 7  22869452.771
 107893319.022 8  20531412.730
 118464874.919 8  22543115.607
 109550202.508 8  20846707.773
 111377482.982 8  21194427.604
 14  2 15  4 19 30.0000000  0 10G15G14G22G19G18G21G06G16G27G03
 131771648.240 6  25075311.857
 119595531.361 7  22758275.732
 106838913.200 8  20330765.348
 122623013.065 7  23334378.564
 114582282.847 8  21804276.055
 120225012.797 7  22878050.717
 107870073.455 8  20526988.682
 118520886.444 8  22553774.093
 109500221.529 9  20837197.196
 111312620.600 8  21182084.469
 14  2 15  4 20  0.0000000  0 10G15G14G22G19G18G21G06G16G27G03
 131852136.835 6  25090629.408
 119509499.819 7  22741903.511
 106849613.054 9  20332801.601
 122531394.661 6  23316944.345
 114646580.682 8  21816511.389
 120270313.993 7  22886671.218
 107847300.664 8  20522655.301
 118577304.750 8  22564510.413
 109450666.771 8  20827766.794
 111248219.698 8  21169830.137
 14  2 15  4 20 30.0000000  0 10G15G14G22G19G18G21G06G16G27G03
 131932970.619 6  25106010.672
 119423671.438 7  22725571.588
 106860711.528 9  20334913.430
 122439923.076 7  23299538.237
 114711076.527 8  21828784.809
 120315729.934 7  22895313.899
 107824995.783 8  20518410.899
 118634121.193 7  22575321.485
 109401534.428 8  20818417.357
 111184276.530 8  21157661.653
 14  2 15  4 21  0.0000000  0 10G15G14G22G19G18G21G06G16G27G03
 132014154.874 6  25121459.435
 119338056.349 7  22709279.803
 106872214.902 8  20337102.609
 122348607.889 7  23282161.897
 114775775.838 8  21841096.810
 120361268.073 7  22903979.828
 107803167.156 8  20514257.614
 118691340.256 7  22586210.300
 109352833.877 8  20809149.687
 111120800.719 8  21145582.738
 14  2 15  4 21 30.0000000  0 10G15G14G22G19G18G21G06G16G27G03
 132095681.097 6  25136974.559
 119252651.209 7  22693028.056
 106884115.114 9  20339367.037
 122257444.888 7  23264813.833
 114840670.694 8  21853445.676
 120406922.588 7  22912667.688
 107781809.650 8  20510192.913
 118748953.318 7  22597173.641
 109304560.995 8  20799963.577
 111057788.513 8  21133591.783
 14  2 15  4 22  0.0000000  0 10G15G14G22G19G18G21G06G16G27G03
 132177545.402 6  25152553.256
 119167457.996 7  22676815.925
 106896409.995 9  20341706.771
 122166435.257 7  23247495.635
 114905757.856 8  21865831.647
 120452692.656 7  22921377.422
 107760923.524 8  20506218.244
 118806956.005 7  22608211.220
 109256716.641 9  20790859.473
 110995241.046 8  21121689.386
 14  2 15  4 22 30.0000000  0 10G15G14G22G19G18G21G06G16G27G03
 132259758.732 6  25168197.929
 119082492.572 7  22660647.344
 106909111.346 9  20344123.828
 122075594.505 7  23230209.722
 114971048.626 8  21878256.136
 120498592.378 7  22930111.646
 107740522.860 8  20502336.437
 118865359.095 7  22619325.149
 109209316.105 8  20781839.126
 110933173.977 8  21109878.515
 14  2 15  4 23  0.0000000  0 10G15G14G22G19G18G21G06G16G27G03
 132342302.810 6  25183904.208
 118997741.795 7  22644519.646
 106922201.474 9  20346614.977
 121984908.570 7  23212952.721
 115036524.913 8  21890715.711
 120544605.755 7  22938867.667
 107720593.193 8  20498544.353
 118924143.774 8  22630511.726
 109162345.386 8  20772900.864
 110871573.288 8  21098156.382
 14  2 15  4 23 30.0000000  0 10G15G14G22G19G18G21G06G16G27G03
 132425186.313 6  25199676.944
 118913219.922 7  22628435.841
 106935690.378 9  20349181.731
 121894391.218 7  23195727.678
 115102196.334 8  21903212.957
 120590744.563 7  22947647.923
 107701147.092 8  20494844.001
 118983318.527 7  22641772.128
 109115817.841 9  20764047.060
 110810452.608 8  21086525.649
 14  2 15  4 24  0.0000000  0 10G15G14G22G19G18G21G06G16G27G03
 132508396.304 6  25215512.019
 118828919.848 7  22612394.073
 106949566.385 9  20351822.160
 121804033.710 7  23178532.187
 115168050.191 8  21915744.251
 120636999.002 7  22956449.893
 107682174.864 8  20491233.442
 119042870.008 8  22653104.509
 109069725.165 8  20755275.996
 110749803.869 8  21074984.566
 14  2 15  4 24 30.0000000  0 10G15G14G22G19G18G21G06G16G27G03
 132591945.959 6  25231411.161
 118744859.649 7  22596397.604
 106963843.524 8  20354539.135
 121713854.039 7  23161371.450
 115234100.425 8  21928313.570
 120683385.120 7  22965276.714
 107663693.451 8  20487716.379
 119102811.262 7  22664510.456
 109024084.826 8  20746591.270
 110689644.810 8  21063536.908
 14  2 15  4 25  0.0000000  0  9G14G22G19G18G21G06G16G27G03
 118661025.038 7  22580444.232
 106978503.195 8  20357328.741
 121623837.167 7  23144242.361
 115300328.103 8  21940915.744
 120729885.944 7  22974126.112
 107645686.464 8  20484290.113
 119163121.689 8  22675988.047
 108978881.598 8  20737989.270
 110629960.162 8  21052178.780
 14  2 15  4 25 30.0000000  0  9G14G22G19G18G21G06G16G27G03
 118577430.454 7  22564536.961
 106993555.484 8  20360192.957
 121533996.901 7  23127146.021
 115366742.761 8  21953554.181
 120776513.467 7  22982999.006
 107628166.816 8  20480956.169
 119223810.364 7  22687536.518
 108934129.023 9  20729472.978
 110570763.935 8  21040914.615
 14  2 15  4 26  0.0000000  0  9G14G22G19G18G21G06G16G27G03
 118494073.630 7  22548675.238
 107008993.876 8  20363131.000
 121444330.293 7  23110083.790
 115433337.288 8  21966225.750
 120823263.206 7  22991895.681
 107611130.541 8  20477714.148
 119284869.600 7  22699155.701
 108889824.018 9  20721042.789
 110512053.202 8  21029741.517
 14  2 15  4 26 30.0000000  0  9G14G22G19G18G21G06G16G27G03
 118410961.621 7  22532859.164
 107024821.182 8  20366142.729
 121354843.635 7  23093054.346
 115500113.758 8  21978934.173
 120870139.739 7  23000815.536
 107594582.735 8  20474565.077
 119346300.339 7  22710845.639
 108845972.784 8  20712697.522
 110453834.566 8  21018663.081
 14  2 15  4 27  0.0000000  0  9G14G22G19G18G21G06G16G27G03
 118328098.051 7  22517091.468
 107041036.557 9  20369228.614
 121265539.882 7  23076061.675
 115567071.009 8  21991675.636
 120917143.863 7  23009759.809
 107578525.117 8  20471509.517
 119408100.296 7  22722605.892
 108802577.860 8  20704439.206
 110396110.870 8  21007679.015
 14  2 15  4 27 30.0000000  0  9G14G22G19G18G21G06G16G27G03
 118245477.862 7  22501368.567
 107057631.081 8  20372386.083
 121176413.663 7  23059101.376
 115634199.814 8  22004450.249
 120964268.722 6  23018727.987
 107562950.735 8  20468545.767
 119470259.514 7  22734434.166
 108759633.624 8  20696267.813
 110338876.457 8  20996787.938
 14  2 15  4 28  0.0000000  0  9G14G22G19G18G21G06G16G27G03
 118163110.600 7  22485694.850
 107074609.147 9  20375616.969
 121087473.412 7  23042176.260
 115701504.312 8  22017257.683
 121011521.088 7  23027719.334
 107547867.411 8  20465675.899
 119532780.846 8  22746331.897
 108717148.124 9  20688183.179
 110282139.734 8  20985991.134
 14  2 15  4 28 30.0000000  0  9G14G22G19G18G21G06G16G27G03
 118081005.854 7  22470070.956
 107091976.016 9  20378921.756
 120998727.835 7  23025288.798
 115768989.377 8  22030099.550
 121058907.833 7  23036737.962
 107533282.090 8  20462900.132
 119595668.397 7  22758298.560
 108675130.123 8  20680187.657
 110225909.306 8  20975291.014
 14  2 15  4 29  0.0000000  0  9G14G22G19G18G21G06G16G27G03
 117999146.694 7  22454493.392
 107109710.784 8  20382296.653
 120910159.934 7  23008434.756
 115836633.390 8  22042972.008
 121106409.775 7  23045776.933
 107519177.116 8  20460215.890
 119658899.557 7  22770330.941
 108633561.989 8  20672277.302
 110170167.965 8  20964683.729
 14  2 15  4 29 30.0000000  0  9G14G22G19G18G21G06G16G27G03
 117917552.970 7  22438966.901
 107127828.710 9  20385744.589
 120821788.710 7  22991618.142
 115904451.805 8  22055877.351
 121154044.823 7  23054841.170
 107505569.749 8  20457626.680
 119722488.257 7  22782431.595
 108592462.535 8  20664456.042
 110114934.828 8  20954173.200
 14  2 15  4 30  0.0000000  0  9G14G22G19G18G21G06G16G27G03
 117836220.274 7  22423489.467
 107146321.007 9  20389263.732
 120733609.194 7  22974837.331
 115972435.236 8  22068814.178
 121201805.608 7  23063929.703
 107492453.925 8  20455130.910
 119786424.486 7  22794598.292
 108551826.287 8  20656723.005
 110060204.267 8  20943757.863
 14  2 15  4 30 30.0000000  0  9G14G22G19G18G21G06G16G27G03
 117755163.167 7  22408064.824
 107165197.899 8  20392855.758
 120645635.198 7  22958096.765
 116040593.170 8  22081783.947
 121249704.327 7  23073045.040
 107479842.128 8  20452730.811
 119850716.607 7  22806832.498
 108511666.839 8  20649081.288
 110005990.411 8  20933441.432
 14  2 15  4 31  0.0000000  0  9G14G22G19G18G21G06G16G27G03
 117674348.920 7  22392686.896
 107184422.510 8  20396513.988
 120557833.535 7  22941389.878
 116108888.876 8  22094780.540
 121297706.110 7  23082179.207
 107467699.949 8  20450420.422
 119915326.813 7  22819127.693
 108471950.641 8  20641523.834
 109952259.840 8  20923217.095
 14  2 15  4 31 30.0000000  0  9G14G22G19G18G21G06G16G27G03
 117593823.216 7  22377363.468
 107204036.028 8  20400246.557
 120470249.123 7  22924722.675
 116177363.094 8  22107810.865
 121345853.995 7  23091341.868
 107456070.830 8  20448207.634
 119980294.611 7  22831490.054
 108432722.344 8  20634058.368
 109899057.636 8  20913093.220
 14  2 15  4 32  0.0000000  0  9G14G22G19G18G21G06G16G27G03
 117513574.131 7  22362092.281
 107224022.109 8  20404049.657
 120382869.433 7  22908094.700
 116245999.047 7  22120872.269
 121394134.069 7  23100528.666
 107444940.863 8  20446089.735
 120045602.172 7  22843918.577
 108393968.950 9  20626684.127
 109846370.794 8  20903066.832
 14  2 15  4 32 30.0000000  0  9G14G22G19G18G21G06G16G27G03
 117433600.170 8  22346874.006
 107244374.785 9  20407922.539
 120295692.516 7  22891505.734
 116314790.811 8  22133962.484
 121442541.939 7  23109740.608
 107434306.714 8  20444066.058
 120111242.116 7  22856409.512
 108355687.863 9  20619399.582
 109794196.986 8  20893139.031
 14  2 15  4 33  0.0000000  0  9G14G22G19G18G21G06G16G27G03
 117353905.314 7  22331708.386
 107265093.826 8  20411865.783
 120208721.951 7  22874954.851
 116383737.472 8  22147082.453
 121491079.419 7  23118977.652
 107424170.353 8  20442137.100
 120177212.668 7  22868963.291
 108317882.192 8  20612205.528
 109742539.323 8  20883309.103
 14  2 15  4 33 30.0000000  0  9G14G22G19G18G21G06G16G27G03
 117274499.285 7  22316598.186
 107286184.533 8  20415878.900
 120121966.627 7  22858446.975
 116452844.248 7  22160233.383
 121539753.908 7  23128240.734
 107414539.474 8  20440304.241
 120243517.989 7  22881580.384
 108280560.590 9  20605103.680
 109691406.762 8  20873578.617
 14  2 15  4 34  0.0000000  0  9G14G22G19G18G21G06G16G27G03
 117195381.662 7  22301542.009
 107307642.141 8  20419962.027
 120035425.989 7  22841978.486
 116522106.093 8  22173413.233
 121588562.572 7  23137527.601
 107405411.395 8  20438567.405
 120310151.890 7  22894260.857
 108243721.659 9  20598093.371
 109640798.312 8  20863948.121
 14  2 15  4 34 30.0000000  0  9G14G22G19G18G21G06G16G27G03
 117116550.784 7  22286541.143
 107329460.405 8  20424114.096
 119949097.454 7  22825550.211
 116591516.393 8  22186621.509
 121637501.310 7  23146840.758
 107396782.808 8  20436925.622
 120377106.379 7  22907001.615
 108207362.615 9  20591174.485
 109590711.283 8  20854416.735
 14  2 15  4 35  0.0000000  0  9G14G22G19G18G21G06G16G27G03
 117038013.413 7  22271595.748
 107351641.671 8  20428334.905
 119862987.063 7  22809164.437
 116661077.438 8  22199859.502
 121686574.399 7  23156179.485
 107388658.298 8  20435379.528
 120444382.888 7  22919804.966
 108171489.080 9  20584348.177
 109541151.106 8  20844986.380
 14  2 15  4 35 30.0000000  0  9G14G22G19G18G21G06G16G27G03
 116959768.787 7  22256706.606
 107374181.046 8  20432624.030
 119777093.970 7  22792819.054
 116730783.949 8  22213123.722
 121735779.046 7  23165542.757
 107381035.069 8  20433928.661
 120511974.782 7  22932666.530
 108136099.474 9  20577614.001
 109492116.678 8  20835654.972
 14  2 15  4 36  0.0000000  0  9G14G22G19G18G21G06G16G27G03
 116881829.810 7  22241875.921
 107397087.122 8  20436982.886
 119691430.779 7  22776518.208
 116800644.297 8  22226417.687
 121785125.732 7  23174932.644
 107373923.924 8  20432576.123
 120579889.291 7  22945591.214
 108101205.730 8  20570973.610
 109443619.785 8  20826426.338
 14  2 15  4 36 30.0000000  0  9G14G22G19G18G21G06G16G27G03
 116804190.887 8  22227101.370
 107420349.524 8  20441409.592
 119605990.744 7  22760260.016
 116870648.093 8  22239739.200
 121834606.014 7  23184349.058
 107367317.117 8  20431318.500
 120648114.517 7  22958573.314
 108066800.672 8  20564426.634
 109395653.748 8  20817298.582
 14  2 15  4 37  0.0000000  0  9G14G22G19G18G21G06G16G27G03
 116726852.187 8  22212384.543
 107443964.119 8  20445903.391
 119520773.688 7  22744042.935
 116940790.774 8  22253086.682
 121884218.076 7  23193789.776
 107361212.361 8  20430156.782
 120716645.038 7  22971614.207
 108032883.683 9  20557972.491
 109348218.128 8  20808272.068
 14  2 15  4 37 30.0000000  0  9G14G22G19G18G21G06G16G27G03
 116649818.428 7  22197725.194
 107467931.670 9  20450464.321
 119435784.278 7  22727870.743
 117011073.062 7  22266461.200
 121933964.740 6  23203255.808
 107355612.975 8  20429091.329
 120785479.939 7  22984713.225
 107999458.680 9  20551611.875
 109301316.549 8  20799347.165
 14  2 15  4 38  0.0000000  0  9G14G22G19G18G21G06G16G27G03
 116573096.349 7  22183125.798
 107492254.031 8  20455092.671
 119351028.786 7  22711742.169
 117081496.827 8  22279862.402
 121983850.131 6  23212749.000
 107350523.476 8  20428122.677
 120854619.822 7  22997870.010
 107966531.006 9  20545346.025
 109254955.126 8  20790524.978
 14  2 15  4 38 30.0000000  0  9G14G22G19G18G21G06G16G27G03
 116496687.872 7  22168584.907
 107516929.240 9  20459788.546
 119266508.525 7  22695658.102
 117152059.677 8  22293289.983
 122033873.934 7  23222268.766
 107345943.696 8  20427251.412
 120924061.140 7  23011084.659
 107934101.740 9  20539174.620
 109209135.184 8  20781805.579
 14  2 15  4 39  0.0000000  0 10G14G22G19G18G21G06G16G27G03G32
 116420589.580 7  22154104.517
 107541949.297 8  20464549.645
 119182219.485 7  22679619.286
 117222753.737 8  22306743.038
 122084030.397 7  23231812.687
 107341868.115 8  20426476.044
 120993794.244 7  23024354.430
 107902166.226 8  20533097.798
 109163851.817 8  20773188.848
 129775688.913 5  24695489.683
 14  2 15  4 39 30.0000000  0 10G14G22G19G18G21G06G16G27G03G32
 116344815.754 7  22139685.033
 107567323.916 8  20469378.308
 119098175.525 7  22663626.059
 117293588.314 8  22320222.403
 122134331.127 6  23241385.098
 107338308.484 8  20425798.562
 121063827.921 7  23037681.454
 107870737.417 9  20527117.084
 109119118.173 8  20764676.424
 129674175.087 5  24676171.481
 14  2 15  4 40  0.0000000  0 10G14G22G19G18G21G06G16G27G03G32
 116269360.610 8  22125326.931
 107593042.707 8  20474272.417
 119014370.327 7  22647678.809
 117364553.076 7  22333726.531
 122184768.289 6  23250982.953
 107335256.871 8  20425217.912
 121134150.424 7  23051063.998
 107839808.351 8  20521231.454
 109074927.422 8  20756266.547
 129572835.991 5  24656888.389
 14  2 15  4 40 30.0000000  0 10G14G22G19G18G21G06G16G27G03G32
 116194222.713 7  22111028.211
 107619100.409 8  20479231.066
 118930802.649 7  22631775.620
 117435642.542 8  22347254.464
 122235338.538 7  23260606.140
 107332710.028 8  20424733.242
 121204754.983 7  23064499.189
 107809377.018 9  20515440.907
 109031277.996 8  20747960.529
 129471669.539 5  24637634.887
 14  2 15  4 41  0.0000000  0 10G14G22G19G18G21G06G16G27G03G32
 116119415.783 8  22096793.221
 107645506.288 8  20484255.979
 118847485.218 7  22615921.563
 117506865.767 7  22360807.411
 122286052.374 6  23270256.782
 107330679.139 8  20424346.995
 121275648.965 7  23077989.913
 107779455.591 9  20509746.909
 108988182.222 8  20739759.458
 129370687.868 5  24618419.791
 14  2 15  4 41 30.0000000  0 10G14G22G19G18G21G06G16G27G03G32
 116044951.095 8  22082623.440
 107672266.883 8  20489348.484
 118764428.566 7  22600116.660
 117578229.229 8  22374387.764
 122336918.971 6  23279936.512
 107329173.222 8  20424060.403
 121346837.491 7  23091536.335
 107750053.909 9  20504151.944
 108945649.688 8  20731666.332
 129269900.353 5  24599242.068
 14  2 15  4 42  0.0000000  0 10G14G22G19G18G21G06G16G27G03G32
 115970809.486 8  22068514.286
 107699358.915 8  20494503.774
 118681613.991 7  22584357.303
 117649709.698 8  22387989.671
 122387917.410 6  23289640.770
 107328171.319 8  20423869.465
 121418296.408 7  23105134.452
 107721152.075 9  20498652.386
 108903660.660 8  20723676.144
 129169287.021 5  24580095.980
 14  2 15  4 42 30.0000000  0 10G14G22G19G18G21G06G16G27G03G32
 115896997.546 8  22054468.805
 107726784.556 8  20499722.728
 118599047.159 7  22568645.028
 117721309.598 8  22401614.772
 122439051.728 6  23299372.398
 107327677.675 8  20423775.637
 121490025.699 7  23118784.369
 107692755.392 9  20493248.602
 108862220.816 8  20715790.234
 129068853.148 5  24560982.990
 14  2 15  4 43  0.0000000  0 10G14G22G19G18G21G06G16G27G03G32
 115823535.721 7  22040489.239
 107754559.973 8  20505008.156
 118516748.507 7  22552984.057
 117793044.840 8  22415266.118
 122490340.627 6  23309131.972
 107327710.459 8  20423781.949
 121562040.709 7  23132488.204
 107664883.292 8  20487944.627
 108821349.841 8  20708012.718
 128968617.893 5  24541909.502
 14  2 15  4 43 30.0000000  0 10G14G22G19G18G21G06G16G27G03G32
 115750401.925 8  22026571.779
 107782658.802 8  20510355.182
 118434695.577 7  22537369.645
 117864888.754 7  22428937.103
 122541759.303 7  23318917.144
 107328245.204 8  20423883.903
 121634313.201 7  23146241.742
 107637512.298 8  20482735.847
 108781024.294 8  20700339.671
 128868557.784 6  24522869.056
 14  2 15  4 44  0.0000000  0 10G14G22G19G18G21G06G16G27G03G32
 115677615.566 8  22012721.247
 107811095.894 8  20515766.375
 118352907.244 7  22521806.470
 117936856.211 8  22442632.350
 122593324.693 7  23328729.831
 107329299.184 8  20424084.481
 121706856.710 7  23160046.533
 107610660.690 8  20477625.822
 108741262.559 8  20692772.542
 128768690.848 6  24503864.518
 14  2 15  4 44 30.0000000  0 10G14G22G19G18G21G06G16G27G03G32
 115605178.763 8  21998937.380
 107839869.264 8  20521241.965
 118271385.473 7  22506293.060
 118008945.290 7  22456350.581
 122645037.297 6  23338570.097
 107330872.863 8  20424384.220
 121779668.275 7  23173901.833
 107584329.487 8  20472615.725
 108702065.958 8  20685314.045
 128669018.141 6  24484897.526
 14  2 15  4 45  0.0000000  0 10G14G22G19G18G21G06G16G27G03G32
 115533087.739 8  21985218.791
 107868970.597 8  20526779.964
 118190126.024 7  22490830.776
 118081147.800 7  22470090.121
 122696890.643 7  23348436.831
 107332959.258 8  20424780.988
 121852737.862 7  23187806.156
 107558513.631 8  20467703.275
 108663429.336 8  20677961.280
 128569534.282 6  24465965.820
 14  2 15  4 45 30.0000000  0 10G14G22G19G18G21G06G16G27G03G32
 115461349.932 8  21971567.925
 107898402.691 8  20532380.969
 118109136.042 7  22475418.012
 118153466.688 8  22483852.376
 122748890.181 6  23358332.655
 107335563.610 8  20425276.758
 121926066.861 7  23201760.729
 107533219.252 8  20462889.651
 108625358.854 8  20670717.007
 128470245.616 6  24447073.027
 14  2 15  4 46  0.0000000  0 10G14G22G19G18G21G06G16G27G03G32
 115389965.639 8  21957983.045
 107928162.087 8  20538043.750
 118028415.506 7  22460058.298
 118225897.782 7  22497635.228
 122801033.699 7  23368255.557
 107338684.169 8  20425870.436
 121999649.888 7  23215762.347
 107508445.502 8  20458175.240
 108587853.983 8  20663580.249
 128371150.982 6  24428215.925
 14  2 15  4 46 30.0000000  0 10G14G22G19G18G21G06G16G27G03G32
 115318935.335 8  21944467.245
 107958244.675 8  20543768.141
 117947964.341 7  22444748.201
 118298437.412 7  22511439.287
 122853319.733 6  23378205.042
 107342319.134 8  20426562.157
 122073481.933 7  23229812.274
 107484191.626 8  20453559.787
 108550913.987 8  20656550.679
 128272249.659 6  24409395.624
 14  2 15  4 47  0.0000000  0 10G14G22G19G18G21G06G16G27G03G32
 115248269.290 8  21931019.970
 107988656.633 8  20549555.570
 117867793.194 7  22429492.580
 118371091.672 7  22525265.565
 122905756.211 7  23388183.616
 107346476.844 8  20427353.278
 122147567.384 7  23243910.663
 107460466.679 8  20449045.531
 108514547.952 8  20649631.128
 128173550.631 6  24390614.589
 14  2 15  4 47 30.0000000  0 10G14G22G19G18G21G06G16G27G03G32
 115177965.545 8  21917641.274
 108019391.322 8  20555404.365
 117787899.331 7  22414289.394
 118443854.352 7  22539111.055
 122958338.564 7  23398189.810
 107351152.502 8  20428243.171
 122221898.053 7  23258055.092
 107437267.267 9  20444630.987
 108478752.674 8  20642819.052
 128075050.400 6  24371869.608
 14  2 15  4 48  0.0000000  0 10G14G22G19G18G21G06G16G27G03G32
 115108025.619 7  21904332.696
 108050446.127 8  20561313.881
 117708284.279 7  22399138.827
 118516723.047 8  22552978.296
 123011066.805 6  23408223.730
 107356345.266 8  20429231.261
 122296470.353 7  23272245.903
 107414594.007 8  20440316.247
 108443528.972 8  20636115.900
 127976749.614 6  24353163.742
 14  2 15  4 48 30.0000000  0 10G14G22G19G18G21G06G16G27G03G32
 115038451.518 8  21891092.474
 108081818.922 8  20567283.823
 117628949.735 8  22384042.998
 118589694.920 7  22566862.829
 123063940.794 7  23418284.898
 107362055.049 8  20430318.196
 122371280.631 7  23286481.532
 107392447.513 8  20436102.056
 108408877.841 8  20629521.851
 127878648.767 5  24334494.047
 14  2 15  4 49  0.0000000  0 10G14G22G19G18G21G06G16G27G03G32
 114969251.511 7  21877924.599
 108113513.505 8  20573315.097
 117549903.614 7  22368999.715
 118662773.943 7  22580771.002
 123116966.163 6  23428375.297
 107368287.735 8  20431503.929
 122446330.925 7  23300763.871
 107370834.524 8  20431989.257
 108374806.075 8  20623038.588
 127780754.808 6  24315867.655
 14  2 15  4 49 30.0000000  0 10G14G22G19G18G21G06G16G27G03G32
 114900418.301 7  21864826.255
 108145518.248 8  20579405.463
 117471138.481 7  22354011.290
 118735949.040 7  22594695.481
 123170133.836 6  23438493.137
 107375033.608 8  20432787.750
 122521608.089 7  23315088.412
 107349746.722 8  20427976.538
 108341304.958 8  20616663.199
 127683059.296 6  24297275.894
 14  2 15  4 50  0.0000000  0 10G14G22G19G18G21G06G16G27G03G32
 114831968.021 8  21851799.984
 108177845.161 8  20585557.040
 117392670.008 7  22339079.031
 118809231.840 7  22608641.141
 123223457.506 7  23448640.948
 107382306.255 8  20434171.767
 122597123.244 7  23329458.465
 107329198.775 8  20424066.079
 108308389.318 8  20610400.136
 127585576.907 6  24278726.211
 14  2 15  4 50 30.0000000  0 11G11G14G22G19G18G21G06G16G27G03G32
 131425787.032 6  25009495.757
 114763899.599 8  21838847.363
 108210489.025 8  20591768.986
 117314497.246 7  22324203.794
 118882617.443 7  22622605.824
 123276933.965 6  23458816.650
 107390102.509 8  20435655.263
 122672869.172 7  23343872.982
 107309188.507 8  20420258.149
 108276057.457 8  20604247.455
 127488305.358 6  24260216.235
 14  2 15  4 51  0.0000000  0 11G11G14G22G19G18G21G06G16G27G03G32
 131329845.791 6  24991238.311
 114696205.701 7  21825965.396
 108243437.914 8  20598039.181
 117236612.643 7  22309382.616
 118956094.225 8  22636587.987
 123330553.941 6  23469020.335
 107398412.628 8  20437236.782
 122748832.987 7  23358328.548
 107289707.085 8  20416551.180
 108244300.869 8  20598204.582
 127391236.018 6  24241744.199
 14  2 15  4 51 30.0000000  0 11G11G14G22G19G18G21G06G16G27G03G32
 131233876.196 5  24972975.269
 114628896.030 8  21813156.762
 108276697.359 8  20604368.180
 117159025.644 7  22294618.438
 119029667.641 7  22650587.672
 123384325.156 6  23479252.529
 107407244.073 8  20438917.604
 122825018.714 7  23372826.427
 107270763.110 8  20412946.360
 108213127.708 8  20592272.241
 127294377.418 6  24223313.665
 14  2 15  4 52  0.0000000  0 11G11G14G22G19G18G21G06G16G27G03G32
 131137883.181 5  24954708.719
 114561976.881 7  21800422.733
 108310269.745 8  20610756.908
 117081742.502 7  22279911.749
 119103339.662 7  22664608.337
 123438251.731 7  23489515.409
 107416600.463 8  20440697.757
 122901426.660 7  23387366.158
 107252361.552 8  20409444.752
 108182543.172 8  20586452.439
 127197734.628 6  24204923.104
 14  2 15  4 52 30.0000000  0 11G11G14G22G19G18G21G06G16G27G03G32
 131041857.206 5  24936436.032
 114495440.523 8  21787761.644
 108344142.923 8  20617202.490
 117004755.321 7  22265261.992
 119177098.896 7  22678643.880
 123492323.580 7  23499804.448
 107426471.594 8  20442576.286
 122978043.368 7  23401945.503
 107234493.189 9  20406044.348
 108152538.029 8  20580742.226
 127101298.651 6  24186570.738
 14  2 15  4 53  0.0000000  0 11G11G14G22G19G18G21G06G16G27G03G32
 130945810.288 5  24918155.873
 114429300.416 8  21775175.479
 108378326.048 8  20623707.456
 116928077.340 8  22250670.622
 119250955.148 7  22692698.766
 123546552.411 7  23510123.859
 107436868.913 8  20444554.831
 123054877.304 7  23416566.984
 107217170.290 9  20402748.047
 108123124.956 8  20575145.639
 127005081.663 6  24168262.699
 14  2 15  4 53 30.0000000  0 11G11G14G22G19G18G21G06G16G27G03G32
 130849734.862 5  24899874.276
 114363550.843 8  21762663.473
 108412809.620 8  20630269.582
 116851702.775 7  22236136.753
 119324897.981 7  22706769.323
 123600930.286 6  23520472.082
 107447783.817 8  20446631.869
 123131916.927 7  23431227.001
 107200385.837 9  20399553.718
 108094296.863 8  20569660.098
 126909076.765 6  24149994.113
 14  2 15  4 54  0.0000000  0 11G11G14G22G19G18G21G06G16G27G03G32
 130753634.528 5  24881586.649
 114298196.657 8  21750226.815
 108447593.843 8  20636888.721
 116775636.263 7  22221661.715
 119398928.295 7  22720857.310
 123655459.668 6  23530848.322
 107459219.209 8  20448808.099
 123209161.248 7  23445926.405
 107184143.338 9  20396463.278
 108066057.326 8  20564286.321
 126813287.594 6  24131766.273
 14  2 15  4 54 30.0000000  0 11G11G14G22G19G18G21G06G16G27G03G32
 130657515.289 6  24863296.703
 114233245.827 8  21737867.240
 108482682.525 8  20643565.952
 116699885.720 7  22207247.266
 119473050.022 7  22734961.401
 123710146.496 6  23541255.220
 107471180.040 8  20451084.197
 123286612.340 7  23460665.468
 107168449.120 8  20393477.075
 108038412.726 8  20559025.520
 126717720.553 6  24113580.122
 14  2 15  4 55  0.0000000  0 11G11G14G22G19G18G21G06G16G27G03G32
 130561374.071 6  24845002.629
 114168696.880 8  21725583.820
 108518070.095 8  20650300.217
 116624449.217 8  22192892.007
 119547257.752 7  22749083.065
 123764987.411 6  23551690.870
 107483662.424 8  20453459.467
 123364262.927 7  23475441.542
 107153300.432 8  20390594.170
 108011360.406 8  20553877.651
 126622372.996 6  24095435.515
 14  2 15  4 55 30.0000000  0 11G11G14G22G19G18G21G06G16G27G03G32
 130465207.102 6  24826702.915
 114104547.502 8  21713376.764
 108553750.104 8  20657089.912
 116549324.944 7  22178595.867
 119621545.243 7  22763219.011
 123819978.191 6  23562155.714
 107496662.129 8  20455933.393
 123442105.692 7  23490253.685
 107138693.679 9  20387814.801
 107984896.688 8  20548841.682
 126527241.530 6  24077332.449
 14  2 15  4 56  0.0000000  0 11G11G14G22G19G18G21G06G16G27G03G32
 130369022.847 6  24808400.444
 114040807.355 8  21701247.320
 108589728.014 8  20663936.146
 116474521.944 8  22164362.458
 119695918.277 7  22777372.436
 123875126.342 6  23572650.748
 107510185.985 8  20458506.834
 123520144.690 7  23505104.601
 107124637.201 9  20385139.801
 107959030.049 8  20543919.256
 126432334.622 6  24059272.070
 14  2 15  4 56 30.0000000  0 11G11G14G22G19G18G21G06G16G27G03G32
 130272815.370 6  24790090.899
 113977472.466 8  21689195.246
 108625995.635 8  20670837.727
 116400036.390 7  22150187.946
 119770368.397 7  22791540.054
 123930425.651 6  23583172.995
 107524227.447 8  20461178.534
 123598369.978 7  23519990.594
 107111125.380 8  20382568.616
 107933754.881 8  20539109.800
 126337646.764 6  24041252.776
 14  2 15  4 57  0.0000000  0 11G11G14G22G19G18G21G06G16G27G03G32
 130176589.205 6  24771779.684
 113914548.552 8  21677221.473
 108662554.777 8  20677794.481
 116325874.341 7  22136075.628
 119844898.016 7  22805721.976
 123985880.162 6  23593725.491
 107538789.769 8  20463949.959
 123676782.246 7  23534912.394
 107098162.885 9  20380101.874
 107909076.476 8  20534413.683
 126243182.999 6  24023277.781
 14  2 15  4 57 30.0000000  0 11G11G14G22G19G18G21G06G16G27G03G32
 130080347.497 5  24753465.732
 113852040.377 8  21665326.533
 108699406.223 8  20684807.330
 116252040.182 7  22122025.294
 119919508.122 7  22819920.833
 124041492.536 6  23604308.759
 107553875.428 8  20466820.429
 123755380.152 7  23549869.399
 107085752.955 8  20377740.357
 107884997.563 8  20529831.382
 126148946.563 6  24005344.724
 14  2 15  4 58  0.0000000  0 11G11G14G22G19G18G21G06G16G27G03G32
 129984096.404 5  24735149.577
 113789955.688 8  21653511.987
 108736553.132 8  20691875.979
 116178541.442 8  22108038.686
 119994202.156 7  22834134.185
 124097268.150 6  23614922.308
 107569489.757 8  20469791.779
 123834165.858 7  23564861.616
 107073901.682 9  20375485.258
 107861524.287 8  20525364.164
 126054943.838 6  23987457.040
 14  2 15  4 58 30.0000000  0 11G11G14G22G19G18G21G06G16G27G03G32
 129887829.700 5  24716831.029
 113728289.530 8  21641777.834
 108773986.593 8  20698999.436
 116105373.298 8  22094115.178
 120068971.606 7  22848362.694
 124153200.275 6  23625566.163
 107585624.668 8  20472862.277
 123913128.877 7  23579887.925
 107062602.841 9  20373335.133
 107838650.614 8  20521011.946
 125961168.745 6  23969612.598
 14  2 15  4 59  0.0000000  0 11G11G14G22G19G18G21G06G16G27G03G32
 129791544.542 6  24698509.742
 113667040.317 8  21630121.652
 108811700.998 8  20706176.187
 116032534.365 8  22080254.864
 120143811.427 7  22862604.388
 124209285.625 6  23636238.389
 107602276.778 8  20476031.288
 123992262.671 7  23594946.045
 107051853.651 9  20371289.754
 107816373.790 8  20516773.133
 125867618.787 6  23951811.014
 14  2 15  4 59 30.0000000  0 11G11G14G22G19G18G21G06G16G27G03G32
 129695245.243 6  24680184.898
 113606213.889 8  21618547.250
 108849698.285 8  20713407.204
 115960030.232 8  22066457.913
 120218722.629 7  22876859.546
 124265527.930 6  23646941.822
 107619449.355 8  20479298.996
 124071567.364 7  23610037.615
 107041658.365 9  20369349.525
 107794698.157 8  20512648.384
 125774298.407 6  23934052.899
 14  2 15  5  0  0.0000000  0 11G11G14G22G19G18G21G06G16G27G03G32
 129598932.612 6  24661857.650
 113545812.403 8  21607053.219
 108887976.400 8  20720691.076
 115887863.055 8  22052725.021
 120293703.668 7  22891127.502
 124321927.115 6  23657674.872
 107637141.412 8  20482665.957
 124151039.494 7  23625161.033
 107032017.437 8  20367515.010
 107773624.162 8  20508637.966
 125681208.428 6  23916338.912
 14  2 15  5  0 30.0000000  0 11G11G14G22G19G18G21G06G16G27G03G32
 129502609.826 6  24643527.951
 113485840.588 8  21595640.951
 108926535.961 8  20728029.036
 115816037.509 8  22039056.928
 120368755.979 7  22905410.149
 124378486.086 6  23668436.082
 107655355.343 8  20486131.961
 124230677.926 7  23640315.766
 107022934.248 9  20365786.566
 107753155.138 8  20504742.798
 125588352.313 6  23898668.935
 14  2 15  5  1  0.0000000  0 11G11G14G22G19G18G21G06G16G27G03G32
 129406281.995 6  24625197.452
 113426304.212 8  21584311.716
 108965379.140 8  20735420.396
 115744559.710 8  22025455.220
 120443881.753 7  22919705.522
 124435209.196 6  23679230.587
 107674094.758 8  20489698.393
 124310483.788 7  23655502.056
 107014413.437 8  20364165.345
 107733296.115 8  20500963.887
 125495735.077 6  23881044.597
 14  2 15  5  1 30.0000000  0 11G11G14G22G19G18G21G06G16G27G03G32
 129309940.018 6  24606863.579
 113367195.634 8  21573063.151
 109004494.016 8  20742863.882
 115673421.956 8  22011918.172
 120519069.218 7  22934013.704
 124492086.433 6  23690054.675
 107693349.500 9  20493362.068
 124390443.323 7  23670718.028
 107006445.779 9  20362649.463
 107714037.614 8  20497299.118
 125403347.832 6  23863464.112
 14  2 15  5  2  0.0000000  0 11G11G14G22G19G18G21G06G16G27G03G32
 129213594.990 6  24588530.030
 113308527.344 8  21561899.215
 109043889.183 8  20750360.348
 115602637.026 8  21998447.987
 120594327.622 7  22948334.606
 124549128.259 6  23700909.144
 107713129.327 8  20497126.031
 124470563.785 6  23685964.228
 106999042.280 9  20361240.396
 107695390.936 8  20493751.291
 125311201.847 6  23845929.690
 14  2 15  5  2 30.0000000  0 11G11G14G22G19G18G21G06G16G27G03G32
 129117243.005 6  24570194.374
 113250296.952 8  21550818.727
 109083558.062 8  20757909.028
 115532202.172 8  21985044.793
 120669650.864 7  22962668.603
 124606330.453 6  23711794.128
 107733428.850 8  20500988.705
 124550837.159 7  23701239.632
 106992198.758 9  20359938.123
 107677351.701 8  20490318.310
 125219293.307 6  23828439.491
 14  2 15  5  3  0.0000000  0 11G11G14G22G19G18G21G06G16G27G03G32
 129020887.681 6  24551860.546
 113192508.960 8  21539821.638
 109123501.101 8  20765509.747
 115462122.157 8  21971709.013
 120745039.116 7  22977014.632
 124663695.875 6  23722710.666
 107754250.734 8  20504951.181
 124631262.697 6  23716544.235
 106985918.475 9  20358742.930
 107659923.201 8  20487001.869
 125127625.732 6  23810995.650
 14  2 15  5  3 30.0000000  0 11G11G14G22G19G18G21G06G16G27G03G32
 128924516.956 6  24533520.201
 113135152.509 8  21528907.581
 109163703.813 8  20773160.560
 115392386.290 7  21958439.050
 120820478.527 7  22991370.114
 124721211.622 6  23733655.996
 107775581.265 8  20509010.268
 124711824.449 7  23731875.231
 106980189.166 9  20357652.503
 107643093.079 8  20483798.594
 125036187.261 6  23793596.589
 14  2 15  5  4  0.0000000  0 11G11G14G22G19G18G21G06G16G27G03G32
 128828151.335 6  24515182.978
 113078249.285 8  21518079.219
 109204184.043 8  20780863.377
 115323016.280 8  21945238.676
 120895986.950 7  23005738.964
 124778897.452 6  23744633.160
 107797439.587 8  20513169.840
 124792538.880 6  23747234.969
 106975031.000 9  20356671.103
 107626881.715 8  20480714.090
 124944998.425 6  23776243.140
 14  2 15  5  4 30.0000000  0 11G11G14G22G19G18G21G06G16G27G03G32
 128731778.966 6  24496842.662
 113021788.532 8  21507334.853
 109244927.020 8  20788616.905
 115254001.619 8  21932105.388
 120971550.347 7  23020118.199
 124836740.788 6  23755640.852
 107819812.330 8  20517427.293
 124873389.504 6  23762619.120
 106970431.732 9  20355795.973
 107611276.766 8  20477744.793
 124854047.351 6  23758935.568
 14  2 15  5  5  0.0000000  0 11G11G14G22G19G18G21G06G16G27G03G32
 128635413.351 6  24478506.178
 112965784.868 8  21496677.739
 109285943.136 8  20796422.153
 115185356.621 8  21919042.631
 121047179.382 7  23034510.586
 124894754.021 6  23766680.018
 107842711.329 8  20521784.864
 124954385.548 6  23778033.112
 106966404.257 9  20355029.622
 107596291.385 8  20474892.811
 124763347.296 6  23741676.226
 14  2 15  5  5 30.0000000  0 11G11G14G22G19G18G21G06G16G27G03G32
 128539039.362 6  24460167.488
 112910224.156 8  21486104.790
 109327214.769 8  20804275.618
 115117067.865 8  21906047.915
 121122856.273 7  23048910.878
 124952921.861 6  23777749.394
 107866120.085 8  20526239.295
 125035507.522 7  23793469.950
 106962933.053 9  20354369.108
 107581909.692 8  20472156.011
 124672883.223 6  23724461.545
 14  2 15  5  6  0.0000000  0 11G11G14G22G19G18G21G06G16G27G03G32
 128442670.902 6  24441827.671
 112855121.669 8  21475619.093
 109368753.082 8  20812180.011
 115049150.356 8  21893123.210
 121198593.171 7  23063323.452
 125011257.499 6  23788851.024
 107890050.991 8  20530792.972
 125116765.302 6  23808932.591
 106960031.760 9  20353817.118
 107568145.084 8  20469536.642
 124582669.049 6  23707293.046
 14  2 15  5  6 30.0000000  0 11G11G14G22G19G18G21G06G16G27G03G32
 128346307.351 6  24423490.821
 112800477.696 8  21465220.415
 109410554.718 8  20820134.909
 114981604.800 8  21880270.151
 121274386.744 7  23077747.090
 125069759.310 6  23799983.545
 107914501.866 8  20535446.197
 125198153.908 6  23824420.832
 106957699.273 8  20353373.225
 107554997.120 8  20467034.932
 124492704.133 6  23690173.776
 14  2 15  5  7  0.0000000  0 11G11G14G22G19G18G21G06G16G27G03G32
 128249942.457 6  24405153.904
 112746286.978 8  21454909.010
 109452610.342 8  20828137.744
 114914425.972 8  21867486.196
 121350228.071 7  23092178.394
 125128420.334 6  23811146.158
 107939465.025 8  20540196.421
 125279663.421 6  23839932.043
 106955928.703 8  20353036.094
 107542458.920 8  20464648.782
 124402982.001 6  23673100.709
 14  2 15  5  7 30.0000000  0 11G11G14G22G19G18G21G06G16G27G03G32
 128153582.980 6  24386816.779
 112692557.303 8  21444684.291
 109494924.106 8  20836189.585
 114847621.951 8  21854773.993
 121426121.621 7  23106620.869
 125187246.526 6  23822339.883
 107964945.572 8  20545045.496
 125361295.795 7  23855466.296
 106954726.303 9  20352807.423
 107530536.445 8  20462380.279
 124313509.487 6  23656075.669
 14  2 15  5  8  0.0000000  0 11G11G14G22G19G18G21G06G16G27G03G32
 128057224.589 6  24368479.909
 112639285.203 8  21434546.869
 109537488.635 8  20844289.406
 114781189.109 8  21842131.871
 121502060.524 7  23121071.529
 125246232.425 6  23833563.531
 107990937.179 8  20549991.180
 125443042.341 6  23871021.948
 106954086.784 8  20352685.579
 107519224.402 8  20460227.943
 124224281.624 7  23639096.348
 14  2 15  5  8 30.0000000  0 11G11G14G22G19G18G21G06G16G27G03G32
 127960878.003 6  24350146.246
 112586482.226 8  21424498.503
 109580311.922 8  20852438.554
 114715139.708 8  21829563.331
 121578053.135 7  23135532.801
 125305388.159 6  23844820.717
 108017449.232 8  20555036.535
 125524909.902 6  23886600.937
 106954020.702 9  20352673.303
 107508533.186 8  20458193.173
 124135309.545 6  23622165.640
 14  2 15  5  9  0.0000000  0 11G11G14G22G19G18G21G06G16G27G03G32
 127864536.737 6  24331813.900
 112534142.639 8  21414538.582
 109623384.622 8  20860635.053
 114649468.179 8  21817066.442
 121654090.291 7  23150002.332
 125364706.460 6  23856111.134
 108044473.310 8  20560179.020
 125606887.311 6  23902200.971
 106954520.662 9  20352768.706
 107498455.545 8  20456275.136
 124046586.404 6  23605281.790
 14  2 15  5  9 30.0000000  0 11G11G14G22G19G18G21G06G16G27G03G32
 127768208.943 6  24313482.896
 112482275.787 8  21404669.156
 109666711.937 8  20868879.987
 114584183.851 8  21804643.109
 121730178.065 7  23164481.344
 125424194.458 6  23867429.387
 108072015.888 8  20565420.183
 125688978.590 7  23917822.651
 106955594.190 9  20352972.579
 107488999.165 8  20454476.123
 123958120.011 6  23588447.068
 14  2 15  5 10  0.0000000  0 11G11G14G22G19G18G21G06G16G27G03G32
 127671891.350 6  24295152.843
 112430879.337 8  21394888.498
 109710287.750 8  20877172.336
 114519284.339 8  21792293.031
 121806310.770 7  23178968.931
 125483848.340 6  23878782.995
 108100072.048 8  20570759.062
 125771176.066 6  23933463.623
 106957237.353 9  20353285.437
 107480160.070 8  20452794.646
 123869907.167 6  23571659.966
 14  2 15  5 10 30.0000000  0 11G11G14G22G19G18G21G06G16G27G03G32
 127575586.587 5  24276827.593
 112379956.614 8  21385198.156
 109754111.991 8  20885511.872
 114454774.096 8  21780017.158
 121882488.113 7  23193464.869
 125543669.609 6  23890166.309
 108128642.591 8  20576196.217
 125853478.418 6  23949125.494
 106959452.028 8  20353706.663
 107471940.100 8  20451229.998
 123781950.286 6  23554922.079
 14  2 15  5 11  0.0000000  0 11G11G14G22G19G18G21G06G16G27G03G32
 127479298.183 6  24258505.248
 112329511.783 8  21375598.865
 109798185.098 8  20893898.438
 114390657.346 8  21767815.921
 121958711.279 7  23207969.442
 125603661.079 6  23901581.874
 108157729.122 8  20581731.161
 125935884.457 6  23964807.016
 106962240.935 9  20354237.653
 107464341.851 8  20449784.095
 123694252.574 7  23538234.007
 14  2 15  5 11 30.0000000  0 11G11G14G22G19G18G21G06G16G27G03G32
 127383018.820 6  24240183.443
 112279538.280 8  21366089.118
 109842496.680 8  20902330.782
 114326927.540 8  21755688.729
 122034970.389 7  23222481.319
 125663814.084 6  23913028.571
 108187322.260 8  20587362.446
 126018382.524 6  23980505.473
 106965595.647 9  20354876.301
 107457356.562 8  20448454.930
 123606806.193 6  23521593.184
 14  2 15  5 12  0.0000000  0 11G11G14G22G19G18G21G06G16G27G03G32
 127286759.170 6  24221867.090
 112230047.678 8  21356671.535
 109887055.006 8  20910810.149
 114263596.465 8  21743637.486
 122111273.885 7  23237001.578
 125724138.564 6  23924508.630
 108217431.001 8  20593091.989
 126100979.156 6  23996222.978
 106969526.194 9  20355624.326
 107450994.431 8  20447244.546
 123519621.623 6  23505002.018
 14  2 15  5 12 30.0000000  0 11G11G14G22G19G18G21G06G16G27G03G32
 127190513.536 6  24203550.850
 112181035.450 8  21347344.706
 109931851.846 8  20919334.608
 114200659.930 8  21731661.249
 122187614.002 7  23251528.436
 125784628.466 6  23936019.437
 108248048.108 8  20598918.108
 126183664.871 6  24011958.098
 106974026.489 8  20356480.615
 107445249.706 8  20446151.377
 123432693.578 6  23488461.531
 14  2 15  5 13  0.0000000  0 11G11G14G22G19G18G21G06G16G27G03G32
 127094280.429 6  24185238.569
 112132500.179 8  21338108.929
 109976882.090 8  20927903.731
 114138116.738 8  21719759.902
 122263986.291 7  23266061.857
 125845280.846 6  23947560.858
 108279169.578 9  20604840.414
 126266432.978 6  24027708.042
 106979093.467 9  20357444.730
 107440119.041 8  20445175.009
 123346019.543 7  23471968.565
 14  2 15  5 13 30.0000000  0 11G11G14G22G19G18G21G06G16G27G03G32
 126998067.855 6  24166930.362
 112084450.486 8  21328964.989
 110022150.642 8  20936517.832
 114075975.982 8  21707935.008
 122340396.231 7  23280602.438
 125906102.648 6  23959135.610
 108310801.543 8  20610859.868
 126349287.490 6  24043475.584
 106984734.245 9  20358517.882
 107435609.632 8  20444316.768
 123259607.316 7  23455525.900
 14  2 15  5 14  0.0000000  0 11G11G14G22G19G18G21G06G16G27G03G32
 126901878.338 6  24148626.694
 112036889.847 8  21319915.129
 110067657.844 8  20945177.941
 114014241.384 8  21696186.943
 122416843.937 6  23295149.572
 125967096.089 6  23970741.605
 108342944.840 8  20616976.443
 126432226.552 6  24059258.779
 106990950.678 9  20359700.906
 107431723.443 8  20443577.434
 123173459.114 7  23439131.250
 14  2 15  5 14 30.0000000  0 11G11G14G22G19G18G21G06G16G27G03G32
 126805715.356 6  24130327.238
 111989822.256 8  21310958.295
 110113403.657 8  20953883.070
 113952917.661 8  21684517.652
 122493330.616 6  23309705.248
 126028262.696 6  23982382.312
 108375600.475 8  20623190.729
 126515249.142 6  24075056.855
 106997744.927 8  20360993.843
 107428462.300 8  20442956.836
 123087578.064 7  23422788.895
 14  2 15  5 15  0.0000000  0 11G11G14G22G19G18G21G06G16G27G03G32
 126709574.158 6  24112032.476
 111943243.479 8  21302094.310
 110159380.494 8  20962631.895
 113892000.644 8  21672925.146
 122569848.764 7  23324265.728
 126089596.792 6  23994052.535
 108408761.717 8  20629501.240
 126598346.268 6  24090869.759
 107005111.158 8  20362395.551
 107425820.212 8  20442453.368
 123001958.888 7  23406495.478
 14  2 15  5 15 30.0000000  0 11G11G14G22G19G18G21G06G16G27G03G32
 126613459.039 6  24093741.775
 111897158.604 8  21293324.941
 110205589.902 8  20971425.407
 113831495.737 8  21661411.457
 122646400.293 7  23338832.406
 126151102.160 6  24005758.039
 108442430.940 8  20635907.979
 126681517.977 6  24106696.140
 107013052.804 9  20363906.775
 107423800.590 8  20442069.150
 122916605.708 7  23390253.141
 14  2 15  5 16  0.0000000  0 11G11G14G22G19G18G21G06G16G27G03G32
 126517366.409 6  24075455.940
 111851564.181 8  21284648.335
 110252025.341 8  20980261.689
 113771399.983 8  21649975.211
 122722979.343 7  23353405.699
 126212773.880 6  24017493.988
 108476602.289 8  20642411.068
 126764756.098 6  24122536.964
 107021565.038 9  20365526.796
 107422398.767 8  20441802.446
 122831514.392 7  23374061.419
 14  2 15  5 16 30.0000000  0 11G11G14G22G19G18G21G06G16G27G03G32
 126421303.919 6  24057176.252
 111806468.804 8  21276067.136
 110298691.517 8  20989142.356
 113711722.257 8  21638619.385
 122799591.005 7  23367984.929
 126274619.065 6  24029262.403
 108511281.764 9  20649010.391
 126848064.108 6  24138389.593
 107030654.710 8  20367256.529
 107421621.231 8  20441654.528
 122746692.562 7  23357919.812
 14  2 15  5 17  0.0000000  0 11G11G14G22G19G18G21G06G16G27G03G32
 126325268.146 6  24038900.954
 111761868.949 8  21267580.037
 110345581.698 8  20998065.109
 113652459.701 8  21627342.416
 122876229.064 7  23382568.786
 126336632.609 6  24041063.629
 108546462.920 8  20655704.909
 126931434.386 6  24154255.065
 107040316.609 9  20369095.098
 107421462.845 8  20441624.454
 122662135.562 6  23341829.373
 14  2 15  5 17 30.0000000  0 11G11G14G22G19G18G21G06G16G27G03G32
 126229265.438 5  24020630.442
 111717771.784 8  21259188.710
 110392699.795 8  21007031.284
 113593619.581 8  21616145.509
 122952898.044 7  23397158.505
 126398819.992 6  24052897.321
 108582150.500 8  20662496.296
 127014868.776 6  24170131.965
 107050556.211 9  20371043.723
 107421929.288 8  20441713.591
 122577849.855 7  23325790.371
 14  2 15  5 18  0.0000000  0 11G11G14G22G19G18G21G06G16G27G03G32
 126133290.225 6  24002368.531
 111674172.253 8  21250892.149
 110440037.257 8  21016039.451
 113535197.415 8  21605028.272
 123029589.530 7  23411752.522
 126461174.795 6  24064762.166
 108618336.599 8  20669382.253
 127098357.129 6  24186018.801
 107061366.809 9  20373101.065
 107423013.547 8  20441920.086
 122493829.276 7  23309802.434
 14  2 15  5 18 30.0000000  0 11G11G14G22G19G18G21G06G16G27G03G32
 126037354.642 6  23984111.801
 111631082.786 8  21242692.449
 110487602.965 8  21025090.824
 113477205.943 8  21593993.046
 123106312.981 7  23426352.246
 126523707.728 6  24076662.899
 108655031.020 8  20676365.046
 127181907.232 6  24201917.201
 107072759.068 8  20375268.748
 107424726.287 8  20442245.645
 122410085.340 7  23293866.296
 14  2 15  5 19  0.0000000  0 11G11G14G22G19G18G21G06G16G27G03G32
 125941449.771 6  23965862.559
 111588494.817 8  21234587.769
 110535385.042 8  21034183.434
 113419637.050 8  21583037.503
 123183057.488 7  23440956.292
 126586409.317 6  24088593.730
 108692222.564 8  20683442.207
 127265505.990 6  24217826.697
 107084722.857 8  20377545.498
 107427057.149 8  20442689.254
 122326608.708 7  23277980.472
 14  2 15  5 19 30.0000000  0 11G11G14G22G19G18G21G06G16G27G03G32
 125845574.907 6  23947618.041
 111546407.854 8  21226579.125
 110583379.984 8  21043317.022
 113362490.978 8  21572162.813
 123259819.471 7  23455563.872
 126649277.185 6  24100557.516
 108729908.030 8  20690613.814
 127349148.165 6  24233742.889
 107097256.015 9  20379930.417
 107430004.316 8  20443250.358
 122243397.988 6  23262145.961
 14  2 15  5 20  0.0000000  0 11G11G14G22G19G18G21G06G16G27G03G32
 125749740.432 6  23929382.440
 111504832.517 8  21218667.760
 110631594.774 8  21052491.960
 113305778.770 7  21561370.760
 123336606.670 7  23470175.954
 126712320.225 6  24112555.640
 108768095.690 8  20697880.555
 127432839.477 6  24249669.164
 107110367.466 9  20382425.800
 107433576.487 8  20443930.477
 122160462.892 7  23246363.404
 14  2 15  5 20 30.0000000  0 11G11G14G22G19G18G21G06G16G27G03G32
 125653938.880 6  23911151.621
 111463761.675 8  21210852.136
 110680019.243 8  21061706.709
 113249493.570 8  21550660.487
 123413409.697 7  23484791.657
 126775530.198 6  24124584.433
 108806775.565 9  20705241.147
 127516568.188 6  24265602.514
 107124048.388 9  20385029.233
 107437764.390 8  20444727.132
 122077795.504 7  23230633.425
 14  2 15  5 21  0.0000000  0 11G11G14G22G19G18G21G06G16G27G03G32
 125558182.767 6  23892930.324
 111423208.000 8  21203135.079
 110728662.999 8  21070963.158
 113193648.654 7  21540033.459
 123490238.291 7  23499411.861
 126838918.667 6  24136645.627
 108845957.728 8  20712696.981
 127600342.453 6  24281544.797
 107138309.965 9  20387742.710
 107442579.109 8  20445643.528
 121995407.837 7  23214955.660
 14  2 15  5 21 30.0000000  0 11G11G14G22G19G18G21G06G16G27G03G32
 125462470.881 6  23874716.578
 111383170.573 8  21195516.297
 110777521.841 8  21080260.923
 113138243.592 8  21529490.314
 123567088.571 7  23514035.569
 126902482.854 6  24148741.117
 108885638.590 8  20720248.378
 127684156.800 6  24297494.328
 107153149.408 9  20390566.966
 107448017.935 8  20446678.238
 121913297.875 6  23199331.320
 14  2 15  5 22  0.0000000  0 11G11G14G22G19G18G21G06G16G27G03G32
 125366796.958 6  23856510.699
 111343643.385 8  21187994.262
 110826586.622 8  21089597.905
 113083272.909 8  21519029.690
 123643952.143 7  23528662.130
 126966215.758 6  24160869.136
 108925809.479 8  20727892.683
 127768000.581 6  24313448.263
 107168559.005 8  20393499.039
 107454073.318 8  20447830.868
 121831458.898 7  23183757.194
 14  2 15  5 22 30.0000000  0 11G11G14G22G19G18G21G06G16G27G03G32
 125271172.212 6  23838313.772
 111304637.821 8  21180571.621
 110875865.234 8  21098975.183
 113028748.551 8  21508653.917
 123720837.896 6  23543293.125
 127030126.827 6  24173032.726
 108966479.278 8  20735632.050
 127851880.347 6  24329411.113
 107184548.488 9  20396541.918
 107460754.794 8  20449102.248
 121749901.405 7  23168237.333
 14  2 15  5 23  0.0000000  0 11G11G14G22G19G18G21G06G16G27G03G32
 125175589.752 6  23820124.660
 111266147.155 8  21173247.362
 110925347.880 8  21108391.391
 112974664.062 8  21498362.274
 123797736.137 7  23557926.598
 127094208.261 6  24185225.877
 109007638.275 9  20743464.336
 127935784.783 6  24345377.241
 107201109.181 8  20399693.447
 107468053.597 8  20450491.231
 121668617.696 6  23152769.677
 14  2 15  5 23 30.0000000  0 11G11G14G22G19G18G21G06G16G27G03G32
 125080051.588 6  23801945.651
 111228173.136 8  21166021.162
 110975033.184 8  21117845.986
 112921021.997 8  21488154.569
 123874646.347 6  23572561.835
 127158460.899 6  24197454.409
 109049285.643 8  20751389.676
 128019711.748 6  24361348.028
 107218241.426 9  20402953.534
 107475969.960 8  20451997.519
 121587608.995 7  23137354.079
 14  2 15  5 24  0.0000000  0 11G11G14G22G19G18G21G06G16G27G03G32
 124984563.764 6  23783773.289
 111190722.346 8  21158894.640
 111024924.960 8  21127340.359
 112867829.443 8  21478032.096
 123951572.212 6  23587199.582
 127222889.617 6  24209713.582
 109091425.654 8  20759408.447
 128103662.860 6  24377323.061
 107235950.075 9  20406323.761
 107484508.348 8  20453622.110
 121506881.194 7  23121992.356
 14  2 15  5 24 30.0000000  0 11G11G14G22G19G18G21G06G16G27G03G32
 124889128.022 6  23765613.375
 111153795.997 8  21151867.780
 111075021.006 8  21136873.515
 112815088.123 8  21467996.182
 124028512.786 6  23601841.928
 127287494.137 6  24222008.147
 109134056.544 8  20767521.041
 128187634.689 6  24393302.772
 107254234.538 9  20409803.240
 107493668.284 8  20455365.819
 121426434.470 7  23106683.529
 14  2 15  5 25  0.0000000  0 11G11G14G22G19G18G21G06G16G27G03G32
 124793742.431 6  23747462.057
 111117392.545 8  21144940.503
 111125317.136 8  21146444.555
 112762797.188 8  21458045.402
 124105464.344 7  23616485.716
 127352271.777 6  24234334.640
 109177174.529 8  20775726.126
 128271621.483 6  24409285.721
 107273091.748 9  20413391.513
 107503446.809 8  20457226.443
 121346266.787 6  23091427.849
 14  2 15  5 25 30.0000000  0 11G11G14G22G19G18G21G06G16G27G03G32
 124698405.865 6  23729320.346
 111081510.923 8  21138112.153
 111175808.766 8  21156052.705
 112710955.790 8  21448180.167
 124182422.457 7  23631130.374
 127417220.182 6  24246694.105
 109220775.515 8  20784023.028
 128355617.836 6  24425269.264
 107292518.578 9  20417088.117
 107513840.303 9  20459203.862
 121266375.945 7  23076225.919
 14  2 15  5 26  0.0000000  0 11G11G14G22G19G18G21G06G16G27G03G32
 124603126.795 6  23711188.208
 111046159.684 8  21131385.188
 111226501.565 8  21165698.757
 112659573.398 8  21438402.430
 124259393.577 6  23645776.507
 127482346.580 6  24259087.496
 109264865.413 8  20792413.086
 128439627.731 6  24441257.011
 107312521.929 9  20420894.434
 107524855.799 9  20461299.876
 121186769.882 7  23061077.270
 14  2 15  5 26 30.0000000  0 11G11G14G22G19G18G21G06G16G27G03G32
 124507906.891 6  23693069.953
 111011339.761 8  21124759.092
 111277393.849 8  21175383.885
 112608651.518 8  21428712.569
 124336376.897 6  23660426.495
 127547650.849 6  24271514.887
 109309442.911 8  20800896.050
 128523647.894 6  24457244.096
 107333101.235 8  20424810.523
 107536492.430 8  20463514.342
 121107449.019 7  23045982.668
 14  2 15  5 27  0.0000000  0 11G11G14G22G19G18G21G06G16G27G03G32
 124412739.842 6  23674959.713
 110977044.872 8  21118232.909
 111328476.308 8  21185104.419
 112558184.672 8  21419108.865
 124413363.311 7  23675076.440
 127613125.517 6  24283975.015
 109354498.939 8  20809469.745
 128607667.850 6  24473233.753
 107354248.490 9  20428835.318
 107548741.963 8  20465845.613
 121028406.411 7  23030940.822
 14  2 15  5 27 30.0000000  0 11G11G14G22G19G18G21G06G16G27G03G32
 124317630.749 6  23656860.748
 110943280.276 8  21111807.896
 111379751.191 8  21194861.819
 112508178.454 8  21409593.490
 124490355.757 6  23689728.330
 127678774.483 6  24296466.527
 109400036.106 8  20818135.226
 128691688.222 6  24489221.745
 107375967.173 8  20432968.207
 107561608.137 8  20468293.905
 120949646.489 7  23015954.313
 14  2 15  5 28  0.0000000  0 11G11G14G22G19G18G21G06G16G27G03G32
 124222585.276 6  23638774.854
 110910051.047 8  21105484.771
 111431220.886 8  21204655.792
 112458638.814 8  21400166.083
 124567357.125 6  23704381.447
 127744601.684 6  24308993.320
 109446057.048 8  20826892.883
 128775709.993 6  24505210.787
 107398260.529 9  20437210.301
 107575094.090 8  20470860.102
 120871173.552 7  23001020.740
 14  2 15  5 28 30.0000000  0 11G11G14G22G19G18G21G06G16G27G03G32
 124127601.675 6  23620699.423
 110877355.588 8  21099263.201
 111482880.797 8  21214486.481
 112409564.619 8  21390827.263
 124644363.225 6  23719034.937
 127810604.122 5  24321554.150
 109492557.278 8  20835741.740
 128859727.262 6  24521198.965
 107421125.248 9  20441561.538
 107589196.033 8  20473543.958
 120792985.392 7  22986142.580
 14  2 15  5 29  0.0000000  0 11G11G14G22G19G18G21G06G16G27G03G32
 124032680.706 6  23602636.167
 110845194.338 8  21093142.780
 111534728.098 8  21224352.997
 112360956.821 8  21381577.954
 124721372.326 6  23733688.786
 127876781.098 5  24334146.399
 109539534.422 8  20844681.008
 128943736.299 6  24537184.690
 107444559.897 8  20446020.795
 107603912.788 8  20476344.826
 120715081.563 7  22971317.611
 14  2 15  5 29 30.0000000  0 11G11G14G22G19G18G21G06G16G27G03G32
 123937825.448 6  23584585.442
 110813569.975 8  21087124.371
 111586763.565 8  21234255.048
 112312819.026 8  21372417.296
 124798385.284 6  23748344.278
 127943134.213 5  24346771.177
 109586989.202 8  20853711.339
 129027735.839 6  24553168.928
 107468565.814 9  20450588.783
 107619245.357 8  20479262.287
 120637464.497 7  22956548.146
 14  2 15  5 30  0.0000000  0 11G11G14G22G19G18G21G06G16G27G03G32
 123843036.523 6  23566548.561
 110782482.903 8  21081208.813
 111638984.353 8  21244192.195
 112265152.089 8  21363346.602
 124875400.090 6  23763000.351
 128009663.100 6  24359434.021
 109634919.008 8  20862832.298
 129111721.702 6  24569152.543
 107493141.403 8  20455265.556
 107635191.819 8  20482296.775
 120560133.736 7  22941831.756
 14  2 15  5 30 30.0000000  0 11G11G14G22G19G18G21G06G16G27G03G32
 123748320.026 6  23548522.941
 110751938.875 8  21075396.782
 111691393.479 8  21254165.386
 112217962.794 8  21354367.120
 124952420.279 6  23777656.930
 128076371.964 6  24372129.797
 109683327.178 8  20872044.002
 129195695.601 6  24585131.663
 107518290.709 9  20460051.528
 107651756.265 8  20485448.945
 120483094.494 7  22927171.402
 14  2 15  5 31  0.0000000  0 11G11G14G22G19G18G21G06G16G27G03G32
 123653667.080 6  23530512.339
 110721928.582 8  21069685.927
 111743979.148 8  21264172.188
 112171242.386 8  21345476.497
 125029434.736 6  23792312.595
 128143250.835 6  24384856.261
 109732201.884 8  20881344.530
 129279644.363 6  24601107.356
 107544002.762 9  20464944.553
 107668927.592 8  20488716.546
 120406336.909 7  22912564.438
 14  2 15  5 31 30.0000000  0 11G11G14G22G19G18G21G06G16G27G03G32
 123559085.408 6  23512514.435
 110692459.381 8  21064078.150
 111796745.886 8  21274213.218
 112124998.965 8  21336676.816
 125106448.311 7  23806968.414
 128210305.761 6  24397614.716
 109781547.611 8  20890734.652
 129363571.212 6  24617077.871
 107570283.070 9  20469945.521
 107686711.073 9  20492100.732
 120329867.626 7  22898013.048
 14  2 15  5 32  0.0000000  0 11G11G14G22G19G18G21G06G16G27G03G32
 123464580.199 6  23494530.299
 110663535.859 8  21058574.191
 111849695.598 8  21284289.375
 112079237.726 8  21327968.598
 125183463.755 6  23821622.957
 128277540.003 6  24410408.485
 109831366.688 8  20900215.046
 129447476.544 6  24633044.018
 107597134.633 8  20475055.284
 107705109.731 8  20495602.025
 120253690.734 7  22883518.045
 14  2 15  5 32 30.0000000  0 11G11G14G22G19G18G21G06G16G27G03G32
 123370148.271 6  23476561.843
 110635154.554 8  21053173.417
 111902822.193 8  21294399.027
 112033955.948 8  21319351.734
 125260475.738 6  23836277.479
 128344949.098 6  24423237.556
 109881652.986 8  20909784.257
 129531352.730 6  24649006.216
 107624552.173 9  20480272.419
 107724118.227 8  20499218.848
 120177802.147 7  22869077.273
 14  2 15  5 33  0.0000000  0 11G11G14G22G19G18G21G06G16G27G03G32
 123275793.449 6  23458606.116
 110607318.554 8  21047876.705
 111956126.295 8  21304542.473
 111989157.481 8  21310826.533
 125337485.391 7  23850932.330
 128412535.407 6  24436098.679
 109932406.905 8  20919442.268
 129615199.414 6  24664961.478
 107652537.048 9  20485597.809
 107743737.455 8  20502952.411
 120102204.463 7  22854691.466
 14  2 15  5 33 30.0000000  0 11G11G14G22G19G18G21G06G16G27G03G32
 123181512.465 6  23440665.505
 110580024.475 8  21042682.467
 112009601.578 8  21314718.208
 111944839.420 8  21302393.104
 125414486.891 7  23865586.348
 128480294.059 6  24448994.181
 109983622.530 8  20929188.368
 129699008.822 6  24680909.602
 107681083.900 8  20491029.974
 107763962.060 8  20506800.971
 120026893.477 7  22840359.719
 14  2 15  5 34  0.0000000  0 11G11G14G22G19G18G21G06G16G27G03G32
 123087316.300 6  23422740.705
 110553282.565 8  21037593.725
 112063255.925 8  21324928.638
 111901012.810 8  21294053.269
 125491489.051 6  23880239.071
 128548234.569 6  24461921.258
 110035307.490 8  20939023.865
 129782787.122 6  24696852.719
 107710201.317 9  20496571.055
 107784800.542 8  20510767.065
 119951879.081 7  22826085.108
 14  2 15  5 34 30.0000000  0 11G11G14G22G19G18G21G06G16G27G03G32
 122993204.472 7  23404832.485
 110527091.826 8  21032609.781
 112117086.060 8  21335171.973
 111857677.569 8  21285807.184
 125568488.475 7  23894891.601
 128616355.672 6  24474884.627
 110087458.460 8  20948948.168
 129866529.738 6  24712788.604
 107739886.724 8  20502220.029
 107806249.979 8  20514848.521
 119877159.818 7  22811865.971
 14  2 15  5 35  0.0000000  0 11G11G14G22G19G18G21G06G16G27G03G32
 122899168.240 7  23386937.126
 110501442.864 8  21027729.112
 112171080.034 8  21345446.749
 111814825.214 8  21277652.770
 125645474.308 6  23909541.343
 128684645.656 6  24487880.409
 110140063.172 8  20958958.157
 129950223.238 6  24728714.823
 107770128.778 8  20507974.854
 107828299.158 8  20519044.073
 119802725.658 7  22797702.066
 14  2 15  5 35 30.0000000  0 11G11G14G22G19G18G21G06G16G27G03G32
 122805217.606 6  23369058.886
 110476344.870 8  21022952.968
 112225244.454 8  21355754.098
 111772465.699 8  21269591.806
 125722453.754 7  23924190.274
 128753113.257 6  24500910.764
 110193128.666 8  20969056.308
 130033873.069 6  24744632.992
 107800935.100 8  20513837.329
 107850955.385 8  20523355.546
 119728585.421 7  22783594.783
 14  2 15  5 36  0.0000000  0 11G11G14G22G19G18G21G06G16G27G03G32
 122711350.164 7  23351196.602
 110451794.594 8  21018281.268
 112279573.652 8  21366092.862
 111730596.571 8  21261624.314
 125799421.969 6  23938836.899
 128821754.590 6  24513971.192
 110246649.060 8  20979241.081
 130117472.381 6  24760541.588
 107832300.659 9  20519805.956
 107874213.401 9  20527781.354
 119654735.303 7  22769539.704
 14  2 15  5 36 30.0000000  0 11G11G14G22G19G18G21G06G16G27G03G32
 122617577.652 6  23333350.604
 110427803.311 8  21013715.904
 112334076.749 8  21376464.508
 111689229.728 8  21253752.744
 125876388.459 6  23953483.008
 128890579.743 6  24527069.598
 110300633.190 8  20989513.935
 130201028.669 6  24776441.269
 107864235.030 8  20525882.732
 107898082.659 8  20532323.451
 119581186.180 7  22755544.163
 14  2 15  5 37  0.0000000  0 11G11G14G22G19G18G21G06G16G27G03G32
 122523887.565 6  23315522.841
 110404357.659 8  21009254.352
 112388737.738 8  21386865.966
 111648352.735 8  21245973.757
 125953338.098 6  23968126.147
 128959574.776 6  24540197.392
 110355065.136 8  20999871.956
 130284524.808 6  24792330.228
 107896723.124 8  20532065.069
 107922547.706 8  20536979.297
 119507924.366 7  22741603.182
 14  2 15  5 37 30.0000000  0 11G11G14G22G19G18G21G06G16G27G03G32
 122430292.000 6  23297713.036
 110381469.197 8  21004898.694
 112443565.769 8  21397299.438
 111607977.705 8  21238290.546
 126030280.259 6  23982768.264
 129028750.103 5  24553361.487
 110409953.613 8  21010316.882
 130367968.155 6  24808208.024
 107929774.389 8  20538354.783
 107947618.078 8  20541749.821
 119434960.531 7  22727718.633
 14  2 15  5 38  0.0000000  0 11G11G14G22G19G18G21G06G16G27G03G32
 122336790.554 7  23279920.206
 110359135.848 8  21000649.013
 112498557.009 8  21407764.181
 111568103.975 8  21230703.019
 126107212.250 6  23997409.092
 129098103.241 6  24566558.640
 110465294.819 8  21020848.009
 130451353.880 6  24824075.947
 107963385.750 8  20544750.976
 107973290.589 8  20546635.312
 119362292.887 7  22713890.396
 14  2 15  5 38 30.0000000  0 11G11G14G22G19G18G21G06G16G27G03G32
 122243382.666 7  23262145.509
 110337356.974 8  20996504.766
 112553708.002 8  21418258.712
 111528731.106 8  21223211.108
 126184130.782 6  24012045.907
 129167632.116 6  24579790.882
 110521084.940 8  21031464.441
 130534676.841 6  24839933.216
 107997554.068 8  20551252.770
 107999561.593 8  20551634.460
 119289919.675 7  22700118.491
 14  2 15  5 39  0.0000000  0 11G11G14G22G19G18G21G06G16G27G03G32
 122150070.491 7  23244389.338
 110316133.772 8  20992465.981
 112609018.148 8  21428784.479
 111489861.135 8  21215814.039
 126261035.946 6  24026678.998
 129237337.232 6  24593055.842
 110577322.779 8  21042166.347
 130617935.181 6  24855776.687
 108032279.101 9  20557860.635
 108026431.053 8  20556747.714
 119217841.976 7  22686402.489
 14  2 15  5 39 30.0000000  0 12G11G14G01G22G19G18G21G06G16G27G03G32
 122056857.448 7  23226651.402
 110295468.776 8  20988533.726
 132229736.943 5  25162484.703
 112664487.233 8  21439339.558
 111451497.632 8  21208513.736
 126337928.331 6  24041313.089
 129307219.888 5  24606355.525
 110634008.388 8  21052953.094
 130701127.216 6  24871607.422
 108067561.434 8  20564574.964
 108053899.200 8  20561974.857
 119146061.797 7  22672742.936
 14  2 15  5 40  0.0000000  0 12G11G14G01G22G19G18G21G06G16G27G03G32
 121963751.697 7  23208934.153
 110275368.870 8  20984708.371
 132145955.971 6  25146542.954
 112720120.357 8  21449926.388
 111413648.607 8  21201311.278
 126414813.650 6  24055942.247
 129377286.686 6  24619687.087
 110691146.459 8  21063826.314
 130784256.826 6  24887427.021
 108103406.540 9  20571395.993
 108081971.259 8  20567316.542
 119074585.885 7  22659141.060
 14  2 15  5 40 30.0000000  0 12G11G14G01G22G19G18G21G06G16G27G03G32
 121870744.965 7  23191235.433
 110255824.794 8  20980989.376
 132062108.186 6  25130588.338
 112775906.051 8  21460541.768
 111376305.394 8  21194205.115
 126491681.328 6  24070568.642
 129447527.718 6  24633053.877
 110748725.293 8  21074783.021
 130867311.366 5  24903231.200
 108139803.397 8  20578322.004
 108110635.897 8  20572771.332
 119003404.638 7  22645595.988
 14  2 15  5 41  0.0000000  0 12G11G14G01G22G19G18G21G06G16G27G03G32
 121777829.404 7  23173553.019
 110236828.357 8  20977374.657
 131978184.574 6  25114618.427
 112831833.794 8  21471184.877
 111339460.562 8  21187193.669
 126568521.112 6  24085191.468
 129517933.469 5  24646451.826
 110806733.794 8  21085821.969
 130950278.596 6  24919019.802
 108176741.688 9  20585351.047
 108139882.878 8  20578336.814
 118932509.136 7  22632105.153
 14  2 15  5 41 30.0000000  0 12G11G14G01G22G19G18G21G06G16G27G03G32
 121685033.571 6  23155894.692
 110218406.995 8  20973869.052
 131894212.393 5  25098637.233
 112887928.915 8  21481859.222
 111303142.409 8  21180282.657
 126645359.149 6  24099814.618
 129588531.039 5  24659885.729
 110865196.936 8  21096947.236
 131033182.171 5  24934795.181
 108214247.142 9  20592488.396
 108169737.660 8  20584017.851
 118861926.555 7  22618674.557
 14  2 15  5 42  0.0000000  0 12G11G14G01G22G19G18G21G06G16G27G03G32
 121592341.512 7  23138256.266
 110200542.852 8  20970469.784
 131810174.001 5  25082645.183
 112944171.701 8  21492562.313
 111267334.246 8  21173468.658
 126722176.471 6  24114431.309
 129659301.919 5  24673354.429
 110924095.027 8  21108155.131
 131116001.744 6  24950556.200
 108252300.523 8  20599729.686
 108200180.754 8  20589811.452
 118791638.978 7  22605298.995
 14  2 15  5 42 30.0000000  0 12G11G14G01G22G19G18G21G06G16G27G03G32
 121499752.473 6  23120636.842
 110183234.647 8  20967176.021
 131726067.500 6  25066642.662
 113000558.669 8  21503292.179
 111232035.455 8  21166752.018
 126798969.656 6  24129045.312
 129730243.827 5  24686853.371
 110983424.013 8  21119445.188
 131198732.394 6  24966299.813
 108290898.537 8  20607074.334
 108231208.912 9  20595715.944
 118721644.647 7  22591979.198
 14  2 15  5 43  0.0000000  0 12G11G14G01G22G19G18G21G06G16G27G03G32
 121407278.935 7  23103040.099
 110166493.136 8  20963990.311
 131641903.877 5  25050626.781
 113057099.175 8  21514051.652
 111197257.784 8  21160133.778
 126875749.056 6  24143655.809
 129801367.155 6  24700390.030
 111043192.627 8  21130818.737
 131281381.689 5  24982026.599
 108330050.592 9  20614524.849
 108262831.328 8  20601733.632
 118651954.425 7  22578717.718
 14  2 15  5 43 30.0000000  0 12G11G14G01G22G19G18G21G06G16G27G03G32
 121314912.184 7  23085463.220
 110150308.604 8  20960910.582
 131557673.147 5  25034597.129
 113113781.198 8  21524837.323
 111162992.680 8  21153613.106
 126952503.519 6  24158262.520
 129872661.496 5  24713956.112
 111103388.662 8  21142273.394
 131363936.718 6  24997736.538
 108369745.183 9  20622078.508
 108295036.062 8  20607861.798
 118582558.322 7  22565512.056
 14  2 15  5 44  0.0000000  0 12G11G14G01G22G19G18G21G06G16G27G03G32
 121222674.682 7  23067912.012
 110134702.885 8  20957940.850
 131473396.588 5  25018558.732
 113170624.106 8  21535654.624
 111129262.397 8  21147194.482
 127029253.140 6  24172867.423
 129944147.569 5  24727559.850
 111164031.037 8  21153813.554
 131446414.858 6  25013432.527
 108410001.910 8  20629739.619
 108327842.623 8  20614104.657
 118513477.335 7  22552366.343
 14  2 15  5 44 30.0000000  0 12G11G14G01G22G19G18G21G06G16G27G03G32
 121130530.989 7  23050376.664
 110119639.202 8  20955074.018
 131389037.421 5  25002505.804
 113227589.261 8  21546494.649
 111096030.923 8  21140870.954
 127105960.177 7  24187464.121
 130015787.729 5  24741191.503
 111225080.813 8  21165430.826
 131528776.939 6  25029104.954
 108450782.419 9  20637499.836
 108361212.450 8  20620454.782
 118444674.552 7  22539273.433
 14  2 15  5 45  0.0000000  0 12G11G14G01G22G19G18G21G06G16G27G03G32
 121038514.323 7  23032867.105
 110105149.350 8  20952316.931
 131304627.553 5  24986443.224
 113284707.146 8  21557364.250
 111063331.541 8  21134648.516
 127182655.115 7  24202059.137
 130087613.767 5  24754858.774
 111286567.542 8  21177131.332
 131611051.417 6  25044761.969
 108492116.939 8  20645365.223
 108395175.582 8  20626917.941
 118376181.787 7  22526239.925
 14  2 15  5 45 30.0000000  0 12G11G14G01G22G19G18G21G06G16G27G03G32
 120946622.016 7  23015380.174
 110091229.019 8  20949668.074
 131220162.763 5  24970369.187
 113341971.613 8  21568261.459
 111031160.684 8  21128526.464
 127259332.533 6  24216651.203
 130159620.628 6  24768563.222
 111348484.583 8  21188914.120
 131693231.138 5  25060399.414
 108533999.475 8  20653335.533
 108429725.708 8  20633492.584
 118307994.490 7  22513264.338
 14  2 15  5 46  0.0000000  0 12G11G14G01G22G19G18G21G06G16G27G03G32
 120854846.868 6  22997914.778
 110077869.875 8  20947125.859
 131135634.463 5  24954284.767
 113399372.297 8  21579183.969
 110999510.933 8  21122503.597
 127335982.829 7  24231236.466
 130231799.437 6  24782298.840
 111410821.170 8  21200776.237
 131775304.419 5  25076017.920
 108576419.804 9  20661407.974
 108464852.478 9  20640177.017
 118240103.958 7  22500345.000
 14  2 15  5 46 30.0000000  0 12G11G14G01G22G19G18G21G06G16G27G03G32
 120763192.094 7  22980474.127
 110065073.795 8  20944691.018
 131051044.800 5  24938188.390
 113456909.298 8  21590133.030
 110968385.163 8  21116580.649
 127412607.109 6  24245817.293
 130304152.069 5  24796063.997
 111473576.904 8  21212718.379
 131857269.744 5  25091616.693
 108619378.245 9  20669582.399
 108500556.185 8  20646971.483
 118172512.083 7  22487482.458
 14  2 15  5 47  0.0000000  0 12G11G14G01G22G19G18G21G06G16G27G03G32
 120671672.669 7  22963058.816
 110052854.166 8  20942365.518
 130966407.080 5  24922082.423
 113514594.111 8  21601110.189
 110937797.534 8  21110760.185
 127489217.302 6  24260396.547
 130376689.899 5  24809867.994
 111536762.770 8  21224742.472
 131939136.990 4  25107194.928
 108662886.305 8  20677861.753
 108536847.994 8  20653877.724
 118105231.988 7  22474679.342
 14  2 15  5 47 30.0000000  0 11G11G14G01G22G19G18G21G06G27G03G32
 120580274.670 7  22945666.497
 110041195.744 8  20940147.208
 130881706.101 5  24905964.637
 113572409.969 8  21612112.667
 110907733.887 8  21105039.462
 127565797.096 7  24274968.827
 130449397.680 5  24823704.134
 111600361.231 8  21236844.706
 108706927.073 9  20686242.690
 108573710.684 8  20660891.740
 118038248.198 7  22461933.093
 14  2 15  5 48  0.0000000  0 11G11G14G01G22G19G18G21G06G27G03G32
 120488987.710 7  22928294.914
 110030086.927 8  20938032.991
 130796930.536 5  24889830.923
 113630343.594 8  21623136.587
 110878183.458 8  21099416.178
 127642333.855 6  24289533.656
 130522263.886 6  24837572.404
 111664358.299 8  21249023.056
 108751487.187 8  20694722.121
 108611130.468 8  20668012.969
 117971549.026 7  22449240.836
 14  2 15  5 48 30.0000000  0 11G11G14G01G22G19G18G21G06G27G03G32
 120397846.145 7  22910951.579
 110019560.643 8  20936029.779
 130712113.207 5  24873694.356
 113688425.868 8  21634189.604
 110849180.220 8  21093897.440
 127718859.500 6  24304096.334
 130595320.175 5  24851474.480
 111728784.488 8  21261283.000
 108796597.705 9  20703306.382
 108649138.496 8  20675245.516
 117905167.074 7  22436608.919
 14  2 15  5 49  0.0000000  0 11G11G14G01G22G19G18G21G06G27G03G32
 120306834.213 7  22893632.561
 110009598.964 8  20934134.092
 130627236.905 6  24857542.195
 113746637.973 8  21645267.078
 110820707.499 8  21088478.201
 127795355.836 6  24318652.972
 130668548.530 6  24865410.425
 111793619.883 8  21273620.595
 108842239.455 9  20711991.758
 108687715.600 8  20682586.488
 117839084.791 7  22424033.469
 14  2 15  5 49 30.0000000  0 11G11G14G01G22G19G18G21G06G27G03G32
 120215959.112 7  22876339.905
 110000207.762 8  20932347.046
 130542307.562 5  24841380.038
 113804983.809 8  21656370.106
 110792771.752 8  21083162.027
 127871827.260 6  24333204.433
 130741954.591 5  24879378.092
 111858868.117 8  21286037.345
 108888416.433 9  20720778.970
 108726865.129 8  20690036.310
 117773307.733 7  22411516.592
 14  2 15  5 50  0.0000000  0 11G11G14G01G22G19G18G21G06G27G03G32
 120125218.886 7  22859071.549
 109991383.671 8  20930668.250
 130457321.975 6  24825209.267
 113863458.263 8  21667496.962
 110765370.819 8  21077948.406
 127948269.646 6  24347750.833
 130815534.639 5  24893381.708
 111924523.408 8  21298530.907
 108935123.438 9  20729667.141
 108766581.776 8  20697594.235
 117707832.354 7  22399056.863
 14  2 15  5 50 30.0000000  0 11G11G14G01G22G19G18G21G06G27G03G32
 120034604.276 7  22841828.568
 109983115.756 8  20929094.794
 130372269.507 6  24809024.119
 113922049.153 8  21678646.629
 110738494.560 8  21072834.177
 128024670.840 6  24362289.540
 130889276.390 5  24907415.555
 111990572.512 8  21311099.579
 108982347.883 9  20738653.602
 108806852.975 8  20705257.350
 117642647.681 7  22386652.730
 14  2 15  5 51  0.0000000  0 11G11G14G01G22G19G18G21G06G27G03G32
 119944149.227 7  22824616.293
 109975436.498 8  20927633.057
 130287182.842 5  24792830.637
 113980787.003 8  21689823.892
 110712176.359 8  21067825.857
 128101062.811 6  24376826.625
 130963212.731 5  24921482.132
 112057045.439 8  21323749.420
 109030120.353 9  20747744.534
 108847708.786 8  20713032.626
 117577785.821 7  22374310.566
 14  2 15  5 51 30.0000000  0 11G11G14G01G22G19G18G21G06G27G03G32
 119853833.017 7  22807428.578
 109968323.229 8  20926280.022
 130202039.782 5  24776628.068
 114039648.108 8  21701024.900
 110686394.825 8  21062919.930
 128177421.913 6  24391358.284
 131037320.094 5  24935584.475
 112123917.611 8  21336474.569
 109078416.708 9  20756935.067
 108889125.031 9  20720913.592
 117513224.464 7  22362023.779
 14  2 15  5 52  0.0000000  0 11G11G14G01G22G19G18G21G06G27G03G32
 119763668.762 7  22790271.501
 109961787.137 8  20925036.158
 130116852.108 5  24760418.117
 114098642.395 8  21712251.062
 110661161.930 8  21058118.332
 128253758.541 6  24405883.949
 131111609.658 5  24949722.775
 112191197.984 8  21349277.698
 109127246.480 8  20766226.980
 108931111.098 8  20728903.502
 117448974.813 7  22349797.851
 14  2 15  5 52 30.0000000  0 11G11G14G01G22G19G18G21G06G27G03G32
 119673633.396 7  22773137.784
 109955803.450 8  20923897.350
 130031595.417 5  24744195.262
 114157743.323 8  21723497.766
 110636454.156 8  21053416.481
 128330047.706 5  24420400.318
 131186056.115 5  24963892.470
 112258859.717 8  21362153.349
 109176583.256 8  20775615.548
 108973640.100 8  20736996.097
 117385011.985 7  22337626.813
 14  2 15  5 53  0.0000000  0 11G11G14G01G22G19G18G21G06G27G03G32
 119583768.138 7  22756038.064
 109950411.737 8  20922871.512
 129946309.618 5  24727965.273
 114216989.202 8  21734772.287
 110612312.124 8  21048822.453
 128406328.134 5  24434916.832
 131260698.555 5  24978095.807
 112326940.044 8  21375108.439
 109226464.830 8  20785107.868
 109016749.547 8  20745199.819
 117321375.517 7  22325516.499
 14  2 15  5 53 30.0000000  0 11G11G14G01G22G19G18G21G06G27G03G32
 119494032.536 7  22738961.278
 109945569.814 8  20921950.056
 129860953.252 6  24711723.374
 114276336.685 8  21746065.588
 110588694.437 8  21044328.458
 128482556.772 6  24449423.585
 131335494.321 5  24992326.686
 112395394.654 8  21388135.092
 109276847.362 8  20794695.236
 109060395.598 8  20753505.765
 117258023.323 7  22313461.189
 14  2 15  5 54  0.0000000  0 10G11G14G01G22G19G18G06G27G03G32
 119404456.874 7  22721916.019
 109941306.101 8  20921138.516
 129775555.037 6  24695471.539
 114335812.806 8  21757383.258
 110565630.410 8  21039939.761
 128558761.172 6  24463924.492
 112464249.663 8  21401237.770
 109327757.494 9  20804383.483
 109104604.525 8  20761918.763
 117194983.696 7  22301464.662
 14  2 15  5 54 30.0000000  0 10G11G14G01G22G19G18G06G27G03G32
 119315035.949 7  22704900.111
 109937613.390 8  20920435.960
 129690108.382 6  24679213.127
 114395408.839 8  21768724.163
 110543114.180 8  21035654.513
 128634933.221 6  24478419.778
 112533495.596 8  21414414.876
 109379186.306 8  20814169.835
 109149367.274 8  20770436.514
 117132249.357 7  22289527.357
 14  2 15  5 55  0.0000000  0 10G11G14G01G22G19G18G06G27G03G32
 119225764.002 7  22687911.426
 109934483.435 8  20919840.257
 129604605.805 6  24662941.717
 114455115.583 8  21780086.425
 110521138.463 8  21031472.165
 128711065.202 6  24492907.624
 112603122.439 8  21427664.403
 109431124.169 9  20824053.363
 109194674.302 8  20779057.998
 117069812.588 7  22277645.961
 14  2 15  5 55 30.0000000  0 10G11G14G01G22G19G18G06G27G03G32
 119136651.451 7  22670953.811
 109931925.829 8  20919353.712
 129519057.560 6  24646664.086
 114514941.673 8  21791470.659
 110499713.956 8  21027395.722
 128787165.886 6  24507390.080
 112673137.491 8  21440988.247
 109483578.889 8  20834035.178
 109240532.731 8  20787784.711
 117007682.848 7  22265823.321
 14  2 15  5 56  0.0000000  0 10G11G14G01G22G19G18G06G27G03G32
 119047695.923 7  22654025.637
 109929935.845 8  20918975.108
 129433459.165 6  24630373.454
 114574880.348 8  21802876.899
 110478836.521 8  21023423.229
 128863229.396 6  24521863.844
 112743533.599 8  21454384.233
 109536543.792 8  20844113.960
 109286935.536 8  20796614.853
 116945855.182 7  22254057.708
 14  2 15  5 56 30.0000000  0 10G11G14G01G22G19G18G06G27G03G32
 118958908.301 7  22637130.451
 109928522.551 8  20918706.153
 129347820.374 6  24614077.889
 114634939.561 8  21814305.877
 110458516.291 8  21019556.224
 128939264.233 6  24536333.027
 112814317.721 8  21467853.982
 109590026.301 8  20854291.341
 109333890.360 8  20805549.769
 116884338.806 7  22242351.042
 14  2 15  5 57  0.0000000  0 10G11G14G01G22G19G18G06G27G03G32
 118870282.212 7  22620265.572
 109927676.702 8  20918545.286
 129262133.398 6  24597772.046
 114695109.802 8  21825756.059
 110438745.598 8  21015793.911
 129015261.650 6  24550796.569
 112885479.277 8  21481395.576
 109644016.145 9  20864565.372
 109381386.348 8  20814588.634
 116823125.252 7  22230702.439
 14  2 15  5 57 30.0000000  0 10G11G14G01G22G19G18G06G27G03G32
 118781825.381 7  22603432.601
 109927404.547 8  20918493.431
 129176404.830 6  24581457.861
 114755396.026 8  21837227.900
 110419531.666 8  21012137.834
 129091226.986 6  24565251.237
 112957021.843 8  21495009.409
 109698517.528 9  20874936.728
 109429427.541 9  20823730.310
 116762220.504 7  22219112.949
 14  2 15  5 58  0.0000000  0 10G11G14G01G22G19G18G06G27G03G32
 118693528.629 7  22586630.644
 109927694.861 8  20918548.545
 129090624.100 6  24565135.686
 114815785.709 8  21848719.646
 110400863.971 8  21008585.557
 129167148.634 6  24579699.496
 113028932.062 8  21508693.846
 109753517.425 8  20885402.921
 109478000.647 8  20832973.496
 116701613.255 7  22207580.038
 14  2 15  5 58 30.0000000  0 10G11G14G01G22G19G18G06G27G03G32
 118605404.396 7  22569861.568
 109928557.500 8  20918712.555
 129004802.223 6  24548803.066
 114876287.905 8  21860233.343
 110382753.650 8  21005139.335
 129243036.563 6  24594140.032
 113101218.123 8  21522449.618
 109809024.411 8  20895965.241
 109527114.246 8  20842319.771
 116641313.905 7  22196105.125
 14  2 15  5 59  0.0000000  0 10G11G14G01G22G19G18G06G27G03G32
 118517453.017 7  22553124.428
 109929990.917 8  20918985.530
 128918938.292 6  24532463.386
 114936899.851 8  21871766.849
 110365199.923 8  21001798.706
 129318888.497 6  24608572.703
 113173876.132 8  21536275.607
 109865035.058 8  20906623.905
 109576764.397 8  20851767.661
 116581320.847 7  22184689.041
 14  2 15  5 59 30.0000000  0 10G11G14G01G22G19G18G06G27G03G32
 118429677.065 7  22536421.583
 109931995.403 8  20919366.965
 128833033.723 6  24516117.601
 114997620.933 8  21883321.912
 110348204.151 8  20998564.966
 129394704.458 6  24622999.733
 113246904.529 8  21550172.788
 109921548.253 8  20917378.051
 109626949.906 8  20861317.598
 116521634.799 7  22173330.845
 14  2 15  6  0  0.0000000  0 10G11G14G01G22G19G18G06G27G03G32
 118342069.887 7  22519750.205
 109934562.145 8  20919855.638
 128747080.418 6  24499760.479
 115058441.372 8  21894895.661
 110331759.136 8  20995435.502
 129470475.497 6  24637419.529
 113320292.312 8  21564138.095
 109978553.393 9  20928226.114
 109677659.976 8  20870967.488
 116462246.894 7  22162029.656
 14  2 15  6  0 30.0000000  0 10G11G14G01G22G19G18G06G27G03G32
 118254642.496 7  22503113.841
 109937699.974 8  20920452.795
 128661088.183 6  24483397.897
 115119369.113 8  21906489.655
 110315874.395 8  20992412.415
 129546210.138 6  24651831.861
 113394046.369 8  21578173.024
 110036057.633 8  20939168.812
 109728901.497 8  20880718.406
 116403166.294 7  22150787.287
 14  2 15  6  1  0.0000000  0 10G11G14G01G22G19G18G06G27G03G32
 118167388.305 7  22486509.764
 109941399.852 8  20921156.563
 128575049.156 6  24467024.723
 115180394.593 8  21918102.282
 110300542.004 8  20989494.905
 129621899.079 6  24666234.718
 113468155.715 8  21592275.337
 110094050.510 8  20950204.542
 109780663.515 8  20890568.437
 116344384.310 7  22139601.416
 14  2 15  6  1 30.0000000  0 10G11G14G01G22G19G18G06G27G03G32
 118080324.799 7  22469942.355
 109945676.966 8  20921970.513
 128488979.455 6  24450647.172
 115241531.958 8  21929736.515
 110285778.202 8  20986685.641
 129697557.338 6  24680632.368
 113542633.570 8  21606448.424
 110152545.547 8  20961335.801
 109832959.360 8  20900520.051
 116285916.332 7  22128475.227
 14  2 15  6  2  0.0000000  0 10G11G14G01G22G19G18G06G27G03G32
 117993443.327 7  22453408.988
 109950520.154 8  20922892.088
 128402869.003 6  24434259.782
 115302769.129 8  21941389.731
 110271572.803 8  20983982.005
 129773173.729 6  24695023.610
 113617466.752 8  21620688.069
 110211529.918 9  20972560.333
 109885776.044 9  20910570.839
 116227751.246 7  22117406.906
 14  2 15  6  2 30.0000000  0 10G11G14G01G22G19G18G06G27G03G32
 117906744.923 7  22436911.004
 109955928.444 8  20923921.291
 128316718.044 6  24417866.262
 115364104.527 8  21953061.843
 110257926.168 8  20981385.286
 129848747.816 6  24709403.219
 113692652.514 8  21634996.101
 110271001.222 8  20983877.259
 109939111.028 8  20920720.166
 116169888.690 7  22106395.753
 14  2 15  6  3  0.0000000  0 10G11G14G01G22G19G18G06G27G03G32
 117820236.881 7  22420448.849
 109961906.735 8  20925059.038
 128230532.587 6  24401465.428
 115425542.193 8  21964753.301
 110244844.128 8  20978896.118
 129924283.682 6  24723778.276
 113768193.749 8  21649370.724
 110330962.727 9  20995287.385
 109992967.410 8  20930968.553
 116112333.805 7  22095443.856
 14  2 15  6  3 30.0000000  0 10G11G14G01G22G19G18G06G27G03G32
 117733919.323 7  22404022.682
 109968452.437 8  20926304.739
 128144311.163 6  24385057.564
 115487079.063 8  21976463.503
 110232324.766 8  20976513.928
 129999778.993 5  24738143.802
 113844085.936 8  21663813.195
 110391410.171 8  21006790.309
 110047340.438 8  20941315.577
 116055084.157 7  22084549.333
 14  2 15  6  4  0.0000000  0 10G11G14G01G22G19G18G06G27G03G32
 117647791.808 7  22387633.647
 109975562.620 8  20927657.539
 128058052.064 6  24368643.210
 115548711.467 8  21988191.389
 110220366.918 8  20974238.253
 130075230.694 5  24752502.365
 113920324.186 8  21678320.464
 110452339.176 8  21018384.620
 110102225.536 8  20951760.037
 115998137.339 7  22073712.879
 14  2 15  6  4 30.0000000  0 10G11G14G01G22G19G18G06G27G03G32
 117561863.361 7  22371281.848
 109983243.765 8  20929119.460
 127971763.073 6  24352222.685
 115610445.110 8  21999939.302
 110208977.994 8  20972071.360
 130150645.594 5  24766852.725
 113996913.363 8  21692895.102
 110513754.719 8  21030071.695
 110157627.545 8  20962302.694
 115941500.187 7  22062935.244
 14  2 15  6  5  0.0000000  0 10G11G14G01G22G19G18G06G27G03G32
 117476128.931 7  22354968.073
 109991488.729 8  20930688.551
 127885437.937 6  24335795.905
 115672272.177 8  22011704.050
 110198151.331 8  20970010.990
 130226016.004 5  24781195.668
 114073843.902 8  21707534.283
 110575647.680 8  21041849.641
 110213536.789 8  20972941.772
 115885165.468 7  22052214.935
 14  2 15  6  5 30.0000000  0 10G11G14G01G22G19G18G06G27G03G32
 117390590.879 7  22338690.046
 110000297.039 8  20932364.635
 127799077.750 6  24319361.485
 115734191.825 8  22023487.241
 110187888.036 8  20968058.126
 130301341.761 5  24795528.936
 114151113.703 8  21722238.873
 110638016.325 9  21053717.984
 110269951.557 8  20983677.337
 115829133.418 7  22041552.252
 14  2 15  6  6  0.0000000  0 10G11G14G01G22G19G18G06G27G03G32
 117305259.345 7  22322452.059
 110009675.941 8  20934149.334
 127712691.336 6  24302922.382
 115796210.820 8  22035288.739
 110178196.431 8  20966213.787
 130376630.592 6  24809857.404
 114228728.376 8  21737008.274
 110700866.487 8  21065677.884
 110326877.512 8  20994509.985
 115773411.878 7  22030948.434
 14  2 15  6  6 30.0000000  0 10G11G14G01G22G19G18G06G27G03G32
 117220125.105 7  22306251.508
 110019613.767 8  20936040.598
 127626268.120 6  24286477.081
 115858316.859 8  22047107.212
 110169065.749 8  20964476.102
 130451870.959 5  24824176.077
 114306674.168 8  21751841.151
 110764184.868 8  21077727.008
 110384300.927 8  21005437.128
 115717989.466 7  22020402.508
 14  2 15  6  7  0.0000000  0 10G11G14G01G22G19G18G06G27G03G32
 117135193.685 7  22290090.049
 110030113.658 8  20938038.450
 127539812.798 6  24270024.367
 115920512.636 8  22058942.823
 110160500.388 8  20962846.157
 130527066.104 6  24838484.328
 114384952.601 8  21766736.788
 110827973.040 9  21089865.608
 110442223.065 8  21016459.845
 115662869.504 8  22009913.516
 14  2 15  6  7 30.0000000  0 10G11G14G01G22G19G18G06G27G03G32
 117050469.826 7  22273966.500
 110041177.533 8  20940143.995
 127453328.578 6  24253568.209
 115982799.361 8  22070795.605
 110152503.151 8  20961324.677
 130602217.789 5  24852784.078
 114463563.625 8  21781696.512
 110892231.302 8  21102093.793
 110500643.833 8  21027576.686
 115608054.445 7  21999483.001
 14  2 15  6  8  0.0000000  0 10G11G14G01G22G19G18G06G27G03G32
 116965949.689 7  22257883.504
 110052798.949 8  20942355.104
 127366810.508 6  24237103.401
 116045170.318 7  22082664.298
 110145068.866 8  20959909.729
 130677320.130 6  24867077.306
 114542499.211 8  21796717.274
 110956951.791 8  21114409.561
 110559555.454 8  21038787.161
 115553538.289 7  21989107.906
 14  2 15  6  8 30.0000000  0 10G11G14G01G22G19G18G06G27G03G32
 116881648.191 7  22241840.931
 110064989.639 8  20944675.135
 127280272.077 6  24220636.441
 116107637.289 8  22094551.934
 110138210.142 8  20958604.468
 130752385.449 6  24881361.627
 114621769.354 8  21811801.820
 111022144.882 8  21126815.529
 110618968.314 8  21050093.011
 115499333.558 8  21978793.104
 14  2 15  6  9  0.0000000  0 10G11G14G01G22G19G18G06G27G03G32
 116797561.270 7  22225840.223
 110077742.943 8  20947102.201
 127193708.075 6  24204163.708
 116170193.130 8  22106455.755
 110131921.892 8  20957407.798
 130827407.398 6  24895637.477
 114701365.629 8  21826948.712
 111087802.506 8  21139309.769
 110678873.423 8  21061492.932
 115445433.968 8  21968537.020
 14  2 15  6  9 30.0000000  0 10G11G14G01G22G19G18G06G27G03G32
 116713681.197 7  22209877.759
 110091048.891 8  20949633.919
 127107109.746 6  24187684.792
 116232827.174 7  22118374.893
 110126194.516 8  20956318.029
 130902375.835 6  24909904.900
 114781275.965 8  21842154.815
 111153912.629 8  21151890.165
 110739258.695 8  21072983.780
 115391829.541 8  21958336.370
 14  2 15  6 10  0.0000000  0 10G11G14G01G22G19G18G06G27G03G32
 116630025.708 7  22193959.375
 110104921.913 8  20952274.111
 127020493.496 6  24171202.831
 116295553.720 8  22130311.176
 110121044.161 8  20955337.835
 130977305.996 6  24924162.528
 114861513.397 8  21857423.989
 111220488.666 8  21164559.294
 110800137.177 9  21084568.645
 115338535.775 7  21948195.055
 14  2 15  6 10 30.0000000  0 10G11G14G01G22G19G18G06G27G03G32
 116546583.637 7  22178080.608
 110119347.997 8  20955019.061
 126933846.811 6  24154713.568
 116358358.555 7  22142262.798
 110116457.595 8  20954464.557
 131052183.901 6  24938412.564
 114942062.139 8  21872751.853
 111287515.016 8  21177313.979
 110861493.304 8  21096244.678
 115285539.041 7  21938109.687
 14  2 15  6 11  0.0000000  0 10G11G14G01G22G19G18G06G27G03G32
 116463367.353 7  22162244.562
 110134336.862 8  20957871.551
 126847181.038 6  24138222.343
 116421251.043 8  22154231.018
 110112445.392 8  20953701.690
 131127019.805 6  24952652.663
 115022930.251 8  21888140.459
 111354999.875 8  21190156.086
 110923335.095 8  21108012.311
 115232849.477 7  21928082.605
 14  2 15  6 11 30.0000000  0 10G11G14G01G22G19G18G06G27G03G32
 116380378.057 7  22146452.615
 110149886.590 8  20960830.755
 126760495.823 6  24121726.340
 116484229.168 8  22166215.016
 110109006.498 8  20953047.577
 131201812.219 6  24966884.644
 115104113.871 8  21903589.066
 111422939.695 8  21203084.302
 110985658.735 8  21119871.955
 115180465.597 8  21918114.927
 14  2 15  6 12  0.0000000  0 10G11G14G01G22G19G18G06G27G03G32
 116297611.060 7  22130702.420
 110165989.712 8  20963895.096
 126673785.711 6  24105226.098
 116547285.277 8  22178214.593
 110106135.456 8  20952500.783
 131276554.450 6  24981107.981
 115185604.054 8  21919096.669
 111491325.877 8  21216098.117
 111048455.165 8  21131822.303
 115128380.788 7  21908203.486
 14  2 15  6 12 30.0000000  0 10G11G14G01G22G19G18G06G27G03G32
 116215074.473 7  22114996.736
 110182651.334 8  20967065.556
 126587057.556 6  24088722.067
 116610424.406 8  22190229.491
 110103838.008 8  20952063.154
 131351252.042 6  24995322.195
 115267404.397 8  21934662.289
 111560161.986 8  21229197.249
 111111727.791 8  21143862.531
 115076600.592 7  21898349.615
 14  2 15  6 13  0.0000000  0 10G11G14G01G22G19G18G06G27G03G32
 116132758.637 7  22099332.192
 110199858.715 8  20970340.037
 126500300.425 6  24072211.989
 116673633.790 8  22202258.308
 110102102.619 8  20951733.700
 131425892.754 6  25009526.845
 115349500.518 8  21950285.354
 111629433.929 8  21242379.148
 111175462.117 8  21155991.267
 115025113.054 8  21888552.094
 14  2 15  6 13 30.0000000  0 10G11G14G01G22G19G18G06G27G03G32
 116050679.779 7  22083712.510
 110217625.127 8  20973720.862
 126413529.200 6  24055700.468
 116736926.389 8  22214302.566
 110100943.376 8  20951513.214
 131500490.474 6  25023722.176
 115431903.951 8  21965965.880
 111699153.298 8  21255646.562
 111239669.521 8  21168209.087
 114973931.735 8  21878812.795
 14  2 15  6 14  0.0000000  0 11G11G14G01G22G19G18G31G06G27G03G32
 115968839.572 8  22068139.618
 110235949.449 8  20977208.078
 126326744.667 6  24039186.187
 116800301.035 8  22226361.970
 110100360.411 8  20951402.027
 131575044.346 6  25037907.166
 130496600.830 5  24832674.498
 115514611.929 8  21981704.623
 111769317.596 9  21268998.396
 111304347.358 8  21180517.106
 114923056.220 8  21869130.851
 14  2 15  6 14 30.0000000  0 11G11G14G01G22G19G18G31G06G27G03G32
 115887238.446 8  22052611.208
 110254828.933 8  20980800.364
 126239946.109 6  24022667.750
 116863755.204 8  22238437.120
 110100351.753 8  20951400.640
 131649552.662 6  25052089.353
 130414852.489 6  24817119.646
 115597620.276 8  21997501.377
 111839922.729 8  21282434.115
 111369491.394 8  21192913.371
 114872484.477 8  21859507.809
 14  2 15  6 15  0.0000000  0 11G11G14G01G22G19G18G31G06G27G03G32
 115805867.567 8  22037126.675
 110274251.372 8  20984496.589
 126153123.177 6  24006147.297
 116927276.637 8  22250524.051
 110100906.422 8  20951506.011
 131724003.755 6  25066255.321
 130332975.442 6  24801538.338
 115680915.019 8  22013351.426
 111910955.085 8  21295951.067
 111435087.488 8  21205395.700
 114822205.058 8  21849940.283
 14  2 15  6 15 30.0000000  0 11G11G14G01G22G19G18G31G06G27G03G32
 115724740.048 8  22021689.177
 110294226.761 8  20988297.867
 126066287.903 6  23989622.161
 116990875.370 8  22262626.808
 110102035.587 8  20951720.905
 131798408.655 6  25080415.492
 130250983.655 6  24785935.140
 115764504.863 7  22029257.998
 111982423.323 8  21309551.363
 111501144.375 8  21217966.620
 114772228.484 7  21840429.585
 14  2 15  6 16  0.0000000  0 11G11G14G01G22G19G18G31G06G27G03G32
 115643856.179 7  22006297.071
 110314752.551 8  20992203.478
 125979439.631 6  23973095.870
 117054548.726 8  22274743.538
 110103737.706 8  20952044.896
 131872765.551 6  25094564.715
 130168877.486 6  24770310.471
 115848385.494 8  22045219.882
 112054323.388 8  21323233.306
 111567657.631 8  21230623.367
 114722553.009 8  21830977.271
 14  2 15  6 16 30.0000000  0 11G11G14G01G22G19G18G31G06G27G03G32
 115563225.049 7  21990953.698
 110335834.981 8  20996215.747
 125892586.383 6  23956568.831
 117118303.105 8  22286875.458
 110106019.961 8  20952479.248
 131947080.520 6  25108707.862
 130086667.132 6  24754666.904
 115932561.539 8  22061238.452
 112126660.005 8  21336998.722
 111634631.360 8  21243368.157
 114673185.212 7  21821582.564
 14  2 15  6 17  0.0000000  0 11G11G14G01G22G19G18G31G06G27G03G32
 115482839.973 8  21975656.650
 110357463.547 8  21000331.288
 125805720.142 6  23940038.375
 117182128.360 8  22299021.399
 110108873.116 8  20953022.371
 132021344.513 6  25122836.867
 130004346.231 6  24739001.380
 116017021.215 8  22077310.232
 112199421.563 8  21350844.888
 111702054.094 8  21256198.490
 114624115.690 8  21812245.043
 14  2 15  6 17 30.0000000  0 11G11G14G01G22G19G18G31G06G27G03G32
 115402697.158 8  21960405.787
 110379631.566 8  21004550.033
 125718835.885 6  23923504.915
 117246017.568 7  22311178.803
 110112291.292 8  20953672.674
 132095551.264 6  25136960.718
 129921911.174 6  24723313.430
 116101756.070 8  22093435.370
 112272599.640 8  21364770.079
 111769916.932 8  21269112.082
 114575338.133 8  21802962.963
 14  2 15  6 18  0.0000000  0 11G11G14G01G22G19G18G31G06G27G03G32
 115322806.130 7  21945203.367
 110402345.191 8  21008872.075
 125631942.254 6  23906969.864
 117309977.591 8  22323350.663
 110116281.913 9  20954432.443
 132169708.400 6  25151069.795
 129839372.566 6  24707607.703
 116186771.106 7  22109612.462
 112346199.409 8  21378775.747
 111838224.735 8  21282110.972
 114526859.703 7  21793737.312
 14  2 15  6 18 30.0000000  0 11G11G14G01G22G19G18G31G06G27G03G32
 115243171.951 7  21930049.616
 110425606.307 8  21013298.590
 125545043.115 6  23890433.583
 117374010.177 7  22335535.654
 110120847.666 8  20955300.989
 132243818.370 6  25165175.797
 129756735.583 6  24691881.716
 116272066.501 8  22125844.547
 112420221.251 8  21392861.428
 111906977.858 8  21295194.298
 114478683.012 8  21784569.592
 14  2 15  6 19  0.0000000  0 11G11G14G01G22G19G18G31G06G27G03G32
 115163792.332 8  21914943.831
 110449409.467 8  21017828.327
 125458135.054 6  23873895.050
 117438110.039 8  22347733.331
 110125984.063 8  20956278.118
 132317876.510 6  25179266.389
 129673998.802 6  24676137.692
 116357635.449 8  22142127.206
 112494658.204 8  21407026.791
 111976169.081 8  21308360.687
 114430803.188 8  21775458.371
 14  2 15  6 19 30.0000000  0 11G11G14G01G22G19G18G31G06G27G03G32
 115084675.952 8  21899888.652
 110473759.744 8  21022461.836
 125371225.508 6  23857356.751
 117502282.778 8  22359945.755
 110131697.608 8  20957365.416
 132391889.053 6  25193350.835
 129591171.559 6  24660375.156
 116443481.645 8  22158463.645
 112569514.227 8  21421271.066
 112045802.075 8  21321611.690
 114383226.266 8  21766404.942
 14  2 15  6 20  0.0000000  0 11G11G14G01G22G19G18G31G06G27G03G32
 115005823.375 7  21884883.394
 110498654.323 8  21027199.074
 125284314.169 6  23840818.709
 117566526.349 8  22372170.750
 110137986.667 8  20958562.129
 132465854.245 6  25207428.202
 129508254.970 6  24644597.542
 116529601.013 8  22174851.248
 112644785.401 8  21435594.941
 112115872.668 8  21334945.712
 114335950.342 8  21757408.457
 14  2 15  6 20 30.0000000  0 11G11G14G01G22G19G18G31G06G27G03G32
 114927228.405 8  21869927.333
 110524083.792 8  21032038.244
 125197393.523 6  23824276.664
 117630831.110 8  22384407.252
 110144842.690 8  20959866.959
 132539763.323 6  25221490.616
 129425243.033 6  24628799.384
 116615982.532 8  22191289.992
 112720460.611 8  21449995.513
 112186369.255 8  21348360.870
 114288966.532 8  21748468.008
 14  2 15  6 21  0.0000000  0 10G11G14G01G22G19G31G06G27G03G32
 114848904.757 8  21855022.978
 110550058.574 8  21036980.896
 125110476.251 6  23807737.186
 117695207.675 8  22396657.920
 110152276.809 8  20961281.279
 129342150.582 6  24612987.982
 116702635.140 8  22207779.845
 112796548.972 8  21464474.736
 112257300.798 8  21361858.523
 114242286.097 8  21739585.226
 14  2 15  6 21 30.0000000  0 10G11G14G01G22G19G31G06G27G03G32
 114770846.158 8  21840168.840
 110576569.054 8  21042025.862
 125023555.272 6  23791197.042
 117759646.980 7  22408920.129
 110160280.803 8  20962804.970
 129258971.772 6  24597159.525
 116789547.849 8  22224317.996
 112873039.682 8  21479030.519
 112328656.402 8  21375437.079
 114195900.377 8  21730757.607
 14  2 15  6 22  0.0000000  0 10G11G14G01G22G19G31G06G27G03G32
 114693053.641 8  21825365.439
 110603612.592 8  21047171.812
 124936630.269 6  23774656.176
 117824147.016 8  22421194.618
 110168852.996 8  20964436.022
 129175708.251 6  24581314.412
 116876716.933 8  22240906.294
 112949928.882 8  21493662.092
 112400431.900 8  21389095.704
 114149807.575 8  21721987.151
 14  2 15  6 22 30.0000000  0 10G11G14G01G22G19G31G06G27G03G32
 114615529.932 8  21810613.029
 110631188.755 8  21052419.719
 124849702.894 6  23758113.734
 117888707.639 7  22433480.101
 110177993.705 8  20966175.534
 129092363.387 6  24565453.611
 116964140.312 7  22257542.595
 113027214.598 8  21508368.961
 112472625.359 8  21402833.949
 114104007.809 8  21713271.573
 14  2 15  6 23  0.0000000  0 10G11G14G01G22G19G31G06G27G03G32
 114538291.419 8  21795915.100
 110659310.477 8  21057771.478
 124762788.707 7  23741574.982
 117953342.065 7  22445779.319
 110187717.028 8  20968025.723
 129008954.061 6  24549581.775
 117051829.645 8  22274228.928
 113104908.509 8  21523154.229
 112545247.884 8  21416653.696
 114058515.157 8  21704614.864
 14  2 15  6 23 30.0000000  0 10G11G14G01G22G19G31G06G27G03G32
 114461323.004 8  21781268.158
 110687958.941 8  21063223.215
 124675871.289 6  23725034.120
 118018032.259 8  22458089.601
 110198005.139 8  20969983.656
 128925465.686 6  24533694.052
 117139764.949 8  22290963.026
 113182990.610 8  21538012.260
 112618279.405 8  21430550.911
 114013311.662 8  21696012.438
 14  2 15  6 24  0.0000000  0 10G11G14G01G22G19G31G06G27G03G32
 114384631.495 8  21766674.081
 110717137.493 8  21068775.251
 124588956.615 7  23708496.150
 118082782.211 7  22470411.043
 110208862.579 8  20972050.136
 128841906.009 6  24517792.301
 117227948.339 8  22307743.497
 113261463.107 8  21552945.514
 112691721.523 8  21444526.456
 113968401.524 8  21687466.558
 14  2 15  6 24 30.0000000  0 10G11G14G01G22G19G31G06G27G03G32
 114308223.427 8  21752134.967
 110746848.927 8  21074429.169
 124502050.049 7  23691957.295
 118147594.701 7  22482744.542
 110220293.105 8  20974225.161
 128758281.856 6  24501879.158
 117316381.308 8  22324572.079
 113340327.596 8  21567952.785
 112765575.636 8  21458580.384
 113923788.638 8  21678976.859
 14  2 15  6 25  0.0000000  0 10G11G14G01G22G19G31G06G27G03G32
 114232098.244 8  21737648.095
 110777089.436 8  21080183.867
 124415150.075 7  23675421.154
 118212467.134 7  22495089.029
 110232293.746 8  20976508.854
 128674593.640 6  24485953.553
 117405058.556 7  22341446.644
 113419578.790 8  21583034.008
 112839836.532 8  21472711.812
 113879469.851 7  21670543.093
 14  2 15  6 25 30.0000000  0 10G11G14G01G22G19G31G06G27G03G32
 114156260.649 8  21723217.328
 110807859.871 8  21086039.365
 124328260.201 6  23658886.464
 118277400.882 7  22507445.911
 110244866.320 8  20978901.466
 128590846.237 6  24470017.586
 117493979.778 8  22358368.586
 113499216.347 8  21598188.446
 112914503.063 8  21486920.506
 113835446.963 8  21662166.173
 14  2 15  6 26  0.0000000  0 10G11G14G01G22G19G31G06G27G03G32
 114080703.983 8  21708838.665
 110839150.030 8  21091993.771
 124241372.799 6  23642351.790
 118342386.333 7  22519812.895
 110258001.879 8  20981401.105
 128507034.229 6  24454068.687
 117583133.629 7  22375332.846
 113579228.906 8  21613414.713
 112989564.057 8  21501204.254
 113791710.779 7  21653843.187
 14  2 15  6 26 30.0000000  0 10G11G14G01G22G19G31G06G27G03G32
 114005441.901 8  21694516.961
 110870970.364 8  21098048.921
 124154500.954 6  23625821.159
 118407434.491 7  22532190.492
 110271711.801 8  20984009.887
 128423171.849 6  24438109.746
 117672529.233 8  22392344.767
 113659625.665 8  21628713.672
 113065028.429 8  21515564.733
 113748272.755 8  21645577.260
 14  2 15  6 27  0.0000000  0 10G11G14G01G22G19G31G06G27G03G32
 113930472.196 8  21680251.065
 110903314.934 8  21104203.773
 124067641.307 6  23609292.506
 118472540.112 7  22544579.684
 110285991.016 8  20986727.427
 128339257.543 6  24422140.045
 117762159.455 7  22409400.677
 113740399.388 8  21644084.376
 113140888.493 8  21530000.513
 113705127.826 8  21637367.065
 14  2 15  6 27 30.0000000  0 10G11G14G01G22G19G31G06G27G03G32
 113855794.448 8  21666039.994
 110936179.441 8  21110457.975
 123980792.350 6  23592766.658
 118537699.670 7  22556979.646
 110300836.075 8  20989552.303
 128255291.513 6  24406164.881
 117852018.816 8  22426501.222
 113821544.704 8  21659525.690
 113217138.946 8  21544510.382
 113662272.751 8  21629212.215
 14  2 15  6 28  0.0000000  0 10G11G14G01G22G19G31G06G27G03G32
 113781404.358 8  21651884.207
 110969555.722 8  21116808.934
 123893948.565 6  23576239.524
 118602905.868 8  22569387.797
 110316239.785 8  20992483.484
 128171270.037 6  24390173.214
 117942098.078 8  22443642.943
 113903052.193 8  21675036.041
 113293770.219 8  21559092.995
 113619700.279 8  21621110.704
 14  2 15  6 28 30.0000000  0 10G11G14G01G22G19G31G06G27G03G32
 113707324.445 8  21637786.755
 111003462.719 8  21123261.412
 123807131.719 7  23559720.214
 118668178.362 7  22581808.730
 110332222.380 8  20995524.831
 128087216.579 6  24374179.032
 118032415.020 7  22460829.173
 113984939.724 8  21690619.111
 113370799.563 8  21573751.019
 113577430.518 8  21613066.868
 14  2 15  6 29  0.0000000  0 10G11G14G01G22G19G31G06G27G03G32
 113633547.047 8  21623747.802
 111037889.222 8  21129812.739
 123720333.241 7  23543202.288
 118733506.557 7  22594240.561
 110348773.443 8  20998674.714
 128003123.788 6  24358174.614
 118122957.186 7  22478059.017
 114067194.726 8  21706271.714
 113448214.255 8  21588482.926
 113535453.020 8  21605078.917
 14  2 15  6 29 30.0000000  0 10G11G14G01G22G19G31G06G27G03G32
 113560070.577 8  21609765.718
 111072829.990 8  21136461.618
 123633550.533 7  23526688.081
 118798885.876 7  22606682.121
 110365888.527 8  21001931.407
 127918991.034 6  24342167.056
 118213718.156 7  22495330.513
 114149810.719 8  21721993.408
 113526007.630 8  21603286.474
 113493763.630 8  21597145.592
 14  2 15  6 30  0.0000000  0 10G11G14G01G22G19G31G06G27G03G32
 113486902.335 8  21595842.573
 111108288.522 8  21143209.217
 123546790.191 7  23510178.226
 118864321.089 7  22619134.155
 110383572.238 8  21005296.212
 127834827.099 6  24326152.195
 118304700.481 7  22512643.666
 114232790.242 8  21737783.665
 113604182.243 8  21618162.759
 113452367.018 8  21589268.267
 14  2 15  6 30 30.0000000  0 10G11G14G01G22G19G31G06G27G03G32
 113414036.098 8  21581975.979
 111144254.657 8  21150053.131
 123460044.845 7  23493670.562
 118929803.010 7  22631594.600
 110401815.131 8  21008767.918
 127750625.286 6  24310129.297
 118395892.858 7  22529996.511
 114316121.954 8  21753641.122
 113682726.142 8  21633109.285
 113411254.033 8  21581444.719
 14  2 15  6 31  0.0000000  0 10G11G14G01G22G19G31G06G27G03G32
 113341478.777 8  21568168.528
 111180731.415 8  21156994.608
 123373320.423 6  23477167.267
 118995335.406 7  22644065.029
 110420621.688 8  21012346.466
 127666393.607 6  24294098.445
 118487297.282 7  22547391.005
 114399807.821 8  21769566.446
 113761640.994 8  21648126.319
 113370428.897 8  21573676.212
 14  2 15  6 31 30.0000000  0 10G11G14G01G22G19G31G06G27G03G32
 113269239.972 8  21554422.539
 111217724.655 8  21164034.249
 123286625.635 7  23460669.557
 119060924.981 7  22656546.591
 110439998.300 8  21016033.557
 127582142.640 6  24278064.444
 118578918.478 7  22564826.280
 114483852.502 8  21785559.337
 113840931.703 8  21663214.503
 113329898.439 8  21565963.450
 14  2 15  6 32  0.0000000  0 10G11G14G01G22G19G31G06G27G03G32
 113197307.447 8  21540733.913
 111255218.535 8  21171169.138
 123199947.426 6  23444175.405
 119126556.685 7  22669035.689
 110459929.684 8  21019826.616
 127497860.627 6  24262027.037
 118670739.362 7  22582299.041
 114568238.838 8  21801617.981
 113920580.611 8  21678371.246
 113289647.618 8  21558304.399
 14  2 15  6 32 30.0000000  0 10G11G14G01G22G19G31G06G27G03G32
 113125701.343 8  21527108.061
 111293229.211 8  21178402.089
 123113305.040 6  23427687.547
 119192247.891 7  22681536.614
 110480433.498 8  21023728.506
 127413568.590 6  24245985.513
 118762775.299 7  22599812.269
 114652982.000 8  21817743.639
 114000602.468 8  21693598.892
 113249693.999 8  21550701.569
 14  2 15  6 33  0.0000000  0 10G11G14G01G22G19G31G06G27G03G32
 113054410.704 8  21513542.083
 111331741.875 8  21185731.136
 123026686.857 7  23411204.537
 119257985.076 7  22694045.958
 110501495.849 8  21027736.495
 127329256.864 6  24229943.725
 118855010.640 7  22617364.721
 114738066.379 8  21833934.971
 114080981.442 8  21708894.780
 113210024.006 8  21543152.099
 14  2 15  6 33 30.0000000  0 10G11G14G01G22G19G31G06G27G03G32
 112983438.320 8  21500036.323
 111370755.510 8  21193154.923
 122940094.547 7  23394726.609
 119323767.632 7  22706563.969
 110523116.513 8  21031850.702
 127244928.453 6  24213895.332
 118947442.934 7  22634954.827
 114823489.428 8  21850190.393
 114161714.713 8  21724257.985
 113170637.376 8  21535656.777
 14  2 15  6 34  0.0000000  0 10G11G14G01G22G19G31G06G27G03G32
 112912789.774 8  21486592.217
 111410271.942 8  21200674.830
 122853532.853 7  23378255.081
 119389598.737 7  22719091.284
 110545297.666 8  21036072.077
 127160589.741 6  24197844.055
 119040072.955 7  22652582.449
 114909251.828 8  21866510.911
 114242803.001 8  21739688.559
 113131537.035 8  21528216.688
 14  2 15  6 34 30.0000000  0 10G11G14G01G22G19G31G06G27G03G32
 112842465.432 8  21473209.923
 111450287.242 8  21208289.738
 122767001.214 7  23361788.906
 119455475.644 7  22731626.654
 110568036.849 8  21040399.241
 127076241.633 6  24181794.009
 119132896.027 8  22670245.608
 114995348.818 8  21882894.176
 114324241.425 8  21755185.907
 113092720.492 8  21520829.963
 14  2 15  6 35  0.0000000  0 10G11G14G01G22G19G31G06G27G03G32
 112772467.057 8  21459889.577
 111490799.386 8  21215998.907
 122680500.728 7  23345327.870
 119521397.458 7  22744172.222
 110591333.001 8  21044832.278
 126991887.294 6  24165740.923
 119225909.356 8  22687946.105
 115081777.394 8  21899341.192
 114406026.551 8  21770749.508
 113054186.934 8  21513497.448
 14  2 15  6 35 30.0000000  0 10G11G14G01G22G19G31G06G27G03G32
 112702805.054 8  21446632.933
 111531814.952 8  21223804.123
 122594040.977 7  23328875.991
 119587371.725 7  22756726.619
 110615193.378 8  21049372.757
 126907537.537 6  24149690.442
 119319118.407 7  22705681.956
 115168542.904 8  21915852.125
 114488163.371 8  21786379.171
 113015943.979 8  21506220.297
 14  2 15  6 36  0.0000000  0 10G11G14G01G22G19G31G06G27G03G32
 112633467.390 8  21433438.578
 111573317.952 8  21231701.480
 122507609.107 7  23312427.835
 119653383.534 7  22769288.275
 110639602.680 8  21054017.865
 126823181.350 6  24133638.419
 119412506.210 7  22723453.683
 115255628.371 8  21932424.593
 114570634.581 8  21802073.048
 112977976.760 8  21498994.684
 14  2 15  6 36 30.0000000  0 10G11G14G01G22G19G31G06G27G03G32
 112564471.709 8  21420309.109
 111615322.213 8  21239694.583
 122421221.783 7  23295988.904
 119719447.739 7  22781859.979
 110664575.332 8  21058769.790
 126738836.874 6  24117587.652
 119506085.309 7  22741261.298
 115343046.195 8  21949059.311
 114653452.702 8  21817833.557
 112940300.012 8  21491824.964
 14  2 15  6 37  0.0000000  0 10G11G14G01G22G19G31G06G27G03G32
 112495810.141 8  21407244.106
 111657815.624 8  21247781.227
 122334870.624 7  23279556.850
 119785553.705 7  22794439.734
 110690100.890 8  21063627.241
 126654497.381 6  24101538.949
 119599843.211 7  22759103.590
 115430783.792 8  21965755.241
 114736604.750 8  21833656.458
 112902903.332 8  21484708.992
 14  2 15  6 37 30.0000000  0 10G11G14G01G22G19G31G06G27G03G32
 112427491.128 8  21394243.300
 111700802.385 8  21255961.395
 122248562.858 7  23263133.622
 119851706.936 7  22807028.037
 110716184.138 8  21068590.913
 126570171.979 6  24085494.117
 119693783.244 7  22776979.022
 115518844.165 8  21982512.700
 114820093.313 8  21849543.727
 112865791.839 8  21477647.083
 14  2 15  6 38  0.0000000  0 10G11G14G01G22G19G31G06G27G03G32
 112359512.484 8  21381307.010
 111744276.746 8  21264234.381
 122162295.795 6  23246716.388
 119917902.974 7  22819625.036
 110742819.837 8  21073659.491
 126485859.466 6  24069445.821
 119787898.396 7  22794889.324
 115607220.315 8  21999330.102
 114903911.146 8  21865494.126
 112828961.048 8  21470638.572
 14  2 15  6 38 30.0000000  0 10G11G14G01G22G19G31G06G27G03G32
 112291876.687 8  21368436.140
 111788237.034 8  21272599.415
 122076071.241 7  23230308.877
 119984141.173 7  22832229.708
 110770007.083 8  21078833.071
 126401563.162 6  24053404.725
 119882186.389 7  22812831.523
 115695909.866 8  22016207.883
 114988056.031 8  21881506.363
 112792410.572 8  21463682.715
 14  2 15  6 39  0.0000000  0 10G11G14G01G22G19G31G06G27G03G32
 112224582.122 8  21355630.461
 111832677.880 8  21281056.329
 121989886.777 7  23213908.334
 120050417.200 7  22844841.994
 110797741.473 8  21084111.102
 126317282.536 6  24037367.285
 119976640.746 7  22830806.249
 115784905.974 8  22033142.905
 115072520.907 8  21897579.273
 112756135.966 8  21456779.791
 14  2 15  6 39 30.0000000  0 10G11G14G01G22G19G31G06G27G03G32
 112157630.999 8  21342890.500
 111877597.575 8  21289604.086
 121903744.328 7  23197515.720
 120116731.135 7  22857460.966
 110826022.274 8  21089492.331
 126233020.808 6  24021332.486
 120071259.128 7  22848811.104
 115874206.369 8  22050136.753
 115157303.191 8  21913713.157
 112720137.123 8  21449929.796
 14  2 15  6 40  0.0000000  0 11G11G14G01G22G19G31G20G06G27G03G32
 112091038.255 8  21330218.234
 111923006.240 8  21298245.422
 121817657.297 7  23181134.594
 120183094.274 7  22870089.660
 110854860.310 8  21094980.054
 126148793.024 7  24005306.380
 128434466.890 5  24440267.265
 120166050.933 7  22866849.846
 115963820.094 8  22067189.562
 115242411.518 8  21929908.417
 112684425.380 8  21443134.518
 14  2 15  6 40 30.0000000  0 11G11G14G01G22G19G31G20G06G27G03G32
 112024793.756 8  21317612.317
 111968889.897 8  21306976.825
 121731615.227 7  23164760.551
 120249494.210 7  22882725.512
 110884242.666 8  21100571.405
 126064590.338 7  23989281.446
 128356911.352 5  24425504.960
 120261001.358 7  22884918.025
 116053732.328 8  22084299.237
 115327830.901 8  21946163.566
 112648988.126 8  21436390.691
 14  2 15  6 41  0.0000000  0 11G11G14G01G22G19G31G20G06G27G03G32
 111958907.571 8  21305074.320
 112015254.743 8  21315799.959
 121645627.533 7  23148398.586
 120315938.078 7  22895369.184
 110914175.870 8  21106267.730
 125980423.967 6  23973265.030
 128279453.487 5  24410767.121
 120356115.747 7  22903018.334
 116143948.108 8  22101467.022
 115413566.317 8  21962478.600
 112613832.664 8  21429700.441
 14  2 15  6 41 30.0000000  0 11G11G14G01G22G19G31G20G06G27G03G32
 111893383.290 8  21292605.299
 112062100.300 8  21324713.810
 121559697.170 7  23132045.787
 120382426.962 7  22908021.562
 110944660.291 9  21112068.812
 125896298.119 6  23957255.615
 128202094.150 5  24396046.762
 120451392.698 7  22921148.343
 116234466.047 8  22118692.142
 115499615.986 8  21978853.100
 112578959.835 8  21423064.835
 14  2 15  6 42  0.0000000  0 11G11G14G01G22G19G31G20G06G27G03G32
 111828210.280 8  21280203.513
 112109411.307 8  21333716.866
 121473812.506 7  23115703.019
 120448947.317 7  22920679.889
 110975681.845 8  21117971.674
 125812203.161 6  23941252.328
 128124821.038 5  24381341.255
 120546816.577 7  22939307.655
 116325270.126 8  22135971.584
 115585963.857 8  21995284.940
 112544355.900 8  21416480.252
 14  2 15  6 42 30.0000000  0 11G11G14G01G22G19G31G20G06G27G03G32
 111763397.824 8  21267870.358
 112157193.602 8  21342809.947
 121387982.344 7  23099369.564
 120515506.024 7  22933346.093
 111007246.539 8  21123978.591
 125728149.179 6  23925257.002
 128047641.174 5  24366655.356
 120642391.957 7  22957494.903
 116416364.771 8  22153306.522
 115672614.033 8  22011773.704
 112510027.496 8  21409947.360
 14  2 15  6 43  0.0000000  0 11G11G14G01G22G19G31G20G06G27G03G32
 111698952.208 8  21255606.661
 112205448.933 8  21351992.316
 121302212.531 7  23083048.409
 120582106.658 7  22946019.810
 111039357.513 8  21130089.366
 125644143.561 6  23909273.668
 127970558.598 5  24351986.681
 120738120.308 7  22975711.705
 116507751.400 8  22170696.677
 115759567.636 8  22028320.537
 112475978.248 8  21403467.745
 14  2 15  6 43 30.0000000  0 11G11G14G01G22G19G31G20G06G27G03G32
 111634868.337 8  21243412.174
 112254168.163 8  21361263.884
 121216496.998 7  23066737.034
 120648741.214 7  22958699.717
 111072005.887 8  21136301.869
 125560182.176 6  23893295.995
 127893566.215 5  24337336.284
 120833991.386 7  22993954.064
 116599419.496 8  22188140.281
 115846813.973 8  22044922.793
 112442200.035 8  21397040.099
 14  2 15  6 44  0.0000000  0 11G11G14G01G22G19G31G20G06G27G03G32
 111571151.170 8  21231286.714
 112303352.366 8  21370623.310
 121130840.467 7  23050436.952
 120715412.457 7  22971387.190
 111105193.542 8  21142617.346
 125476271.073 7  23877326.822
 127816667.030 5  24322702.490
 120930005.669 7  23012225.905
 116691369.323 8  22205637.656
 115934353.179 8  22061581.263
 112408695.285 8  21390664.548
 14  2 15  6 44 30.0000000  0 11G11G14G01G22G19G31G20G06G27G03G32
 111507808.197 8  21219233.078
 112353004.836 8  21380071.746
 121045249.683 7  23034150.322
 120782125.048 7  22984081.579
 111138924.412 8  21149035.877
 125392418.410 7  23861369.691
 127739866.133 6  24308088.826
 121026165.735 7  23030524.873
 116783603.243 8  22223189.593
 116022187.393 8  22078295.691
 112375468.565 8  21384341.230
 14  2 15  6 45  0.0000000  0 11G11G14G01G22G19G31G20G06G27G03G32
 111444830.473 8  21207248.604
 112403112.296 8  21389607.162
 120959715.026 7  23017872.889
 120848867.321 7  22996782.692
 111173186.159 8  21155555.762
 125308616.380 7  23845422.670
 127663151.923 5  24293487.912
 121122457.596 7  23048849.019
 116876107.108 8  22240792.248
 116110301.939 8  22095063.325
 112342508.030 8  21378069.031
 14  2 15  6 45 30.0000000  0 11G11G14G01G22G19G31G20G06G27G03G32
 111382230.108 8  21195336.557
 112453682.598 8  21399230.191
 120874248.030 7  23001609.842
 120915648.858 7  23009490.516
 111207987.202 8  21162178.368
 125224878.248 7  23829487.877
 127586534.868 5  24278909.429
 121218888.626 7  23067199.287
 116968887.953 7  22258448.246
 116198703.770 8  22111885.912
 112309822.997 8  21371849.346
 14  2 15  6 46  0.0000000  0 11G11G14G01G22G19G31G20G06G27G03G32
 111320003.704 8  21183495.119
 112504708.249 8  21408939.967
 120788844.537 7  22985357.581
 120982463.616 7  23022205.648
 111243320.545 8  21168902.193
 125141201.285 7  23813565.217
 127510009.578 5  24264346.152
 121315450.324 7  23085575.144
 117061937.186 8  22276155.605
 116287384.473 8  22128761.224
 112277407.052 8  21365680.982
 14  2 15  6 46 30.0000000  0 11G11G14G01G22G19G31G20G06G27G03G32
 111258158.812 8  21171726.457
 112556192.614 8  21418736.920
 120703511.838 7  22969119.212
 121049316.559 7  23034927.079
 111279190.817 8  21175727.910
 125057594.366 7  23797655.924
 127433581.189 5  24249803.621
 121412145.739 7  23103974.779
 117155257.533 8  22293913.349
 116376346.501 8  22145690.631
 112245265.216 8  21359564.984
 14  2 15  6 47  0.0000000  0 11G11G14G01G22G19G31G20G06G27G03G32
 111196696.557 8  21160030.830
 112608132.771 8  21428620.858
 120618250.464 7  22952894.392
 121116206.339 7  23047655.866
 111315595.480 8  21182655.319
 124974059.364 7  23781759.313
 127357248.731 5  24235276.518
 121508971.047 7  23122400.808
 117248845.005 8  22311722.904
 116465585.410 8  22162671.925
 112213395.798 8  21353499.864
 14  2 15  6 47 30.0000000  0 11G11G14G01G22G19G31G20G06G27G03G32
 111135615.514 8  21148407.093
 112660522.894 8  21438590.986
 120533058.295 7  22936682.092
 121183128.674 7  23060390.134
 111352529.118 8  21189683.998
 124890595.744 6  23765876.747
 127281008.493 5  24220769.507
 121605919.899 7  23140849.672
 117342692.963 8  22329581.983
 116555094.350 8  22179705.251
 112181794.308 8  21347486.259
 14  2 15  6 48  0.0000000  0 11G11G14G01G22G19G31G20G06G27G03G32
 111074918.025 8  21136856.599
 112713361.205 8  21448645.391
 120447937.489 7  22920483.908
 121250083.721 7  23073131.793
 111389991.050 8  21196812.687
 124807207.317 7  23750007.716
 127204860.735 5  24206278.787
 121702990.015 7  23159321.106
 117436798.948 8  22347489.425
 116644870.837 8  22196789.043
 112150460.630 8  21341523.771
 14  2 15  6 48 30.0000000  0 11G11G14G01G22G19G31G20G06G27G03G32
 111014610.869 8  21125381.155
 112766650.468 8  21458785.862
 120362894.166 7  22904300.911
 121317075.543 7  23085880.604
 111427984.289 8  21204042.804
 124723901.713 6  23734156.237
 127128810.118 6  24191806.545
 121800183.228 7  23177816.824
 117531164.601 7  22365446.540
 116734916.452 8  22213924.559
 112119398.669 8  21335613.250
 14  2 15  6 49  0.0000000  0 11G11G14G01G22G19G31G20G06G27G03G32
 110954687.029 8  21113978.070
 112820379.149 8  21469010.734
 120277920.915 7  22888131.509
 121384094.692 7  23098633.455
 111466498.134 8  21211371.588
 124640673.106 7  23718317.475
 127052847.692 6  24177352.351
 121897487.812 7  23196333.200
 117625777.877 8  22383450.425
 116825218.655 8  22231108.604
 112088598.586 8  21329751.663
 14  2 15  6 49 30.0000000  0 11G11G14G01G22G19G31G20G06G27G03G32
 110895156.380 8  21102649.408
 112874552.766 8  21479319.203
 120193026.898 7  22871976.499
 121451148.322 7  23111393.300
 111505538.760 8  21218800.771
 124557532.319 7  23702496.165
 126976980.986 6  24162915.400
 121994908.712 7  23214872.382
 117720643.340 8  22401503.754
 116915782.127 8  22248341.869
 112058067.256 8  21323941.783
 14  2 15  6 50  0.0000000  0 11G11G14G01G22G19G31G20G06G27G03G32
 110836019.764 8  21091396.221
 112929168.150 8  21489712.088
 120108212.737 7  22855837.531
 121518235.033 7  23124159.759
 111545103.672 8  21226330.023
 124474481.467 7  23686691.328
 126901208.865 6  24148495.680
 122092442.124 7  23233432.979
 117815757.074 8  22419603.458
 117006602.004 8  22265624.759
 112027802.913 8  21318182.729
 14  2 15  6 50 30.0000000  0 11G11G14G01G22G19G31G20G06G27G03G32
 110777281.179 8  21080218.789
 112984225.141 8  21500188.974
 120023481.997 7  22839713.215
 121585356.227 7  23136932.330
 111585193.237 8  21233958.733
 124391525.118 7  23670905.620
 126825532.979 6  24134095.851
 122190087.248 7  23252013.700
 117911118.013 7  22437750.444
 117097677.803 8  22282955.333
 111997806.719 8  21312474.665
 14  2 15  6 51  0.0000000  0 11G11G14G01G22G19G31G20G06G27G03G32
 110718937.954 8  21069116.189
 113039716.395 8  21510749.212
 119938831.181 7  22823605.113
 121652506.255 7  23149710.132
 111625800.651 8  21241685.894
 124308661.786 7  23655136.875
 126749948.516 6  24119712.417
 122287836.228 7  23270615.398
 118006717.975 7  22455942.245
 117189000.798 8  22300334.262
 111968072.914 8  21306816.425
 14  2 15  6 51 30.0000000  0 11G11G14G01G22G19G31G20G06G27G03G32
 110660997.533 8  21058090.882
 113095645.753 8  21521391.736
 119854267.862 7  22807513.349
 121719691.062 7  23162495.215
 111666930.254 8  21249512.881
 124225900.373 7  23639388.608
 126674461.095 6  24105347.615
 122385692.242 7  23289237.093
 118102559.910 8  22474180.493
 117280573.875 8  22317759.699
 111938606.574 8  21301209.406
 14  2 15  6 52  0.0000000  0 11G11G14G01G22G19G31G20G06G27G03G32
 110603461.046 8  21047141.552
 113152009.636 8  21532117.495
 119769792.467 7  22791438.611
 121786908.819 7  23175287.049
 111708579.247 8  21257438.231
 124143242.943 7  23623659.745
 126599069.360 6  24091000.497
 122483651.330 7  23307878.231
 118198639.701 7  22492464.183
 117372392.893 8  22335231.855
 111909405.875 8  21295652.776
 14  2 15  6 52 30.0000000  0 11G11G14G01G22G19G31G20G06G27G03G32
 110546324.757 8  21036269.286
 113208800.071 8  21542924.831
 119685400.995 7  22775378.657
 121854153.334 7  23188083.163
 111750740.143 8  21265461.659
 124060686.907 7  23607949.776
 126523767.934 6  24076672.002
 122581705.133 7  23326537.052
 118294948.541 8  22510790.924
 117464448.659 8  22352750.000
 111880464.215 8  21290144.952
 14  2 15  6 53  0.0000000  0 11G11G14G01G22G19G31G20G06G27G03G32
 110489598.081 8  21025474.241
 113266022.630 8  21553813.725
 119601102.523 7  22759337.135
 121921431.671 7  23200886.520
 111793418.903 8  21273583.176
 123978242.774 7  23592259.481
 126448563.967 6  24062360.260
 122679858.302 7  23345215.370
 118391490.893 8  22529162.661
 117556745.700 8  22370314.093
 111851788.468 8  21284688.253
 14  2 15  6 53 30.0000000  0 11G11G14G01G22G19G31G20G06G27G03G32
 110433281.719 8  21014757.286
 113323673.266 8  21564784.585
 119516897.325 7  22743314.037
 121988742.028 7  23213694.947
 111836612.391 8  21281802.624
 123895912.378 7  23576592.985
 126373456.119 6  24048067.459
 122778106.807 7  23363910.984
 118488262.345 8  22547577.519
 117649278.986 8  22387922.736
 111823376.366 8  21279281.290
 14  2 15  6 54  0.0000000  0 11G11G14G01G22G19G31G20G06G27G03G32
 110377367.919 8  21004117.273
 113381739.873 8  21575833.865
 119432777.335 7  22727306.302
 122056074.173 7  23226507.819
 111880309.079 8  21290118.216
 123813689.275 7  23560945.599
 126298434.183 6  24033792.056
 122876438.121 7  23382622.912
 118585250.183 7  22566034.138
 117742035.895 8  22405573.878
 111795217.491 8  21273923.015
