     2.11           OBSERVATION DATA    M (MIXED)           RINEX VERSION / TYPE
teqc  2015Jun23                         20230319 09:29:13UTCPGM / RUN BY / DATE
GGN                 JPL                                     OBSERVER / AGENCY
BSHM                                                        MARKER NAME
20705M001                                                   MARKER NUMBER
02330               JAVAD TRE_3 DELTA   3.7.6               REC # / TYPE / VERS
  4395951.1833  3080707.2289  3433498.2609                  APPROX POSITION XYZ
4811A47089          TRM59800.00     SCIS                    ANT # / TYPE
        0.0000        0.0000        0.0000                  ANTENNA: DELTA H/E/N
     1     1                                                WAVELENGTH FACT L1/2
     2    L1    C1                                          # / TYPES OF OBSERV
    30.0000                                                 INTERVAL
    18                                                      LEAP SECONDS
OSX ker:10.10.3|Core i5|gcc 4.2 -m64|OSX ker:10.10+|=+      COMMENT
teqc  2015Jun23                         20230319 09:29:13UTCCOMMENT
JPS2RIN v.2.0.168   gpsops              20190902 010109 UTC COMMENT
L1 is phase on P1, L2 is phase on P2 (GPS & GLONASS)        COMMENT
Phase shifts:                                               COMMENT
G L1  -0.25000  32 G01 G02 G03 G04 G05 G06 G07 G08 G09 G10  COMMENT
                   G11 G12 G13 G14 G15 G16 G17 G18 G19 G20  COMMENT
                   G21 G22 G23 G24 G25 G26 G27 G28 G29 G30  COMMENT
                   G31 G32                                  COMMENT
G L2   0.00000  32 G01 G02 G03 G04 G05 G06 G07 G08 G09 G10  COMMENT
                   G11 G12 G13 G14 G15 G16 G17 G18 G19 G20  COMMENT
                   G21 G22 G23 G24 G25 G26 G27 G28 G29 G30  COMMENT
                   G31 G32                                  COMMENT
G L5   0.25000  12 G01 G03 G06 G08 G09 G10 G24 G25 G26 G27  COMMENT
                   G30 G32                                  COMMENT
R L1  -0.25000  22 R01 R02 R03 R05 R06 R07 R08 R09 R11 R12  COMMENT
                   R13 R14 R15 R16 R17 R18 R19 R20 R21 R22  COMMENT
                   R23 R24                                  COMMENT
R L2   0.00000  22 R01 R02 R03 R05 R06 R07 R08 R09 R11 R12  COMMENT
                   R13 R14 R15 R16 R17 R18 R19 R20 R21 R22  COMMENT
                   R23 R24                                  COMMENT
E L1   0.50000  25 E01 E02 E03 E04 E05 E07 E08 E09 E11 E12  COMMENT
                   E13 E14 E15 E18 E19 E20 E21 E24 E25 E26  COMMENT
                   E27 E30 E31 E33 E36                      COMMENT
E L5   0.25000  24 E01 E02 E03 E04 E05 E07 E08 E09 E11 E12  COMMENT
                   E13 E14 E15 E18 E19 E21 E24 E25 E26 E27  COMMENT
                   E30 E31 E33 E36                          COMMENT
This data is provided as a public service by NASA/JPL.      COMMENT
No warranty is expressed or implied regarding suitability   COMMENT
for use.  For further information, contact:                 COMMENT
Dave Stowers, NASA/JPL m/s 238-600                          COMMENT
4800 Oak Grove Drive, Pasadena CA 91109 USA                 COMMENT
teqc edited: all GLONASS satellites excluded                COMMENT
teqc edited: all Galileo satellites excluded                COMMENT
  2019     9     1     0     0    0.0000000     GPS         TIME OF FIRST OBS
                                                            END OF HEADER
 19  9  1  0  0  0.0000000  0  9G06G12G13G15G17G19G24G28G30
 128492644.716 4  24451336.052
 123618204.141 4  23523761.862
 109700680.365 7  20875344.386
 112731919.941 6  21452170.477
 110625337.532 7  21051300.917
 107702214.347 7  20495049.724
 119331823.736 5  22708091.415
 121639163.026 5  23147162.034
 125799667.117 4  23938875.284
 19  9  1  0  0 30.0000000  0  9G06G12G13G15G17G19G24G28G30
 128411289.060 4  24435855.273
 123543241.536 4  23509496.648
 109759585.136 6  20886553.633
 112739968.061 6  21453701.960
 110653190.415 7  21056601.263
 107675699.886 7  20490003.914
 119250265.020 5  22692571.218
 121708257.748 5  23160309.743
 125879160.896 4  23954003.331
 19  9  1  0  1  0.0000000  0  9G06G12G13G15G17G19G24G28G30
 128329933.518 4  24420374.237
 123468468.699 4  23495267.927
 109818991.826 6  20897858.184
 112748580.409 6  21455340.753
 110681567.59017  21062001.130
 107649810.57017  20485077.523
 119168804.831 5  22677069.803
 121777330.032 4  23173453.618
 125958845.891 4  23969166.330
 19  9  1  0  1 30.0000000  0  9G06G12G13G15G17G19G24G28G30
 128248580.511 4  24404893.734
 123393884.806 4  23481075.011
 109878898.329 6  20909258.027
 112757755.778 6  21457086.837
 110710467.00817  21067500.586
 107624545.69217  20480269.498
 119087443.415 5  22661587.503
 121846378.052 4  23186593.050
 126038721.124 4  23984366.123
 19  9  1  0  2  0.0000000  0  9G06G12G13G15G17G19G24G28G30
 128167234.158 4  24389413.599
 123319490.704 4  23466917.705
 109939303.945 7  20920752.900
 112767494.719 6  21458940.056
 110739888.428 7  21073099.367
 107599907.102 7  20475581.013
 119006184.095 5  22646124.150
 121915402.270 4  23199727.956
 126118787.322 4  23999602.363
 19  9  1  0  2 30.0000000  0  9G06G12G13G15G17G19G24G28G30
 128085895.575 4  24373934.518
 123245285.135 4  23452797.319
 110000204.161 6  20932341.818
 112777794.756 6  21460900.335
 110769828.47517  21078796.796
 107575893.76717  20471011.604
 118925026.420 5  22630679.733
 121984399.905 4  23212857.302
 126199042.149 4  24014874.351
 19  9  1  0  3  0.0000000  0  9G06G12G13G15G17G19G24G28G30
 128004568.623 4  24358458.702
 123171268.794 4  23438712.526
 110061598.764 6  20944024.958
 112788655.985 6  21462966.954
 110800287.163 7  21084592.698
 107552507.043 7  20466561.244
 118843972.456 5  22615255.719
 122053371.490 4  23225982.647
 126279486.035 4  24030182.645
 19  9  1  0  3 30.0000000  0  9G06G12G13G15G17G19G24G28G30
 127923256.758 4  24342985.236
 123097442.657 4  23424664.092
 110123485.901 6  20955801.742
 112800078.048 6  21465140.337
 110831262.884 7  21090487.292
 107529747.997 7  20462230.310
 118763024.737 5  22599852.255
 122122316.363 4  23239102.138
 126360118.952 4  24045525.768
 19  9  1  0  4  0.0000000  0  9G06G12G13G15G17G19G24G28G30
 127841963.072 4  24327516.478
 123023806.449 4  23410651.412
 110185863.507 6  20967671.818
 112812060.440 6  21467420.801
 110862754.391 7  21096479.733
 107507617.743 7  20458018.918
 118682184.368 5  22584468.479
 122191233.834 4  23252217.172
 126440940.647 4  24060905.975
 19  9  1  0  4 30.0000000  0  9G06G12G13G15G17G19G24G28G30
 127760689.302 4  24312050.288
 122950359.232 4  23396675.209
 110248728.431 6  20979634.636
 112824601.327 6  21469807.483
 110894759.096 7  21102570.048
 107486115.699 7  20453927.248
 118601452.181 5  22569105.898
 122260122.554 4  23265325.381
 126521949.368 4  24076321.033
 19  9  1  0  5  0.0000000  0  9G06G12G13G15G17G19G24G28G30
 127679438.884 4  24296589.386
 122877101.595 4  23382734.549
 110312078.894 6  20991689.536
 112837700.399 6  21472300.007
 110927276.30317  21108757.867
 107465243.10117  20449955.510
 118520829.866 6  22553763.968
 122328981.975 4  23278429.558
 126603145.023 4  24091772.886
 19  9  1  0  5 30.0000000  0  9G06G12G13G15G17G19G24G28G30
 127598215.927 4  24281132.478
 122804034.727 4  23368829.785
 110375914.409 6  21003837.021
 112851357.736 6  21474898.942
 110960305.054 7  21115043.156
 107445001.466 7  20446103.570
 118440320.588 5  22538444.246
 122397812.680 4  23291527.591
 126684528.312 4  24107258.917
 19  9  1  0  6  0.0000000  0  9G06G12G13G15G17G19G24G28G30
 127517022.361 4  24265681.040
 122731157.346 4  23354961.530
 110440231.513 6  21016076.245
 112865571.440 6  21477603.373
 110993842.836 7  21121425.132
 107425389.778 7  20442371.654
 118359924.259 6  22523145.005
 122466612.400 4  23304619.703
 126766097.568 4  24122781.417
 19  9  1  0  6 30.0000000  0  9G06G12G13G15G17G19G24G28G30
 127435861.210 4  24250237.906
 122658469.537 4  23341130.507
 110505028.082 6  21028406.747
 112880340.784 6  21480414.156
 111027888.27617  21127903.915
 107406408.89917  20438759.709
 118279643.197 6  22507868.264
 122535380.829 4  23317706.217
 126847852.345 4  24138338.731
 19  9  1  0  7  0.0000000  0  9G06G12G13G15G17G19G24G28G30
 127354736.447 4  24234800.113
 122585972.543 5  23327334.770
 110570303.171 6  21040827.891
 112895665.737 6  21483330.690
 111062440.574 7  21134478.959
 107388060.263 7  20435267.920
 118199478.722 6  22492612.910
 122604118.327 4  23330786.196
 126929793.064 4  24153931.559
 19  9  1  0  7 30.0000000  0  9G06G12G13G15G17G19G24G28G30
 127273651.067 4  24219369.750
 122513666.003 4  23313574.846
 110636054.506 6  21053340.152
 112911545.271 6  21486352.155
 111097498.09117  21141150.209
 107370344.20617  20431896.890
 118119433.354 5  22477380.890
 122672823.881 4  23343860.145
 127011919.261 4  24169559.187
 19  9  1  0  8  0.0000000  0  9G06G12G13G15G17G19G24G28G30
 127192607.089 4  24203948.255
 122441549.522 4  23299851.410
 110702279.101 6  21065942.034
 112927977.652 6  21489479.290
 111133058.048 7  21147916.782
 107353260.391 7  20428645.762
 118039507.409 6  22462171.291
 122741495.951 4  23356927.849
 127094229.333 4  24185223.076
 19  9  1  0  8 30.0000000  0  9G06G12G13G15G17G19G24G28G30
 127111608.048 4  24188534.727
 122369623.435 4  23286164.238
 110768975.052 6  21078634.078
 112944962.493 6  21492711.029
 111169119.66617  21154779.304
 107336809.54617  20425515.347
 117959703.327 6  22446985.082
 122810134.313 4  23369989.196
 127176723.213 4  24200920.689
 19  9  1  0  9  0.0000000  0  9G06G12G13G15G17G19G24G28G30
 127030657.313 4  24173129.956
 122297887.508 5  23272513.817
 110836140.527 6  21091415.164
 112962498.784 6  21496048.221
 111205681.462 7  21161736.760
 107320992.256 7  20422505.253
 117880022.770 6  22431822.099
 122878738.713 4  23383044.866
 127259400.759 4  24216653.072
 19  9  1  0  9 30.0000000  0  9G06G12G13G15G17G19G24G28G30
 126949757.657 4  24157735.748
 122226341.860 5  23258898.720
 110903773.300 6  21104285.334
 112980585.701 6  21499490.217
 111242741.19717  21168788.873
 107305808.75517  20419616.054
 117800467.038 6  22416683.521
 122947308.460 4  23396093.220
 127342261.171 4  24232421.656
 19  9  1  0 10  0.0000000  0  9G06G12G13G15G17G19G24G28G30
 126868912.190 4  24142350.554
 122154986.455 5  23245319.920
 110971871.105 6  21117243.930
 112999221.964 6  21503036.258
 111280297.888 7  21175935.562
 107291259.277 7  20416847.260
 117721037.718 6  22401568.987
 123015842.710 4  23409134.388
 127425303.926 4  24248223.658
 19  9  1  0 10 30.0000000  0  9G06G12G13G15G17G19G24G28G30
 126788123.133 4  24126977.005
 122083821.310 4  23231777.490
 111040430.803 6  21130290.178
 113018405.958 6  21506687.065
 111318348.25717  21183176.593
 107277343.20617  20414199.117
 117641736.143 6  22386477.986
 123084340.345 4  23422169.619
 127508527.620 4  24264059.977
 19  9  1  0 11  0.0000000  0  9G06G12G13G15G17G19G24G28G30
 126707395.443 4  24111615.137
 122012847.220 5  23218272.188
 111109452.211 6  21143424.781
 113038138.098 6  21510441.913
 111356893.415 7  21190511.466
 107264063.057 7  20411672.030
 117562566.032 6  22371412.360
 123152802.357 4  23435197.186
 127591933.610 4  24279931.947
 19  9  1  0 11 30.0000000  0  9G06G12G13G15G17G19G24G28G30
 126626731.090 4  24096265.250
 121942063.499 5  23204803.109
 111178931.826 6  21156646.283
 113058416.538 6  21514300.759
 111395929.772 7  21197939.677
 107251417.503 7  20409265.732
 117483527.379 6  22356371.845
 123221227.122 4  23448217.515
 127675520.169 3  24295838.747
 19  9  1  0 12  0.0000000  0  9G06G12G13G15G17G19G24G28G30
 126546132.370 4  24080928.404
 121871469.779 5  23191368.823
 111248866.879 6  21169954.657
 113079239.449 6  21518263.233
 111435454.928 7  21205461.045
 107239406.532 7  20406980.325
 117404621.485 6  22341356.591
 123289613.538 4  23461231.412
 127759286.050 3  24311778.087
 19  9  1  0 12 30.0000000  0  9G06G12G13G15G17G19G24G28G30
 126465602.879 4  24065603.530
 121801066.242 4  23177971.113
 111319255.375 6  21183349.065
 113100606.193 6  21522329.108
 111475468.194 7  21213075.327
 107228030.594 7  20404815.317
 117325850.489 6  22326367.126
 123357961.685 4  23474237.944
 127843231.079 3  24327753.458
 19  9  1  0 13  0.0000000  0  9G06G12G13G15G17G19G24G28G30
 126385147.412 4  24050292.865
 121730854.293 4  23164610.096
 111390096.795 6  21196829.716
 113122517.307 6  21526498.774
 111515969.14617  21220782.692
 107217291.51517  20402771.702
 117247217.706 6  22311404.263
 123426272.339 4  23487237.078
 127927356.380 4  24343761.397
 19  9  1  0 13 30.0000000  0  9G06G12G13G15G17G19G24G28G30
 126304767.733 4  24034998.549
 121660832.369 5  23151285.800
 111461387.332 6  21210395.504
 113144970.107 6  21530771.514
 111556954.620 7  21228581.639
 107207187.871 7  20400849.026
 117168723.263 6  22296466.526
 123494543.698 4  23500228.995
 128011660.149 4  24359803.837
 19  9  1  0 14  0.0000000  0  9G06G12G13G15G17G19G24G28G30
 126224466.197 4  24019716.383
 121591000.529 5  23137997.504
 111533124.190 6  21224046.676
 113167963.028 6  21535146.917
 111598421.962 7  21236472.860
 107197719.288 7  20399047.314
 117090368.201 6  22281556.175
 123562774.731 4  23513212.845
 128096141.048 4  24375880.132
 19  9  1  0 14 30.0000000  0  9G06G12G13G15G17G19G24G28G30
 126144246.137 4  24004451.374
 121521359.001 5  23124745.223
 111605305.246 6  21237782.575
 113191494.360 6  21539624.705
 111640369.564 7  21244454.871
 107188886.112 7  20397366.562
 117012155.232 6  22266672.673
 123630965.019 4  23526188.598
 128180798.574 4  24391990.674
 19  9  1  0 15  0.0000000  0  9G06G12G13G15G17G19G24G28G30
 126064111.444 4  23989202.328
 121451908.174 5  23111528.530
 111677928.780 6  21251602.222
 113215564.305 6  21544205.115
 111682796.60917  21252528.637
 107180688.87317  20395806.524
 116934086.576 6  22251816.566
 123699114.702 4  23539157.353
 128265632.936 4  24408132.870
 19  9  1  0 15 30.0000000  0  9G06G12G13G15G17G19G24G28G30
 125984065.642 4  23973970.315
 121382648.070 5  23098349.341
 111750992.989 6  21265505.695
 113240172.137 6  21548887.824
 111725701.665 7  21260693.107
 107173128.057 7  20394367.915
 116856163.959 6  22236988.853
 123767223.812 4  23552118.059
 128350644.061 3  24424309.730
 19  9  1  0 16  0.0000000  0  8G06G12G13G15G17G19G24G28
 125904111.022 4  23958755.954
 121313578.169 5  23085205.716
 111824494.528 6  21279492.662
 113265315.761 6  21553672.330
 111769081.950 7  21268948.260
 107166203.083 7  20393050.052
 116778388.135 6  22222187.911
 123835290.839 4  23565070.408
 19  9  1  0 16 30.0000000  0  9G06G12G13G15G17G19G24G28G30
 125824251.094 4  23943558.953
 121244699.135 5  23072098.009
 111898431.578 6  21293562.513
 113290994.029 6  21558558.937
 111812936.33617  21277293.575
 107159914.07117  20391853.042
 116700762.006 6  22207416.618
 123903315.841 4  23578015.453
                  24456763.566
 19  9  1  0 17  0.0000000  0  9G06G12G13G15G17G19G24G28G30
 125744488.734 4  23928380.161
 121176010.563 5  23059027.500
 111972801.510 6  21307714.310
 113317205.337 6  21563546.869
 111857262.018 7  21285728.284
 107154260.809 7  20390777.560
 116623286.784 6  22192673.433
 123971298.406 4  23590951.956
 128606693.155 4  24473041.240
 19  9  1  0 17 30.0000000  0  9G06G12G13G15G17G19G24G28G30
 125664826.697 4  23913220.890
 121107511.586 5  23045992.745
 112047601.541 6  21321948.540
 113343947.984 6  21568635.839
 111902057.349 7  21294252.509
 107149242.706 7  20389822.471
 116545963.681 6  22177959.471
 124039237.018 4  23603880.226
 128692401.622 4  24489351.607
 19  9  1  0 18  0.0000000  0  9G06G12G13G15G17G19G24G28G30
 125585267.371 4  23898081.327
 121039201.966 5  23032993.341
 112122828.260 6  21336263.658
 113371219.871 6  21573825.573
 111947319.671 7  21302865.865
 107144859.012 7  20388988.330
 116468794.216 6  22163274.398
 124107131.313 4  23616799.949
 128778289.881 3  24505693.867
 19  9  1  0 18 30.0000000  0  9G06G12G13G15G17G19G24G28G30
 125505816.336 4  23882962.322
 120971083.410 5  23020030.496
 112198481.805 6  21350660.044
 113399021.838 6  21579115.974
 111993049.140 6  21311567.789
 107141111.935 7  20388275.156
 116391782.413 6  22148619.255
 124174982.835 4  23629712.070
 128864343.546 4  24522069.659
 19  9  1  0 19  0.0000000  0  9G06G12G13G15G17G19G24G28G30
 125426475.043 5  23867863.888
 120903154.821 5  23007104.037
 112274558.182 6  21365137.100
 113427351.029 6  21584506.642
 112039242.262 7  21320357.943
 107137999.592 7  20387682.913
 116314927.866 6  22133994.174
 124242789.599 4  23642614.728
 128950568.337 3  24538476.127
 19  9  1  0 19 30.0000000  0  9G06G12G13G15G17G19G24G28G30
 125347246.820 4  23852788.112
 120835416.311 5  22994213.986
 112351055.311 6  21379693.917
 113456206.523 6  21589997.776
 112085897.37716  21329236.035
 107135521.80917  20387211.477
 116238233.234 6  22119399.994
 124310551.184 4  23655509.018
 129036963.877 4  24554916.608
 19  9  1  0 20  0.0000000  0  9G06G12G13G15G17G19G24G28G30
 125268134.917 5  23837733.767
 120767867.789 5  22981360.440
 112427970.495 6  21394330.327
 113485586.749 6  21595588.656
 112133012.565 7  21338202.103
 107133678.730 7  20386860.774
 116161700.313 6  22104836.293
 124378267.275 4  23668395.730
 129123529.494 4  24571390.543
 19  9  1  0 20 30.0000000  0  9G06G12G13G15G17G19G24G28G30
 125189142.078 5  23822701.416
 120700508.482 5  22968542.089
 112505300.820 6  21409045.782
 113515489.769 6  21601278.718
 112180585.24716  21347254.523
 107132469.86517  20386630.729
 116085330.368 6  22090303.639
 124445937.352 4  23681272.815
 129210264.126 4  24587895.781
 19  9  1  0 21  0.0000000  0  9G06G12G13G15G17G19G24G28G30
 125110272.590 5  23807693.072
 120633339.734 5  22955759.655
 112583044.887 6  21423840.108
 113545915.290 6  21607068.695
 112228614.862 7  21356394.312
 107131895.496 7  20386521.348
 116009126.249 6  22075802.085
 124513562.227 4  23694141.958
 129297168.237 4  24604432.921
 19  9  1  0 21 30.0000000  0  9G06G12G13G15G17G19G24G28G30
 125031529.490 4  23792708.759
 120566361.590 5  22943014.744
 112661200.321 6  21438712.414
 113576861.736 6  21612957.609
 112277099.418 7  21365620.647
 107131955.736 7  20386532.843
 115933089.613 6  22061333.131
 124581141.035 4  23707000.935
 129384241.020 3  24621003.212
 19  9  1  0 22  0.0000000  0  9G06G12G13G15G17G19G24G28G30
 124952914.665 4  23777748.558
 120499572.422 5  22930305.123
 112739763.247 6  21453662.506
 113608326.434 6  21618945.153
 112326035.472 7  21374932.981
 107132648.522 7  20386664.820
 115857221.598 6  22046895.810
 124648672.316 4  23719852.160
 129471480.548 3  24637602.317
 19  9  1  0 22 30.0000000  0  9G06G12G13G15G17G19G24G28G30
 124874432.205 4  23762814.017
 120432973.110 5  22917631.467
 112818732.173 6  21468689.704
 113640308.611 6  21625031.111
 112375422.110 7  21384330.842
 107133974.839 7  20386917.029
 115781524.430 6  22032491.029
 124716156.573 4  23732694.002
 129558886.99714  24654236.491
 19  9  1  0 23  0.0000000  0  9G06G12G13G15G17G19G24G28G30
 124796084.653 4  23747904.876
 120366562.685 5  22904994.433
 112898103.857 6  21483793.599
 113672806.170 6  21631215.330
 112425256.35217  21393813.986
 107135933.51917  20387289.567
 115705999.612 6  22018119.499
 124783593.122 4  23745526.512
 129646459.010 4  24670901.539
 19  9  1  0 23 30.0000000  0  9G06G12G13G15G17G19G24G28G30
 124717875.196 4  23733021.952
 120300341.236 5  22892392.848
 112977875.797 6  21498973.758
 113705817.230 6  21637496.978
 112475536.371 7  21403382.053
 107138524.012 7  20387782.535
 115630648.782 6  22003780.576
 124850981.437 4  23758349.967
 129734195.94513  24687596.782
 19  9  1  0 24  0.0000000  0  9G06G12G13G15G17G19G24G28G30
 124639808.344 5  23718166.384
 120234310.552 5  22879828.119
 113058046.643 6  21514229.911
 113739341.928 6  21643876.306
 112526261.60417  21413034.921
 107141747.07917  20388396.130
 115555475.575 6  21989475.570
 124918322.619 4  23771164.441
 129822098.451 4  24704325.206
 19  9  1  0 24 30.0000000  0  9G06G12G13G15G17G19G24G28G30
 124561885.147 5  23703338.391
 120168467.681 5  22867298.310
 113138611.633 6  21529561.187
 113773376.236 6  21650352.882
 112577427.808 6  21422771.353
 107145600.438 7  20389129.486
 115480479.710 6  21975204.214
 124985614.123 4  23783970.778
 129910163.529 4  24721082.446
 19  9  1  0 25  0.0000000  0  9G06G12G13G15G17G19G24G28G30
 124484109.505 5  23688538.694
 120102813.663 5  22854804.580
 113219569.209 6  21544966.302
 113807919.507 6  21656926.384
 112629033.49617  21432591.684
 107150084.02017  20389982.389
 115405663.637 6  21960967.285
 125052856.411 4  23796766.001
 129998391.282 3  24737871.526
 19  9  1  0 25 30.0000000  0  9G06G12G13G15G17G19G24G28G30
 124406485.369 5  23673766.920
 120037349.134 5  22842346.682
 113300917.627 6  21560446.566
 113842970.980 6  21663596.424
 112681077.366 6  21442495.252
 107155198.135 7  20390955.606
 115331029.861 6  21946764.872
 125120049.795 4  23809552.117
 130086781.794 3  24754692.856
 19  9  1  0 26  0.0000000  0  9G06G12G13G15G17G19G24G28G30
 124329015.227 5  23659024.258
 119972073.125 5  22829925.662
 113382653.245 6  21576000.180
 113878527.950 6  21670362.891
 112733556.65517  21452481.776
 107160941.61517  20392048.519
 115256579.642 6  21932597.217
 125187193.370 4  23822329.200
 130175333.535 3  24771543.519
 19  9  1  0 26 30.0000000  0  9G06G12G13G15G17G19G24G28G30
 124251703.305 5  23644313.013
 119906986.631 5  22817539.693
 113464774.697 6  21591627.647
 113914589.735 6  21677225.249
 112786470.355 6  21462550.497
 107167314.855 7  20393261.535
 115182316.411 6  21918465.621
 125254288.112 4  23835097.106
 130264046.848 3  24788423.978
 19  9  1  0 27  0.0000000  0  9G06G12G13G15G17G19G24G28G30
 124174550.962 4  23629630.475
 119842087.659 5  22805189.552
 113547277.476 6  21607327.453
 113951152.770 6  21684182.592
 112839814.70017  21472701.893
 107174315.43217  20394593.853
 115108239.416 6  21904369.007
 125321331.656 4  23847855.234
 130352919.111 3  24805335.362
 19  9  1  0 27 30.0000000  0  9G06G12G13G15G17G19G24G28G30
 124097563.703 5  23614981.264
 119777378.421 5  22792876.503
 113630161.315 6  21623099.699
 113988218.179 6  21691236.191
 112893589.744 6  21482934.656
 107181945.030 7  20396045.463
 115034354.104 6  21890309.287
 125388326.101 4  23860603.456
 130441951.964 3  24822276.786
 19  9  1  0 28  0.0000000  0  9G06G12G13G15G17G19G24G28G30
 124020741.572 5  23600362.241
 119712856.298 5  22780598.142
 113713420.337 6  21638943.158
 114025780.467 6  21698384.054
 112947790.18816  21493248.969
 107190199.93617  20397616.243
 114960658.223 6  21876285.443
 125455268.286 4  23873341.811
 130531141.463 3  24839250.497
 19  9  1  0 28 30.0000000  0  9G06G12G13G15G17G19G24G28G30
 123944090.351 5  23585775.527
 119648523.028 5  22768355.949
 113797054.670 6  21654858.303
 114063840.509 6  21705626.562
 113002416.67817  21503643.894
 107199081.88117  20399306.565
 114887156.709 6  21862298.727
 125522160.395 4  23886071.829
 130620489.406 3  24856253.430
 19  9  1  0 29  0.0000000  0  9G06G12G13G15G17G19G24G28G30
 123867612.176 5  23571222.682
 119584378.009 5  22756149.631
 113881060.140 6  21670844.121
 114102396.285 6  21712963.490
 113057465.866 6  21514119.470
 107208589.207 7  20401115.532
 114813850.306 6  21848348.953
 125589001.097 4  23898790.666
 130709993.99213  24873285.659
 19  9  1  0 29 30.0000000  0  8G06G12G13G15G17G19G24G28
 123791310.161 5  23556702.447
 119520420.520 5  22743978.583
 113965434.82916  21686900.110
 114141445.251 6  21720394.206
 113112935.389 6  21524675.113
 107218721.01517  20403043.591
 114740740.894 6  21834436.870
 125655790.258 4  23911500.627
 19  9  1  0 30  0.0000000  0  8G06G12G13G15G17G19G24G28
 123715188.423 5  23542216.897
 119456651.69915  22731843.878
 114050176.78416  21703025.739
 114180986.835 6  21727918.852
 113168824.266 7  21535310.489
 107229477.641 7  20405090.661
 114667831.471 6  21820562.490
 125722528.540 4  23924200.310
 19  9  1  0 30 30.0000000  0  8G06G12G13G15G17G19G24G28
 123639248.300 5  23527766.197
 119393069.468 5  22719744.507
 114135281.17816  21719220.651
 114221016.909 6  21735536.437
 113225128.457 6  21546024.767
 107240856.33917  20407255.823
 114595122.157 6  21806726.312
 125789213.92414  23936889.814
 19  9  1  0 31  0.0000000  0  9G06G12G13G15G17G19G24G28G30
 123563493.953 5  23513350.602
 119329674.661 5  22707680.649
 114220746.093 6  21735483.891
 114261534.682 6  21743246.341
 113281846.786 6  21556818.227
 107252857.212 7  20409539.726
 114522615.511 6  21792928.621
 125855847.225 4  23949570.299
 131069570.99913  24941708.284
 19  9  1  0 31 30.0000000  0  9G06G12G13G15G17G19G24G28G30
 123487929.127 5  23498971.403
 119266467.397 5  22695652.529
 114306569.97816  21751816.047
 114302539.047 6  21751049.254
 113338977.472 6  21567689.683
 107265479.60217  20411941.467
 114450314.387 6  21779170.362
 125922428.477 4  23962239.449
 131159847.18813  24958887.739
 19  9  1  0 32  0.0000000  0  9G06G12G13G15G17G19G24G28G30
 123412555.289 5  23484628.231
 119203446.133 5  22683660.177
 114392748.266 6  21768214.968
 114344025.934 6  21758944.139
 113396516.596 6  21578638.751
 107278721.26117  20414461.361
 114378219.015 6  21765451.076
 125988956.044 4  23974899.751
 131250273.990 3  24976093.935
 19  9  1  0 32 30.0000000  0  9G06G12G13G15G17G19G24G28G30
 123337378.811 5  23470322.192
 119140614.179 5  22671703.415
 114479281.293 6  21784681.657
 114385997.104 6  21766931.191
 113454465.367 6  21589665.875
 107292584.689 7  20417099.375
 114306334.932 6  21751771.756
 126055432.681 4  23987550.279
 131340853.781 3  24993330.551
 19  9  1  0 33  0.0000000  0  8G06G12G13G15G17G19G24G28
 123262399.659 5  23456055.026
 119077967.740 5  22659782.397
 114566162.801 6  21801214.597
 114428447.656 6  21775009.184
 113512818.077 6  21600770.254
 107307065.57917  20419855.195
 114234660.398 6  21738132.886
 126121855.255 4  24000189.889
 19  9  1  0 33 30.0000000  0  8G06G12G13G15G17G19G24G28
 123187621.805 5  23441824.809
 119015508.022 5  22647896.520
 114653391.34416  21817813.708
 114471376.085 6  21783178.240
 113571573.227 6  21611950.754
 107322163.558 7  20422728.107
 114163197.977 6  21724533.693
 126188224.591 3  24012819.385
 19  9  1  0 34  0.0000000  0  8G06G12G13G15G17G19G24G28
 123113049.145 5  23427634.185
 118953234.944 5  22636046.864
 114740964.688 6  21834478.377
 114514781.004 6  21791438.012
 113630729.445 6  21623208.033
 107337878.499 7  20425718.404
 114091950.702 6  21710976.095
 126254541.183 3  24025438.518
 19  9  1  0 34 30.0000000  0  8G06G12G13G15G17G19G24G28
 123038683.397 5  23413482.407
 118891146.79015  22624231.531
 114828878.435 6  21851208.089
 114558659.198 6  21799787.899
 113690283.164 6  21634540.668
 107354207.957 7  20428825.871
 114020919.294 6  21697459.223
 126320803.096 3  24038047.687
 19  9  1  0 35  0.0000000  0  8G06G12G13G15G17G19G24G28
 122964529.943 5  23399371.308
 118829246.121 5  22612452.612
 114917132.519 6  21868001.865
 114603010.613 6  21808227.635
 113750234.332 6  21645948.969
 107371153.174 7  20432050.450
 113950108.288 6  21683984.432
 126387012.489 3  24050647.810
 19  9  1  0 35 30.0000000  0  8G06G12G13G15G17G19G24G28
 122890590.299 5  23385301.512
 118767530.760 5  22600708.607
 115005722.257 6  21884860.137
 114647831.694 6  21816756.586
 113810579.075 6  21657432.304
 107388711.322 7  20435391.720
 113879517.090 6  21670551.077
 126453167.569 3  24063235.389
 19  9  1  0 36  0.0000000  0  8G06G12G13G15G17G19G24G28
 122816867.899 5  23371272.608
 118706001.369 5  22588999.566
 115094644.865 6  21901781.351
 114693120.896 6  21825374.513
 113871315.145 6  21668989.716
 107406881.42517  20438849.424
 113809148.474 6  21657160.946
 126519268.643 3  24075814.428
 19  9  1  0 36 30.0000000  0  8G06G12G13G15G17G19G24G28
 122743366.698 5  23357285.936
 118644658.137 5  22577326.599
 115183898.810 6  21918766.028
 114738876.807 6  21834081.846
 113932441.005 6  21680621.912
 107425663.292 7  20442423.505
 113739005.102 6  21643812.686
 126585316.303 3  24088383.264
 19  9  1  0 37  0.0000000  0  8G06G12G13G15G17G19G24G28
 122670088.290 5  23343341.045
 118583499.559 5  22565687.984
 115273479.62916  21935813.019
 114785095.552 6  21842876.635
 113993952.689 6  21692327.026
 107445054.15017  20446113.531
 113669087.471 6  21630507.761
 126651309.042 3  24100940.106
 19  9  1  0 37 30.0000000  0  8G06G12G13G15G17G19G24G28
 122597036.420 5  23329439.990
 118522525.627 5  22554085.770
 115363385.080 6  21952921.146
 114831775.821 6  21851759.893
 114055849.131 6  21704105.329
 107465053.537 7  20449919.218
 113599398.277 6  21617246.184
 126717247.167 2  24113488.378
 19  9  1  0 38  0.0000000  0  8G06G12G13G15G17G19G24G30
 122524216.365 5  23315582.891
 118461738.118 5  22542517.703
 115453614.382 6  21970090.810
 114878917.594 6  21860730.670
 114118129.849 6  21715957.129
 107485662.08117  20453840.680
 113529941.631 6  21604029.112
 132346917.15114  25184781.098
 19  9  1  0 38 30.0000000  0  7G06G12G13G15G17G19G24
 122451628.120 5  23301769.568
 118401134.50915  22530985.245
 115544161.572 6  21987321.610
 114926516.011 6  21869788.465
 114180789.242 6  21727881.013
 107506875.752 7  20457877.588
 113460716.564 6  21590856.239
 19  9  1  0 39  0.0000000  0  7G06G12G13G15G17G19G24
 122379276.724 5  23288001.910
 118340715.822 5  22519488.228
 115635025.679 6  22004612.608
 114974570.206 6  21878932.795
 114243826.717 6  21739876.221
 107528694.96017  20462029.731
 113391726.369 6  21577727.495
 19  9  1  0 39 30.0000000  0  8G06G12G13G15G17G19G24G30
 122307163.207 5  23274279.009
 118280480.262 5  22508025.472
 115726201.774 6  22021962.533
 115023075.967 6  21888163.390
 114307238.152 6  21751943.291
 107551116.571 7  20466296.320
 113322971.280 6  21564644.237
 132624303.23913  25237566.151
 19  9  1  0 40  0.0000000  0  8G06G12G13G15G17G19G24G28
 122235290.981 5  23260602.253
 118220427.618 5  22496597.691
 115817687.377 6  22039371.638
 115072031.601 6  21897479.303
 114371021.570 6  21764080.684
 107574139.30917  20470677.627
 113254453.588 6  21551605.532
                  24176071.262
 19  9  1  0 40 30.0000000  0  7G06G12G13G15G17G19G24
 122163664.763 5  23246971.997
 118160559.122 5  22485204.953
 115909481.164 6  22056839.399
 115121436.61216  21906880.691
 114435176.063 6  21776288.852
 107597763.43817  20475172.910
 113186177.151 6  21538613.202
 19  9  1  0 41  0.0000000  0  8G06G12G13G15G17G19G24G28
 122092288.258 5  23233389.411
 118100875.282 5  22473848.011
 116001581.082 6  22074365.683
 115171289.220 6  21916367.291
 114499699.914 6  21788567.684
 107621988.34317  20479782.752
 113118144.283 6  21525666.709
                  24201031.479
 19  9  1  0 41 30.0000000  0  8G06G12G13G15G17G19G24G28
 122021164.699 5  23219855.448
 118041376.123 5  22462525.809
 116093984.08116  22091949.378
 115221587.311 6  21925938.579
 114564590.82516  21800915.829
 107646812.67517  20484506.942
 113050357.046 6  21512767.231
 127242776.302 3  24213495.560
 19  9  1  0 42  0.0000000  0  8G06G12G13G15G17G19G24G28
 121950295.693 5  23206369.421
 117982059.772 5  22451238.112
 116186686.036 6  22109590.211
 115272327.116 6  21935594.151
 114629844.95516  21813333.344
 107672233.34417  20489344.282
 112982816.394 6  21499914.623
 127308221.478 3  24225949.220
 19  9  1  0 42 30.0000000  0  8G06G12G13G15G17G19G24G28
 121879684.479 5  23192932.666
 117922925.702 5  22439985.070
 116279683.87416  22127287.015
 115323506.442 6  21945333.193
 114695459.922 6  21825819.404
 107698249.293 7  20494294.954
 112915523.946 6  21487109.305
 127373611.657 3  24238392.555
 19  9  1  0 43  0.0000000  0  8G06G12G13G15G17G19G24G28
 121809334.249 5  23179545.496
 117863974.670 5  22428767.390
 116372975.03016  22145040.005
 115375123.066 6  21955155.559
 114761433.331 6  21838373.425
 107724859.13217  20499358.397
 112848482.207 6  21474351.715
 127438946.431 3  24250825.520
 19  9  1  0 43 30.0000000  0  8G06G12G13G15G17G19G24G28
 121739248.469 5  23166208.247
 117805206.345 5  22417584.004
 116466556.85816  22162847.577
 115427175.144 6  21965060.646
 114827763.630 6  21850995.929
 107752061.46717  20504535.019
 112781693.568 6  21461642.169
 127504226.165 3  24263248.073
 19  9  1  0 44  0.0000000  0  7G06G12G13G15G17G19G24
 121669430.661 5  23152922.787
 117746621.340 5  22406435.728
 116560427.166 6  22180710.569
 115479660.918 6  21975048.077
 114894448.50816  21863685.813
 107779855.57017  20509824.297
 112715160.056 6  21448981.214
 19  9  1  0 44 30.0000000  0  7G06G12G13G15G17G19G24
 121599883.237 5  23139688.197
 117688218.484 5  22395321.520
 116654581.963 6  22198627.334
 115532577.480 6  21985118.002
 114961485.208 6  21876442.190
 107808238.97417  20515225.051
 112648883.362 6  21436369.388
 19  9  1  0 45  0.0000000  0  8G06G12G13G15G17G19G24G28
 121530608.377 5  23126505.906
 117629995.984 5  22384242.365
 116749017.721 5  22216598.191
 115585921.292 6  21995268.778
 115028870.216 6  21889265.426
 107837209.29917  20520737.990
 112582864.645 6  21423806.199
 127699736.83313  24300452.171
 19  9  1  0 45 30.0000000  0  8G06G12G13G15G17G19G24G28
 121461610.383 5  23113375.741
 117571955.791 5  22373197.962
 116843732.845 5  22234622.198
 115639690.913 6  22005501.118
 115096602.294 6  21902154.172
 107866766.34217  20526362.347
 112517107.084 6  21411293.191
 127764795.33813  24312832.467
 19  9  1  0 46  0.0000000  0  8G06G12G13G15G17G19G24G28
 121392891.580 5  23100299.353
 117514096.627 5  22362187.617
 116938723.36815  22252698.142
 115693884.007 6  22015813.803
 115164678.340 6  21915108.576
 107896907.46317  20532098.136
 112451612.076 6  21398829.912
 127829798.149 3  24325202.135
 19  9  1  0 46 30.0000000  0  9G02G06G12G13G15G17G19G24G28
 126912612.14914  24150666.754
 121324456.188 5  23087276.537
 117456419.237 6  22351212.060
 117033987.49415  22270825.945
 115748498.934 6  22026206.474
 115233097.134 6  21928128.263
 107927632.37517  20537945.079
 112386382.850 6  21386417.060
 127894746.49413  24337561.200
 19  9  1  0 47  0.0000000  0  8G02G06G12G13G15G17G19G24
 126825431.414 4  24134076.775
 121256307.379 5  23074308.178
 117398923.661 5  22340270.923
 117129522.504 5  22289005.854
 115803533.46916  22036679.268
 115301856.428 6  21941212.825
 107958939.59117  20543902.398
 112321421.294 6  21374055.333
 19  9  1  0 47 30.0000000  0  8G02G06G12G13G15G17G19G24
 126738236.38114  24117484.187
 121188446.923 5  23061394.431
 117341607.39415  22329363.919
 117225324.254 5  22307236.414
 115858983.78916  22047231.140
 115370952.198 6  21954361.317
 107990826.34417  20549970.393
 112256728.006 7  21361744.645
 19  9  1  0 48  0.0000000  0  8G02G06G12G13G15G17G19G24
 126651029.84414  24100889.163
 121120877.982 5  23048536.783
 117284471.670 5  22318491.789
 117321389.97115  22325516.800
 115914847.590 6  22057861.559
 115440382.462 6  21967573.634
 108023290.71017  20556148.070
 112192305.946 6  21349485.387
 19  9  1  0 48 30.0000000  0  8G02G06G12G13G15G17G19G24
 126563814.768 4  24084292.429
 121053603.591 5  23035735.042
 117227516.086 6  22307653.379
 117417716.887 5  22343847.370
 115971122.50616  22068570.383
 115510144.695 6  21980848.769
 108056330.833 7  20562435.599
 112128156.497 6  21337278.176
 19  9  1  0 49  0.0000000  0  8G02G06G12G13G15G17G19G24
 126476594.915 4  24067694.955
 120986628.09015  23022989.949
 117170741.178 6  22296849.460
 117514303.087 5  22362226.903
 116027807.44516  22079357.493
 115580238.167 6  21994187.149
 108089946.86717  20568832.347
 112064283.162 6  21325123.487
 19  9  1  0 49 30.0000000  0  8G02G06G12G13G15G17G19G24
 126389372.097 4  24051097.192
 120919953.696 5  23010302.335
 117114145.798 6  22286079.842
 117611144.765 5  22380655.685
 116084899.403 6  22090221.742
 115650659.099 6  22007587.678
 108124135.94417  20575338.384
 112000687.386 7  21313021.629
 19  9  1  0 50  0.0000000  0  8G02G06G12G13G15G17G19G24
 126302148.149 4  24034499.740
 120853582.724 5  22997672.520
 117057728.86316  22275343.851
 117708238.355 5  22399131.863
 116142394.641 6  22101162.491
 115721404.334 6  22021050.292
 108158895.451 7  20581952.628
 111937370.556 6  21300972.824
 19  9  1  0 50 30.0000000  0  9G02G06G12G13G15G17G19G24G28
 126214927.41014  24017901.598
 120787519.350 5  22985100.481
 117001492.28516  22264642.342
 117805582.15115  22417655.308
 116200292.248 6  22112180.024
 115792472.786 6  22034573.935
 108194224.67017  20588675.618
 111874335.326 7  21288977.630
                  24436056.924
 19  9  1  0 51  0.0000000  0  8G02G06G12G13G15G17G19G24
 126127712.309 4  24001303.955
 120721766.653 5  22972588.135
 116945435.459 5  22253975.196
 117903173.297 5  22436226.234
 116258589.445 6  22123273.460
 115863862.217 6  22048158.893
 108230122.24617  20595506.669
 111811584.519 7  21277036.598
 19  9  1  0 51 30.0000000  0  9G02G06G12G13G15G17G19G24G28
 126040504.54414  23984710.239
 120656326.579 5  22960135.609
 116889556.782 5  22243341.404
 118001007.47115  22454843.910
 116317282.965 6  22134442.498
 115935568.807 6  22061804.379
 108266585.138 7  20602445.224
 111749118.421 6  21265149.562
 128541199.39813  24460577.096
 19  9  1  0 52  0.0000000  0  9G02G06G12G13G15G17G19G24G28
 125953307.55614  23968116.636
 120591202.854 5  22947742.916
 116833856.716 6  22232742.258
 118099082.738 5  22473507.031
 116376370.619 6  22145686.664
 116007590.894 6  22075509.654
 108303612.12517  20609491.598
 111686940.370 7  21253317.479
 128605543.14513  24472821.405
 19  9  1  0 52 30.0000000  0  9G02G06G12G13G15G17G19G24G28
 125866124.61514  23951525.752
 120526398.994 5  22935410.599
 116778335.05616  22222176.992
 118197396.49415  22492215.501
 116435850.764 6  22157005.220
 116079926.767 6  22089274.641
 108341202.15617  20616644.641
 111625051.982 7  21241540.625
 128669832.98113  24485055.749
 19  9  1  0 53  0.0000000  0  9G02G06G12G13G15G17G19G24G28
 125778956.77014  23934939.052
 120461916.250 5  22923140.235
 116722990.489 5  22211645.314
 118295944.168 5  22510968.182
 116495719.185 6  22168397.766
 116152572.286 6  22103098.755
 108379351.22017  20623904.400
 111563454.715 7  21229819.117
 128734067.520 3  24497279.192
 19  9  1  0 53 30.0000000  0  9G02G06G12G13G15G17G19G24G28
 125691808.059 4  23918354.234
 120397758.813 5  22910931.401
 116667824.283 6  22201147.323
 118394724.097 5  22529765.062
 116555974.502 6  22179864.060
 116225525.930 6  22116981.359
 108418058.92317  20631269.915
 111502151.456 7  21218153.494
 128798247.756 3  24509492.041
 19  9  1  0 54  0.0000000  0  9G02G06G12G13G15G17G19G24G28
 125604681.77014  23901774.363
 120333930.343 5  22898785.532
 116612836.10416  22190683.378
 118493733.74015  22548607.028
 116616614.869 6  22191403.744
 116298786.064 6  22130922.442
 108457323.73717  20638741.888
 111441144.816 7  21206544.177
 128862374.65413  24521694.460
 19  9  1  0 54 30.0000000  0  9G02G06G12G13G15G17G19G24G28
 125517579.93014  23885200.262
 120270433.009 5  22886702.576
 116558025.335 6  22180252.929
 118592969.541 5  22567490.487
 116677636.767 6  22203015.727
 116372349.503 6  22144920.896
 108497143.06817  20646319.023
 111380436.294 7  21194991.469
 128926447.530 3  24533887.189
 19  9  1  0 55  0.0000000  0  9G02G06G12G13G15G17G19G24G28
 125430504.46114  23868630.537
 120207268.928 5  22874683.042
 116503390.839 6  22169856.950
 118692427.575 5  22586416.523
 116739036.723 6  22214699.852
 116446213.139 6  22158976.669
 108537514.10217  20654001.366
 111320026.965 7  21183495.951
 128990465.753 3  24546070.360
 19  9  1  0 55 30.0000000  0  9G02G06G12G13G15G17G19G24G28
 125343458.12514  23852065.921
 120144441.34715  22862726.910
 116448932.621 6  22159493.711
 118792105.147 5  22605384.850
 116800812.38916  22226455.366
 116520374.506 6  22173089.231
 108578435.10917  20661788.595
 111259919.447 7  21172058.186
 129054429.66213  24558242.097
 19  9  1  0 56  0.0000000  0  9G02G06G12G13G15G17G19G24G28
 125256444.82514  23835508.848
 120081954.058 5  22850836.706
 116394651.435 6  22149164.578
 118892000.328 5  22624394.072
 116862962.44816  22238282.166
 116594832.170 6  22187257.650
 108619905.17417  20669680.257
 111200116.498 7  21160678.108
 129118340.24213  24570402.987
 19  9  1  0 56 30.0000000  0  9G02G06G12G13G15G17G19G24G28
 125169466.435 4  23818956.985
 120019809.161 5  22839010.035
 116340546.039 6  22138868.046
 118992109.080 5  22643444.101
 116925483.00716  22250179.290
 116669582.611 6  22201482.545
 108661921.04817  20677675.489
 111140618.956 7  21149356.114
 129182196.889 3  24582554.224
 19  9  1  0 57  0.0000000  0  9G02G06G12G13G15G17G19G24G28
 125082527.188 4  23802412.806
 119958011.128 5  22827250.685
 116286617.735 6  22128605.931
 119092430.129 5  22662534.411
 116988373.116 6  22262147.071
 116744625.043 6  22215762.677
 108704482.78717  20685774.548
 111081431.403 7  21138093.227
 129246001.409 2  24594696.334
 19  9  1  0 57 30.0000000  0  8G02G06G12G13G15G17G19G24
 124995628.72114  23785876.936
 119896561.692 6  22815556.882
 116232864.596 6  22118377.279
 119192959.245 5  22681664.566
 117051629.131 6  22274184.015
 116819955.90816  22230097.623
 108747586.76317  20693976.988
 111022553.613 7  21126888.976
 19  9  1  0 58  0.0000000  0  8G02G06G12G13G15G17G19G24
 124908775.16814  23769349.353
 119835464.715 5  22803931.224
 116179287.946 6  22108181.741
 119293694.545 5  22700833.778
 117115249.052 6  22286290.312
 116895573.52816  22244486.942
 108791232.20217  20702282.402
 110963989.153 7  21115744.440
 19  9  1  0 58 30.0000000  0  8G02G06G12G13G15G17G19G24
 124821966.451 4  23752829.990
 119774720.68116  22792371.544
 116125885.321 6  22098019.707
 119394630.383 5  22720041.476
 117179228.162 6  22298464.993
 116971473.246 6  22258930.311
 108835413.971 7  20710689.887
 110905737.475 7  21104659.614
 19  9  1  0 59  0.0000000  0  8G02G06G12G13G15G17G19G24
 124735207.18214  23736320.239
 119714334.419 5  22780879.994
 116072657.328 6  22087890.406
 119495765.88515  22739287.162
 117243565.553 6  22310708.421
 117047654.46416  22273427.301
 108880132.56917  20719199.594
 110847802.160 7  21093634.861
 19  9  1  0 59 30.0000000  0  8G02G06G12G13G15G17G19G24
 124648500.740 4  23719819.885
 119654309.18515  22769457.680
 116019605.38616  22077795.301
 119597098.441 5  22758569.373
 117308259.061 6  22323018.893
 117124115.409 6  22287977.274
 108925386.20917  20727811.235
 110790186.823 7  21082670.964
 19  9  1  1  0  0.0000000  0  8G02G06G12G13G15G17G19G24
 124561848.88314  23703330.682
 119594646.85015  22758104.477
 115966727.804 6  22067733.373
 119698624.25115  22777888.998
 117373305.27916  22335396.787
 117200852.47816  22302579.875
 108971171.444 7  20736523.947
 110732891.825 7  21071767.976
 19  9  1  1  0 30.0000000  0  8G02G06G12G13G15G17G19G24
 124475255.10214  23686852.838
 119535350.741 6  22746820.911
 115914024.562 6  22057703.998
 119800340.99915  22797245.203
 117438701.450 6  22347841.312
 117277863.63316  22317234.505
 109017486.693 7  20745337.358
 110675919.800 7  21060926.829
 19  9  1  1  1  0.0000000  0  8G02G06G12G13G15G17G19G24
 124388721.054 4  23670386.018
 119476422.814 6  22735607.255
 115861494.389 6  22047707.666
 119902244.165 5  22816637.548
 117504444.196 6  22360351.761
 117355145.51816  22331940.742
 109064328.88417  20754251.096
 110619271.487 7  21050146.972
 19  9  1  1  1 30.0000000  0  8G02G06G12G13G15G17G19G24
 124302250.772 4  23653931.003
 119417867.106 6  22724464.633
 115809138.459 6  22037744.802
 120004332.400 5  22836063.621
 117570532.021 6  22372927.977
 117432696.76716  22346698.062
 109111697.24017  20763264.960
 110562950.640 7  21039429.336
 19  9  1  1  2  0.0000000  0  8G02G06G12G13G15G17G19G24
 124215845.623 4  23637489.081
 119359685.006 5  22713392.873
 115756954.964 6  22027814.748
 120106601.638 5  22855525.533
 117636960.380 6  22385568.916
 117510513.430 6  22361506.375
 109159588.02416  20772378.344
 110506957.916 7  21028774.407
 19  9  1  1  2 30.0000000  0  8G02G06G12G13G15G17G19G24
 124129508.894 4  23621058.778
 119301879.495 6  22702392.982
 115704944.153 6  22017917.197
 120209047.904 5  22875020.050
 117703727.477 6  22398274.425
 117588593.648 6  22376364.457
 109207999.09017  20781590.610
 110451295.066 7  21018182.076
 19  9  1  1  3  0.0000000  0  8G02G06G12G13G15G17G19G24
 124043244.716 4  23604644.190
 119244455.418 5  22691465.239
 115653107.754 6  22008052.681
 120311671.639 5  22894548.661
 117770832.300 6  22411043.701
 117666936.452 6  22391272.461
 109256930.41617  20790902.020
 110395966.536 7  21007653.408
 19  9  1  1  3 30.0000000  0  8G02G06G12G13G15G17G19G24
 123957053.446 4  23588242.352
 119187412.523 5  22680610.140
 115601441.955 6  21998221.327
 120414466.207 5  22914109.578
 117838269.182 6  22423876.302
 117745536.827 6  22406229.724
 109306376.39817  20800311.163
 110340971.534 7  20997188.063
 19  9  1  1  4  0.0000000  0  8G02G06G12G13G15G17G19G24
 123870940.847 4  23571855.505
 119130756.657 5  22669829.156
 115549950.269 6  21988422.735
 120517431.291 5  22933703.400
 117906038.488 6  22436772.586
 117824395.289 6  22421236.049
 109356338.05016  20809818.552
 110286314.526 7  20986787.276
 19  9  1  1  4 30.0000000  0  8G02G06G12G13G15G17G19G24
 123784907.55414  23555483.209
 119074488.57216  22659121.905
 115498629.648 6  21978656.681
 120620562.843 5  22953328.626
 117974134.99716  22449731.022
 117903507.272 6  22436290.384
 109406811.17717  20819423.309
 110231996.342 7  20976450.717
 19  9  1  1  5  0.0000000  0  8G02G06G12G13G15G17G19G24
 123698958.027 4  23539128.232
 119018612.594 5  22648488.329
 115447482.131 6  21968923.764
 120723858.678 5  22972985.294
 118042557.95516  22462751.243
 117982871.998 6  22451393.287
 109457794.99817  20829125.140
 110178019.799 7  20966179.468
 19  9  1  1  5 30.0000000  0  8G02G06G12G13G15G17G19G24
 123613093.24114  23522788.562
 118963129.60516  22637930.709
 115396505.542 6  21959223.324
 120827314.35315  22992672.114
 118111302.15216  22475833.223
 118062485.206 6  22466542.816
 109509285.43017  20838923.323
 110124385.500 7  20955973.259
 19  9  1  1  6  0.0000000  0  8G02G06G12G13G15G17G19G24
 123527316.522 4  23506466.519
 118908042.758 5  22627448.129
 115345699.615 6  21949555.214
 120930927.468 5  23012388.889
 118180366.026 6  22488975.776
 118142344.721 6  22481739.893
 109561280.539 6  20848817.817
 110071095.816 7  20945832.547
 19  9  1  1  6 30.0000000  0  8G02G06G12G13G15G17G19G24
 123441632.32814  23490160.921
 118853356.378 6  22617041.790
 115295066.125 6  21939920.015
 121034696.13015  23032135.364
 118249748.024 6  22502178.628
 118222449.860 6  22496983.433
 109613779.58917  20858807.884
 110018154.710 7  20935758.042
 19  9  1  1  7  0.0000000  0  8G02G06G12G13G15G17G19G24
 123356041.756 4  23473873.621
 118799071.539 5  22606711.763
 115244602.567 6  21930316.807
 121138615.960 5  23051910.146
 118319443.757 6  22515440.633
 118302796.61316  22512272.837
 109666778.14217  20868893.498
 109965562.126 7  20925750.094
 19  9  1  1  7 30.0000000  0  8G02G06G12G13G15G17G19G24
 123270548.44114  23457604.733
 118745191.593 6  22596458.127
 115194309.956 6  21920746.601
 121242684.02015  23071714.573
 118389451.297 6  22528763.141
 118383383.304 6  22527607.872
 109720275.233 7  20879073.368
 109913321.236 7  20915808.869
 19  9  1  1  8  0.0000000  0  8G02G06G12G13G15G17G19G24
 123185154.848 5  23441355.286
 118691718.903 5  22586282.640
 115144187.721 6  21911209.007
 121346898.357 5  23091545.116
 118459767.242 6  22542143.565
 118464206.675 6  22542988.255
 109774267.97716  20889347.713
 109861433.106 7  20905934.952
 19  9  1  1  8 30.0000000  0  8G02G06G12G13G15G17G19G24
 123099864.546 5  23425124.915
 118638657.024 6  22576185.617
 115094236.448 6  21901703.556
 121451256.15815  23111404.698
 118530389.968 6  22555582.666
 118545265.54416  22558413.013
 109828754.90217  20899716.265
 109809900.720 7  20896128.795
 19  9  1  1  9  0.0000000  0  8G02G06G12G13G15G17G19G24
 123014678.155 5  23408914.184
 118586006.560 5  22566166.714
 115044453.751 6  21892229.853
 121555752.806 5  23131289.302
 118601314.190 6  22569079.054
 118626555.394 6  22573882.035
 109883731.391 6  20910178.218
 109758724.307 7  20886390.047
 19  9  1  1  9 30.0000000  0  8G02G06G12G13G15G17G19G24
 122929600.946 5  23392724.531
 118533772.373 6  22556226.655
 114994841.334 6  21882789.067
 121660387.060 5  23151199.983
 118672539.611 6  22582633.023
 118708076.040 6  22589394.665
 109939197.238 7  20920733.015
 109707908.240 7  20876720.064
 19  9  1  1 10  0.0000000  0  8G02G06G12G13G15G17G19G24
 122844634.639 5  23376556.338
 118481955.749 6  22546366.309
 114945397.840 6  21873380.388
 121765154.81514  23171136.917
 118744062.163 6  22596243.168
 118789823.591 6  22604950.732
 109995148.77916  20931380.400
 109657453.173 7  20867119.092
 19  9  1  1 10 30.0000000  0  8G02G06G12G13G15G17G19G24
 122759782.462 5  23360409.435
 118430559.843 6  22536586.325
 114896123.971 6  21864003.668
 121870053.805 5  23191098.671
 118815879.459 6  22609909.430
 118871796.253 6  22620549.850
 110051584.149 7  20942119.380
 109607361.164 7  20857586.595
 19  9  1  1 11  0.0000000  0  8G02G06G12G13G15G17G19G24
 122675046.912 5  23344284.908
 118379586.975 6  22526886.421
 114847018.484 6  21854659.210
 121975080.604 4  23211084.930
 118887987.954 6  22623631.660
 118953991.42816  22636191.460
 110108500.63716  20952950.037
 109557634.468 7  20848123.822
 19  9  1  1 11 30.0000000  0  8G02G06G12G13G15G17G19G24
 122590431.289 5  23328183.111
 118329040.254 6  22517267.217
 114798082.29016  21845346.722
 122080232.249 5  23231094.307
 118960386.063 6  22637408.074
 119036407.04216  22651874.157
 110165896.21216  20963872.089
 109508275.378 7  20838731.307
 19  9  1  1 12  0.0000000  0  8G02G06G12G13G15G17G19G24
 122505938.069 5  23312104.102
 118278921.866 6  22507730.444
 114749314.687 6  21836067.025
 122185506.385 4  23251127.416
 119033069.999 6  22651239.560
 119119040.64116  22667599.242
 110223768.05216  20974884.976
 109459285.638 7  20829408.875
 19  9  1  1 12 30.0000000  0  8G02G06G12G13G15G17G19G24
 122421569.897 5  23296049.734
 118229233.945 6  22498275.143
 114700714.663 6  21826818.320
 122290899.247 4  23271182.324
 119106036.927 6  22665124.752
 119201888.88016  22683364.251
 110282113.29216  20985987.589
 109410666.309 7  20820156.929
 19  9  1  1 13  0.0000000  0  8G02G06G12G13G15G17G19G24
 122337330.290 5  23280019.289
 118179980.013 5  22488902.358
 114652282.367 6  21817602.054
 122396409.196 4  23291260.831
 119179284.852 6  22679063.564
 119284950.59616  22699170.513
 110340930.666 6  20997180.486
 109362420.740 7  20810976.015
 19  9  1  1 13 30.0000000  0  8G02G06G12G13G15G17G19G24
 122253220.80115  23264013.820
 118131161.146 6  22479612.565
 114604017.472 6  21808417.712
 122502031.033 4  23311360.323
 119252809.050 6  22693054.957
 119368222.10816  22715016.432
 110400216.040 7  21008462.176
 109314549.293 7  20801866.474
 19  9  1  1 14  0.0000000  0  8G02G06G12G13G15G17G19G24
 122169246.060 5  23248034.045
 118082781.713 6  22470405.788
 114555920.879 6  21799265.345
 122607764.084 4  23331480.404
 119326609.066 6  22707098.230
 119451702.741 6  22730902.626
 110459968.64816  21019832.857
 109267056.224 7  20792828.605
 19  9  1  1 14 30.0000000  0  8G02G06G12G13G15G17G19G24
 122085406.811 5  23232080.315
 118034842.019 6  22461283.518
 114507990.349 6  21790144.202
 122713603.446 4  23351620.569
 119400679.833 6  22721193.664
 119535387.872 6  22746827.292
 110520183.80217  21031291.259
 109219940.416 7  20783862.791
 19  9  1  1 15  0.0000000  0  8G02G06G12G13G15G17G19G24
 122001707.876 5  23216152.736
 117987346.556 6  22452245.146
 114460227.612 6  21781055.210
 122819547.972 4  23371780.990
 119475020.462 6  22735340.132
 119619277.160 6  22762790.874
 110580861.059 6  21042837.347
 109173206.835 7  20774969.795
 19  9  1  1 15 30.0000000  0  8G02G06G12G13G15G17G19G24
 121918150.412 5  23200252.032
 117940296.255 6  22443292.225
 114412631.109 6  21771997.804
 122925593.612 4  23391960.936
 119549626.339 6  22749537.196
 119703366.78716  22778792.522
 110641996.414 7  21054471.145
 109126855.592 7  20766149.113
 19  9  1  1 16  0.0000000  0  8G02G06G12G13G15G17G19G24
 121834738.732 5  23184379.733
 117893694.846 6  22434424.060
 114365201.956 6  21762972.312
 123031738.215 4  23412159.326
 119624495.640 6  22763784.491
 119787655.555 6  22794832.200
 110703588.738 6  21066192.107
 109080889.672 7  20757402.458
 19  9  1  1 16 30.0000000  0  9G02G06G12G13G15G17G19G24G28
 121751474.79215  23168534.594
 117847544.005 6  22425641.897
 114317938.648 6  21753978.666
 123137978.062 4  23432376.551
 119699625.105 6  22778081.033
 119872140.681 6  22810909.111
 110765634.49716  21077998.483
 109035310.044 7  20748728.909
 131695046.83713  25060734.286
 19  9  1  1 17  0.0000000  0  8G02G06G12G13G15G17G19G24
 121668361.54015  23152718.513
 117801845.883 6  22416945.879
 114270840.869 6  21745016.018
 123244310.116 4  23452610.291
 119775011.715 6  22792426.905
 119956819.009 6  22827022.920
 110828130.93716  21089891.556
 108990119.192 7  20740129.291
 19  9  1  1 17 30.0000000  0  8G02G06G12G13G15G17G19G24
 121585402.810 5  23136931.822
 117756604.203 6  22408336.387
 114223910.233 6  21736085.657
 123350732.946 4  23472862.754
 119850653.681 6  22806821.308
 120041689.550 6  22843173.473
 110891076.659 6  21101869.271
 108945319.684 7  20731604.227
 19  9  1  1 18  0.0000000  0  8G02G06G12G13G15G17G19G24
 121502600.39315  23121175.535
 117711820.396 6  22399814.445
 114177144.633 6  21727186.306
 123457242.622 4  23493131.372
 119926547.207 6  22821262.733
 120126749.311 6  22859359.759
 110954468.291 6  21113932.576
 108900912.640 7  20723153.821
 19  9  1  1 18 30.0000000  0  8G02G06G12G13G15G17G19G24
 121419956.05015  23105448.951
 117667495.495 6  22391379.652
 114130543.722 6  21718318.340
 123563834.824 4  23513414.596
 120002687.944 6  22835752.210
 120211994.50516  22875581.029
 111018301.973 6  21126079.936
 108856898.580 7  20714778.099
 19  9  1  1 19  0.0000000  0  8G02G06G12G13G15G17G19G24
 121337475.072 5  23089753.139
 117623634.396 6  22383033.049
 114084108.481 6  21709482.273
 123670509.167 4  23533714.454
 120079075.636 6  22850288.137
 120297425.219 6  22891838.016
 111082577.581 6  21138311.241
 108813282.368 7  20706478.402
 19  9  1  1 19 30.0000000  0  8G02G06G12G13G15G17G19G24
 121255158.947 5  23074088.916
 117580238.119 6  22374775.442
 114037838.598 6  21700677.537
 123777261.429 4  23554028.302
 120155705.715 6  22864869.919
 120383037.814 6  22908129.505
 111147291.14916  21150625.546
 108770064.204 7  20698254.138
 19  9  1  1 20  0.0000000  0  8G02G06G12G13G15G17G19G24
 121173008.99815  23058456.086
 117537307.498 6  22366605.416
 113991731.987 6  21691903.271
 123884087.259 4  23574356.368
 120232574.487 5  22879498.055
 120468828.529 5  22924455.044
 111212438.761 6  21163022.738
 108727244.472 7  20690105.976
 19  9  1  1 20 30.0000000  0  8G02G06G12G13G15G17G19G24
 121091031.47715  23042856.841
 117494848.323 6  22358525.921
 113945791.645 6  21683161.152
 123990987.138 4  23594698.642
 120309682.269 5  22894171.008
 120554798.362 5  22940814.496
 111278021.094 6  21175502.645
 108684828.479 7  20682034.408
 19  9  1  1 21  0.0000000  0  8G02G06G12G13G15G17G19G24
 121009226.458 5  23027289.397
 117452859.858 6  22350535.722
 113900014.716 6  21674450.160
 124097955.674 4  23615053.944
 120387023.236 5  22908888.468
 120640942.220 5  22957207.402
 111344032.544 6  21188063.960
 108642815.586 7  20674039.549
 19  9  1  1 21 30.0000000  0  8G02G06G12G13G15G17G19G24
 120927597.433 5  23011756.154
 117411344.925 6  22342635.776
 113854401.392 6  21665770.377
 124204989.813 4  23635421.826
 120464594.387 5  22923649.743
 120727258.002 5  22973632.917
 111410471.33516  21200706.984
 108601207.556 7  20666121.625
 19  9  1  1 22  0.0000000  0  9G02G06G12G13G15G17G19G24G28
 120846148.636 5  22996256.770
 117370307.349 6  22334826.405
 113808953.369 6  21657121.634
 124312088.720 4  23655802.867
 120542395.072 5  22938454.861
 120813745.555 5  22990090.418
 111477336.12516  21213430.788
 108560008.604 7  20658282.051
                  25189795.924
 19  9  1  1 22 30.0000000  0  8G02G06G12G13G15G17G19G24
 120764881.16415  22980792.262
 117329747.989 6  22327108.651
 113763668.642 6  21648504.430
 124419247.638 4  23676194.381
 120620421.137 5  22953302.642
 120900400.878 5  23006580.865
 111544622.824 6  21226235.297
 108519218.499 7  20650519.944
 19  9  1  1 23  0.0000000  0  8G02G06G12G13G15G17G19G24
 120683798.094 5  22965362.896
 117289669.013 6  22319481.140
 113718547.122 6  21639917.871
 124526464.316 4  23696596.852
 120698669.232 5  22968193.181
 120987221.334 5  23023101.599
 111612328.80816  21239119.396
 108478839.077 7  20642836.056
 19  9  1  1 23 30.0000000  0  8G02G06G12G13G15G17G19G24
 120602904.14215  22949969.129
 117250074.426 6  22311947.210
 113673590.117 6  21631363.237
 124633737.589 4  23717009.746
 120777138.281 5  22983125.114
 121074206.398 5  23039654.563
 111680453.155 6  21252083.264
 108438874.978 7  20635230.967
 19  9  1  1 24  0.0000000  0  8G02G06G12G13G15G17G19G24
 120522199.665 5  22934612.142
 117210963.879 6  22304504.624
 113628795.413 6  21622838.908
 124741061.776 4  23737432.692
 120855822.941 5  22998097.575
 121161351.700 5  23056237.477
 111748990.793 6  21265125.136
 108399324.526 7  20627704.715
 19  9  1  1 24 30.0000000  0  8G02G06G12G13G15G17G19G24
 120441688.591 5  22919290.849
 117172340.664 6  22297154.664
 113584163.921 6  21614345.877
 124848435.253 4  23757866.317
 120934721.437 5  23013112.235
 121248656.15815  23072851.206
 111817940.605 6  21278246.133
 108360191.181 7  20620257.904
 19  9  1  1 25  0.0000000  0  8G02G06G12G13G15G17G19G24
 120361373.579 5  22904007.158
 117134206.877 6  22289898.188
 113539695.575 6  21605883.649
 124955855.496 3  23778307.404
 121013830.504 5  23028165.928
 121336116.792 5  23089494.470
 111887299.420 6  21291444.628
 108321476.573 7  20612890.974
 19  9  1  1 25 30.0000000  0  8G02G06G12G13G15G17G19G24
 120281255.577 5  22888761.087
 117096562.727 6  22282734.840
 113495387.908 6  21597452.362
 125063317.181 4  23798757.232
 121093145.950 5  23043258.750
 121423729.978 5  23106166.724
 111957062.486 6  21304720.067
 108283180.042 7  20605603.385
 19  9  1  1 26  0.0000000  0  8G02G06G12G13G15G17G19G24
 120201340.760 5  22873554.328
 117059413.568 6  22275665.422
 113451244.149 6  21589051.945
 125170820.708 4  23819214.272
 121172667.827 5  23058391.026
 121511496.677 5  23122867.897
 112027230.86716  21318072.649
 108245307.602 7  20598396.201
 19  9  1  1 26 30.0000000  0  8G02G06G12G13G15G17G19G24
 120121630.183 5  22858385.268
 117022759.748 6  22268690.130
 113407262.563 6  21580682.530
 125278361.716 4  23839678.143
 121252391.321 5  23073562.626
 121599412.663 5  23139598.147
 112097799.841 6  21331501.178
 108207858.837 7  20591269.854
 19  9  1  1 27  0.0000000  0  8G02G06G12G13G15G17G19G24
 120042125.62315  22843256.566
 116986602.260 6  22261810.001
 113363441.737 6  21572343.678
 125385936.687 4  23860148.497
 121332312.403 5  23088771.218
 121687474.609 5  23156355.824
 112168765.749 6  21345005.829
 108170834.276 7  20584224.379
 19  9  1  1 27 30.0000000  0  8G02G06G12G13G15G17G19G24
 119962832.013 5  22828167.060
 116950945.317 6  22255024.720
 113319783.771 6  21564035.712
 125493543.980 3  23880626.470
 121412430.486 5  23104016.639
 121775682.653 5  23173141.172
 112240128.066 6  21358585.481
 108134237.986 7  20577260.510
 19  9  1  1 28  0.0000000  0  8G02G06G12G13G15G17G19G24
 119883751.456 5  22813119.017
 116915790.221 6  22248335.069
 113276287.573 6  21555758.562
 125601180.906 3  23901107.808
 121492741.861 5  23119299.502
 121864033.554 5  23189954.324
 112311883.33716  21372240.109
 108098071.054 7  20570378.011
 19  9  1  1 28 30.0000000  0  8G02G06G12G13G15G17G19G24
 119804886.95315  22798111.168
 116881139.397 6  22241740.941
 113232953.390 6  21547512.275
 125708845.175 3  23921596.376
 121573244.178 5  23134618.959
 121952525.629 5  23206793.477
 112384029.401 6  21385969.211
 108062335.947 7  20563578.149
 19  9  1  1 29  0.0000000  0  8G02G06G12G13G15G17G19G24
 119726240.516 5  22783145.032
 116846993.691 6  22235243.005
 113189780.544 6  21539296.960
 125816532.727 3  23942088.460
 121653933.456 5  23149973.679
 122041155.614 5  23223659.076
 112456562.302 6  21399771.697
 108027032.794 7  20556860.016
 19  9  1  1 29 30.0000000  0  8G02G06G12G13G15G17G19G24
 119647815.876 5  22768222.197
 116813356.012 6  22228842.260
 113146769.478 6  21531112.288
 125924241.383 3  23962584.309
 121734807.511 5  23165363.229
 122129922.446 5  23240550.638
 112529480.15716  21413647.226
 107992164.759 7  20550224.829
 19  9  1  1 30  0.0000000  0  8G02G06G12G13G15G17G19G24
 119569614.096 5  22753340.555
 116780226.841 6  22222538.053
 113103918.519 6  21522958.430
 126031966.770 3  23983084.193
 121815862.078 5  23180787.180
 122218822.125 5  23257467.862
 112602778.952 6  21427595.624
 107957731.641 7  20543672.481
 19  9  1  1 30 30.0000000  0  8G02G06G12G13G15G17G19G24
 119491639.746 5  22738502.420
 116747609.468 6  22216331.236
 113061228.878 6  21514834.190
 126139708.002 3  24003586.257
 121897095.432 5  23196245.432
 122307853.60215  23274409.917
 112676457.414 6  21441615.930
 107923736.643 7  20537203.542
 19  9  1  1 31  0.0000000  0  8G02G06G12G13G15G17G19G24
 119413894.88715  22723708.054
 116715505.329 6  22210221.861
 113018700.183 6  21506741.399
 126247460.899 3  24024092.384
 121978504.515 5  23211737.233
 122397014.404 5  23291376.653
 112750512.463 6  21455708.288
 107890181.167 7  20530818.045
 19  9  1  1 31 30.0000000  0  8G02G06G12G13G15G17G19G24
 119336383.17515  22708958.263
 116683917.285 6  22204210.942
 112976333.105 6  21498679.173
 126355224.333 3  24044597.775
 122060086.829 5  23227261.731
 122486303.524 5  23308367.845
 112824942.227 6  21469871.705
 107857067.797 7  20524516.762
 19  9  1  1 32  0.0000000  0  8G02G06G12G13G15G17G19G24
 119259105.33215  22694252.913
 116652844.619 6  22198298.253
 112934124.832 6  21490647.395
 126462993.138 3  24065105.688
 122141837.433 5  23242818.099
 122575715.920 5  23325382.183
 112899741.188 6  21484105.838
 107824396.112 7  20518299.506
 19  9  1  1 32 30.0000000  0  8G02G06G12G13G15G17G19G24
 119182065.263 5  22679592.390
 116622290.917 6  22192483.622
 112892077.263 6  21482646.054
 126570766.192 3  24085613.214
 122223755.141 5  23258406.784
 122665251.35915  23342420.381
 112974908.397 6  21498409.209
 107792169.300 7  20512166.972
 19  9  1  1 33  0.0000000  0  8G02G06G12G13G15G17G19G24
 119105264.480 5  22664978.007
 116592256.538 6  22186768.259
 112850188.935 6  21474675.108
 126678539.353 3  24106123.014
 122305835.474 5  23274026.140
 122754905.966 5  23359481.086
 113050439.981 6  21512782.671
 107760386.481 7  20506118.856
 19  9  1  1 33 30.0000000  0  8G02G06G12G13G15G17G19G24
 119028707.999 5  22650410.070
 116562745.476 6  22181152.543
 112808461.842 6  21466734.542
 126786311.663 3  24126631.684
 122388077.634 5  23289676.117
 122844680.035 5  23376564.195
 113126335.315 6  21527225.381
 107729052.924 7  20500156.439
 19  9  1  1 34  0.0000000  0  8G02G06G12G13G15G17G19G24
 118952398.343 5  22635888.507
 116533759.079 6  22175637.097
 112766895.034 6  21458824.526
 126894079.656 3  24147138.766
 122470478.175 5  23305356.693
 122934570.811 5  23393669.497
 113202591.041 6  21541736.265
 107698169.213 7  20494279.311
 19  9  1  1 34 30.0000000  0  8G02G06G12G13G15G17G19G24
 118876336.67615  22621414.467
 116505297.717 6  22170220.499
 112725487.554 6  21450944.701
 127001840.182 3  24167646.096
 122553032.552 5  23321066.296
 123024574.755 5  23410797.606
 113279203.550 6  21556315.172
 107667735.667 7  20488487.721
 19  9  1  1 35  0.0000000  0  8G02G06G12G13G15G17G19G24
 118800526.497 5  22606988.043
 116477363.876 6  22164904.954
 112684239.776 6  21443095.470
 127109590.770 3  24188148.961
 122635739.259 5  23336804.537
 123114690.46215  23427945.745
 113356170.270 6  21570961.085
 107637754.826 7  20482782.696
 19  9  1  1 35 30.0000000  0  8G02G06G12G13G15G17G19G24
 118724969.330 5  22592610.286
 116449957.909 6  22159689.935
 112643150.466 6  21435276.852
 127217326.971 3  24208651.567
 122718594.038 5  23352571.398
 123204914.508 5  23445114.913
 113433487.385 6  21585673.919
 107608226.693 7  20477163.705
 19  9  1  1 36  0.0000000  0  8G02G06G12G13G15G17G19G24
 118649671.300 5  22578281.269
 116423084.939 6  22154576.129
 112602222.789 6  21427488.472
 127325049.629 3  24229148.735
 122801596.573 5  23368366.410
 123295248.393 5  23462304.716
 113511155.68616  21600453.986
 107579156.894 7  20471632.033
 19  9  1  1 36 30.0000000  0  8G02G06G12G13G15G17G19G24
 118574632.188 5  22564001.574
 116396743.510 6  22149563.731
 112561453.34616  21419730.113
 127432753.707 3  24249645.628
 122884742.009 5  23384188.693
 123385686.651 5  23479514.813
 113589169.35416  21615299.442
 107550542.868 7  20466186.987
 19  9  1  1 37  0.0000000  0  8G02G06G12G13G15G17G19G24
 118499855.255 5  22549772.391
 116370936.052 6  22144652.530
 112520843.205 6  21412001.876
 127540436.763 3  24270136.349
 122968027.647 5  23400036.922
 123476228.043 5  23496744.045
 113667525.918 6  21630210.076
 107522387.530 7  20460828.963
 19  9  1  1 37 30.0000000  0  8G02G06G12G13G15G17G19G24
 118425344.666 5  22535593.347
 116345665.516 6  22139843.705
 112480393.753 6  21404304.738
 127648096.582 3  24290624.473
 123051451.650 5  23415911.573
 123566871.811 5  23513993.093
 113746224.595 6  21645186.314
 107494694.001 7  20455559.482
 19  9  1  1 38  0.0000000  0  8G02G06G12G13G15G17G19G24
 118351100.597 5  22521465.015
 116320930.815 6  22135136.794
 112440102.070 6  21396637.406
 127755728.968 3  24311105.227
 123135008.695 5  23431812.609
 123657613.196 5  23531260.589
 113825259.982 6  21660226.061
 107467460.946 7  20450377.215
 19  9  1  1 38 30.0000000  0  8G02G06G12G13G15G17G19G24
 118277127.085 5  22507388.411
 116296734.910 6  22130532.365
 112399969.210 6  21389000.560
 127863332.333 3  24331581.774
 123218697.297 5  23447737.996
 123748451.176 5  23548546.512
 113904630.497 6  21675329.762
 107440691.133 7  20445282.908
 19  9  1  1 39  0.0000000  0  8G02G06G12G13G15G17G19G24
 118203426.57815  22493363.119
 116273079.201 6  22126031.161
 112359995.33516  21381393.836
 127970903.596 3  24352051.305
 123302514.164 5  23463688.111
 123839383.581 5  23565850.593
 113984332.94516  21690496.838
 107414386.572 7  20440277.373
 19  9  1  1 39 30.0000000  0  8G02G06G12G13G15G17G19G24
 118130002.038 6  22479391.468
 116249965.415 6  22121632.778
 112320180.534 6  21373817.356
 128078440.541 3  24372516.227
 123386457.236 5  23479661.991
 123930408.820 5  23583172.140
 114064365.165 6  21705726.286
 107388548.239 7  20435360.357
 19  9  1  1 40  0.0000000  0  8G02G06G12G13G15G17G19G24
 118056856.30815  22465472.480
 116227395.168 6  22117337.778
 112280524.119 6  21366271.037
 128185940.439 3  24392971.890
 123470523.391 5  23495659.232
 124021524.815 5  23600510.870
 114144724.214 6  21721017.826
 107363178.014 7  20430532.582
 19  9  1  1 40 30.0000000  0  8G02G06G12G13G15G17G19G24
 117983990.971 5  22451606.616
 116205368.882 6  22113146.207
 112241026.238 6  21358754.614
 128293399.000 3  24413419.405
 123554708.472 5  23511679.103
 124112728.552 5  23617866.091
 114225406.759 6  21736371.068
 107338276.141 7  20425793.858
 19  9  1  1 41  0.0000000  0  8G02G06G12G13G15G17G19G24
 117911410.034 5  22437794.688
 116183889.249 6  22109058.971
 112201687.037 6  21351268.772
 128400815.894 3  24433861.433
 123639010.827 5  23527721.172
 124204019.322 5  23635237.583
 114306411.108 6  21751785.895
 107313845.306 7  20421144.871
 19  9  1  1 41 30.0000000  0  8G02G06G12G13G15G17G19G24
 117839115.731 5  22424037.433
 116162957.517 6  22105075.644
 112162507.060 6  21343812.865
 128508187.929 3  24454293.193
 123723427.533 5  23543785.069
 124295394.365 5  23652626.010
 114387734.298 6  21767261.436
 107289886.927 7  20416585.982
 19  9  1  1 42  0.0000000  0  8G02G06G12G13G15G17G19G24
 117767111.022 6  22410335.241
 116142574.960 6  22101196.755
 112123485.840 6  21336387.468
 128615511.773 3  24474716.737
 123807955.741 5  23559870.036
 124386851.751 5  23670030.354
 114469373.701 6  21782796.556
 107266402.814 7  20412117.043
 19  9  1  1 42 30.0000000  0  8G02G06G12G13G15G17G19G24
 117695397.938 6  22396688.662
 116122742.498 6  22097422.829
 112084622.932 6  21328991.812
 128722784.490 2  24495129.961
 123892591.963 5  23575976.148
 124478389.111 5  23687449.359
 114551325.814 6  21798391.767
 107243392.779 7  20407738.348
 19  9  1  1 43  0.0000000  0  8G02G06G12G13G15G17G19G24
 117623979.014 6  22383098.339
 116103461.421 6  22093753.728
 112045918.228 6  21321626.852
 128830003.718 3  24515533.035
 123977333.083 5  23592101.641
 124570004.401 5  23704882.662
 114633588.09416  21814045.630
 107220859.361 7  20403450.273
 19  9  1  1 43 30.0000000  0  8G02G06G12G13G15G17G19G24
 117552856.934 6  22369564.546
 116084732.952 6  22090189.701
 112007371.578 6  21314291.836
 128937166.814 2  24535925.613
 124062176.269 5  23608246.727
 124661695.562 5  23722330.935
 114716157.52616  21829758.242
 107198803.348 7  20399253.057
 19  9  1  1 44  0.0000000  0  8G02G06G12G13G15G17G19G24
 117482034.527 6  22356087.163
 116066558.943 6  22086731.306
 111968983.531 6  21306986.522
 129044271.414 2  24556306.308
 124147119.471 5  23624410.724
 124753460.952 5  23739793.439
 114799032.26216  21845528.907
 107177226.829 7  20395147.011
 19  9  1  1 44 30.0000000  0  8G02G06G12G13G15G17G19G24
 117411514.710 6  22342667.844
 116048940.566 6  22083378.578
 111930753.489 6  21299711.865
 129151314.896 3  24576676.618
 124232159.627 5  23640593.231
 124845298.241 5  23757269.233
 114882209.06616  21861356.563
 107156130.683 7  20391132.802
 19  9  1  1 45  0.0000000  0  8G02G06G12G13G15G17G19G24
 117341300.687 6  22329306.247
 116031879.650 6  22080132.062
 111892682.705 6  21292466.906
 129258295.020 2  24597033.785
 124317293.696 5  23656793.772
 124937206.104 4  23774759.257
 114965685.832 6  21877241.904
 107135517.511 7  20387210.339
 19  9  1  1 45 30.0000000  0  8G02G06G12G13G15G17G19G24
 117271392.800 6  22316003.996
 116015375.321 6  22076991.523
 111854769.027 6  21285252.237
 129365207.486 3  24617379.268
 124402517.534 5  23673011.927
 125029180.842 5  23792261.361
 115049457.588 6  21893182.870
 107115385.448 7  20383379.239
 19  9  1  1 46  0.0000000  0  8G02G06G12G13G15G17G19G24
 117201795.444 6  22302759.861
 115999430.575 6  22073957.261
 111817013.846 6  21278067.687
 129472050.895 3  24637710.797
 124487829.965 5  23689245.816
 125121222.187 5  23809776.698
 115133523.525 6  21909180.374
 107095738.290 7  20379640.759
 19  9  1  1 46 30.0000000  0  8G02G06G12G13G15G17G19G24
 117132511.647 6  22289575.359
 115984047.244 6  22071030.103
 111779417.912 6  21270913.486
 129578823.656 3  24658028.934
 124573228.360 5  23705496.927
 125213328.306 5  23827303.336
 115217881.547 6  21925233.155
 107076578.166 7  20375994.451
 19  9  1  1 47  0.0000000  0  8G02G06G12G13G15G17G19G24
 117063542.546 6  22276450.978
 115969224.799 6  22068209.275
 111741979.739 6  21263789.241
 129685507.55413  24678334.336
 124658708.465 5  23721762.829
 125305495.919 5  23844841.908
 115302527.35216  21941340.576
 107057904.153 7  20372440.877
 19  9  1  1 47 30.0000000  0  7G02G06G12G15G17G19G24
 116994890.909 6  22263386.799
 115954964.546 6  22065495.808
 111704699.140 6  21256694.947
 124744267.574 5  23738044.030
 125397723.399 5  23862392.018
 115387458.460 6  21957502.453
 107039717.819 7  20368980.050
 19  9  1  1 48  0.0000000  0  8G02G06G12G13G15G17G19G24
 116926559.039 6  22250384.112
 115941267.351 6  22062888.978
 111667576.274 6  21249630.458
                  24718897.764
 124829902.602 5  23754340.103
 125490008.466 4  23879953.095
 115472671.78316  21973718.045
 107022020.462 7  20365612.514
 19  9  1  1 48 30.0000000  0  7G02G06G12G15G17G19G24
 116858550.426 6  22237442.491
 115928135.090 6  22060390.278
 111630611.621 6  21242596.499
 124915611.442 5  23770650.149
 125582349.827 4  23897525.781
 115558165.236 6  21989987.103
 107004814.274 7  20362338.382
 19  9  1  1 49  0.0000000  0  7G02G06G12G15G17G19G24
 116790867.991 6  22224562.793
 115915569.467 6  22057999.063
 111593806.226 6  21235592.758
 125001391.928 5  23786973.255
 125674746.235 4  23915108.234
 115643937.130 6  22006308.586
 106988100.828 7  20359157.685
 19  9  1  1 49 30.0000000  0  7G02G06G12G15G17G19G24
 116723512.767 6  22211745.247
 115903569.788 6  22055715.399
 111557158.332 6  21228619.160
 125087239.520 5  23803309.859
 125767194.009 4  23932700.228
 115729982.947 6  22022682.653
 106971879.766 7  20356070.964
 19  9  1  1 50  0.0000000  0  7G02G06G12G15G17G19G24
 116656485.780 6  22198990.553
 115892135.460 6  22053539.712
 111520666.348 6  21221674.618
 125173149.704 5  23819657.800
 125859689.652 5  23950302.051
 115816298.157 6  22039107.800
 106956150.302 7  20353077.873
 19  9  1  1 50 30.0000000  0  7G02G06G12G15G17G19G24
 116589792.812 6  22186299.527
 115881270.908 6  22051472.042
 111484333.609 6  21214760.586
 125259123.362 5  23836018.170
 125952234.630 5  23967912.230
 115902883.694 6  22055584.639
 106940917.769 7  20350179.270
 19  9  1  1 51  0.0000000  0  7G02G06G12G15G17G19G24
 116523439.368 6  22173672.637
 115870980.356 6  22049513.903
 111448163.499 6  21207877.818
 125345160.785 5  23852390.591
 126044830.466 5  23985533.296
 115989739.908 6  22072112.422
 106926186.015 7  20347375.804
 19  9  1  1 51 30.0000000  0  7G02G06G12G15G17G19G24
 116457421.589 6  22161109.854
 115861257.915 6  22047663.697
 111412149.073 6  21201024.764
 125431251.727 5  23868773.467
 126137468.547 5  24003161.345
 116076857.751 6  22088690.780
 106911949.624 7  20344666.672
 19  9  1  1 52  0.0000000  0  7G02G06G12G15G17G19G24
 116391741.657 6  22148611.496
 115852104.207 6  22045922.031
 111376290.507 6  21194200.768
 125517394.009 5  23885165.738
 126230146.543 5  24020797.088
 116164233.826 6  22105318.241
 106898209.144 7  20342051.912
 19  9  1  1 52 30.0000000  0  7G02G06G12G15G17G19G24
 116326405.243 6  22136178.513
 115843523.609 6  22044289.153
 111340591.160 6  21187407.155
 125603588.069 5  23901567.742
 126322866.268 5  24038441.434
 116251868.837 6  22121994.630
 106884969.290 7  20339532.503
 19  9  1  1 53  0.0000000  0  8G02G06G12G15G17G19G24G25
 116261417.342 6  22123811.243
 115835519.096 6  22042765.850
 111305053.343 6  21180644.691
 125689833.040 5  23917979.879
 126415627.906 5  24056092.656
 116339762.76716  22138720.048
 106872233.329 7  20337108.995
 126418074.94213  24056559.951
 19  9  1  1 53 30.0000000  0  8G02G06G12G15G17G19G24G25
 116196777.538 6  22111510.859
 115828088.806 6  22041351.941
 111269674.296 6  21173912.361
 125776123.604 5  23934400.620
 126508426.867 5  24073752.286
 116427909.978 6  22155493.804
 106859999.957 7  20334780.862
 126344064.921 3  24042475.811
 19  9  1  1 54  0.0000000  0  8G02G06G12G15G17G19G24G25
 116132483.526 6  22099276.676
 115821228.889 6  22040046.342
 111234449.584 6  21167209.206
 125862452.122 5  23950828.014
 126601256.646 5  24091416.979
 116516303.065 6  22172314.483
 106848264.794 7  20332547.907
 126270085.283 3  24028398.144
 19  9  1  1 54 30.0000000  0  8G02G06G12G15G17G19G24G25
 116068542.650 6  22087108.702
 115814945.033 6  22038850.753
 111199384.188 6  21160536.273
 125948820.966 5  23967263.592
 126694120.308 5  24109087.957
 116604944.218 6  22189182.151
 106837034.299 7  20330410.518
 126196140.912 3  24014326.958
 19  9  1  1 55  0.0000000  0  8G02G06G12G15G17G19G24G25
 116004957.471 6  22075008.838
 115809238.045 6  22037764.765
 111164477.828 6  21153894.150
 126035227.265 5  23983705.708
 126787016.014 4  24126766.014
 116693831.015 6  22206097.182
 106826309.825 7  20328369.919
 126122231.978 4  24000262.910
 19  9  1  1 55 30.0000000  0  8G02G06G12G15G17G19G24G25
 115941729.754 6  22062977.018
 115804107.850 6  22036788.233
 111129730.409 6  21147282.048
 126121667.355 5  24000154.905
 126879941.501 4  24144448.908
 116782960.03116  22223057.696
 106816091.125 7  20326425.398
 126048357.758 4  23986204.534
 19  9  1  1 56  0.0000000  0  8G02G06G12G15G17G19G24G25
 115878863.119 6  22051014.268
 115799556.410 6  22035922.292
 111095143.203 6  21140700.245
 126208139.781 4  24016609.981
 126972895.806 4  24162138.227
 116872329.663 6  22240064.101
 106806381.100 7  20324577.647
 125974519.412 4  23972153.891
 19  9  1  1 56 30.0000000  0  8G02G06G12G15G17G19G24G25
 115816357.845 6  22039119.616
 115795582.414 6  22035166.368
 111060713.992 6  21134148.635
 126294639.518 4  24033070.705
 127065875.225 4  24179830.750
 116961935.228 6  22257115.411
 106797178.129 7  20322826.456
 125900715.108 4  23958109.045
 19  9  1  1 57  0.0000000  0  8G02G06G12G15G17G19G24G25
 115754218.656 6  22027294.611
 115792188.537 6  22034520.405
 111026445.147 6  21127627.576
 126381166.237 4  24049536.221
 127158880.257 4  24197528.867
 117051776.451 6  22274211.389
 106788485.608 7  20321172.469
 125826946.893 4  23944072.052
 19  9  1  1 57 30.0000000  0  8G02G06G12G15G17G19G24G25
 115692445.459 6  22015539.665
 115789373.300 6  22033984.544
 110992334.492 6  21121136.454
 126467715.018 4  24066005.210
 127251907.054 4  24215231.896
 117141848.320 6  22291351.469
 106780302.135 7  20319614.962
 125753212.783 4  23930041.239
 19  9  1  1 58  0.0000000  0  8G02G06G12G15G17G19G24G25
 115631040.415 6  22003854.971
 115787136.974 6  22033558.800
 110958382.296 6  21114675.547
 126554282.898 4  24082479.238
 127344953.287 4  24232937.097
 117232148.147 6  22308535.336
 106772628.061 7  20318154.572
 125679512.464 4  23916015.982
 19  9  1  1 58 30.0000000  0  8G02G06G12G15G17G19G24G25
 115570006.955 6  21992240.631
 115785481.153 6  22033244.251
 110924589.328 6  21108245.071
 126640867.963 4  24098955.206
 127438018.449 4  24250647.573
 117322674.155 6  22325762.069
 106765465.574 7  20316791.506
 125605847.125 4  23901997.863
 19  9  1  1 59  0.0000000  0  8G02G06G12G15G17G19G24G25
 115509348.330 6  21980697.557
 115784407.182 6  22033039.559
 110890956.766 6  21101844.810
 126727468.309 4  24115434.334
 127531101.341 4  24268361.162
 117413424.521 6  22343030.794
 106758816.455 7  20315526.252
 125532217.584 4  23887986.579
 19  9  1  1 59 30.0000000  0  8G02G06G12G15G17G19G24G25
 115449065.914 6  21969226.386
 115783914.794 6  22032945.901
 110857483.834 6  21095475.055
 126814080.349 4  24131916.079
 127624199.605 4  24286076.318
 117504395.722 5  22360342.025
 106752681.022 7  20314358.754
 125458623.105 4  23873981.992
 19  9  1  2  0  0.0000000  0  8G02G06G12G15G17G19G24G25
 115389161.271 6  21957826.621
 115784003.767 6  22032962.832
 110824169.821 6  21089135.538
 126900700.372 4  24148399.691
 127717311.059 4  24303795.548
 117595584.741 6  22377695.029
 106747059.045 7  20313288.962
 125385063.136 4  23859983.962
 19  9  1  2  0 30.0000000  0  8G02G06G12G15G17G19G24G25
 115329637.744 6  21946499.899
 115784675.375 6  22033090.467
 110791015.981 6  21082826.819
 126987326.707 4  24164884.227
 127810434.543 4  24321516.392
 117686989.649 5  22395088.650
 106741952.497 7  20312317.275
 125311538.519 4  23845992.746
 19  9  1  2  1  0.0000000  0  8G02G06G12G15G17G19G24G25
 115270497.016 6  21935245.543
 115785929.781 6  22033328.832
 110758022.152 6  21076548.339
 127073956.350 4  24181369.121
 127903567.901 4  24339238.961
 117778607.568 5  22412522.718
 106737361.903 7  20311443.722
 125238049.121 4  23832008.720
 19  9  1  2  1 30.0000000  0  8G02G06G12G15G17G19G24G25
 115211741.704 6  21924064.997
 115787767.542 6  22033678.687
 110725188.428 6  21070300.399
 127160587.293 4  24197854.772
 127996709.525 4  24356963.019
 117870436.060 5  22429997.366
 106733287.679 7  20310668.466
 125164595.163 4  23818029.648
 19  9  1  2  2  0.0000000  0  8G02G06G12G15G17G19G24G25
 115153372.585 6  21912957.973
 115790187.738 6  22034139.828
 110692513.993 6  21064082.382
 127247215.037 4  24214339.055
 128089856.772 4  24374688.707
 117962471.215 5  22447511.269
 106729729.509 7  20309991.269
 125091175.460 4  23804058.447
 19  9  1  2  2 30.0000000  0  8G02G06G12G15G17G19G24G25
 115095394.216 6  21901925.076
 115793192.677 6  22034711.317
 110660000.748 6  21057895.287
 127333838.855 4  24230822.585
 128183009.804 4  24392414.849
 118054712.546 5  22465064.418
 106726690.304 7  20309413.070
 125017792.116 4  23790094.458
 19  9  1  2  3  0.0000000  0  8G02G06G12G15G17G19G24G25
 115037807.386 6  21890966.389
 115796781.351 6  22035394.032
 110627647.696 6  21051738.636
 127420454.623 4  24247305.870
 128276165.586 4  24410141.790
 118147155.983 5  22482655.526
 106724169.479 7  20308933.385
 124944443.802 4  23776137.521
 19  9  1  2  3 30.0000000  0  8G02G06G12G15G17G19G24G25
 114980614.482 6  21880082.901
 115800954.188 6  22036188.283
 110595455.060 6  21045612.861
 127507059.784 4  24263785.837
 128369322.351 4  24427869.545
 118239799.098 5  22500284.735
 106722167.989 7  20308552.394
 124871130.867 4  23762186.546
 19  9  1  2  4  0.0000000  0  8G02G06G12G15G17G19G24G25
 114923818.062 6  21869274.798
 115805711.955 6  22037093.666
 110563423.487 6  21039517.179
 127593652.171 4  24280263.766
 128462479.475 4  24445596.067
 118332639.867 5  22517952.044
 106720686.498 7  20308270.477
 124797853.893 4  23748241.657
 19  9  1  2  4 30.0000000  0 10G02G06G12G15G17G19G24G25G29G32
 114867419.944 6  21858542.697
 115811054.33616  22038110.173
 110531552.435 6  21033452.290
 127680228.643 4  24296738.868
 128555634.365 4  24463323.000
 118425674.73115  22535655.642
 106719725.560 7  20308087.632
 124724612.372 4  23734304.217
                  24659193.621
                  25078392.494
 19  9  1  2  5  0.0000000  0 10G02G06G12G15G17G19G24G25G29G32
 114811423.286 6  21847886.645
 115816982.770 6  22039238.242
 110499843.766 6  21027418.661
 127766787.582 4  24313210.909
 128648786.584 4  24481049.930
 118518903.139 5  22553396.235
 106719286.950 7  20308004.277
 124651407.744 4  23720373.601
 129486723.138 3  24640504.240
 131737173.995 3  25068750.299
 19  9  1  2  5 30.0000000  0  9G02G06G12G15G17G19G24G25G29
 114755829.580 6  21837307.660
 115823496.596 6  22040477.811
 110468296.785 6  21021415.284
 127853325.563 4  24329678.243
 128741933.659 4  24498775.328
 118612321.469 5  22571172.923
 106719370.720 7  20308020.049
 124578239.237 4  23706450.387
 129388675.312 3  24621845.855
 19  9  1  2  6  0.0000000  0  9G02G06G12G15G17G19G24G25G29
 114700639.243 6  21826805.683
 115830594.440 6  22041828.890
 110436909.693 6  21015442.408
 127939838.410 4  24346141.446
 128835072.666 4  24516498.562
 118705925.468 5  22588985.937
 106719975.463 7  20308135.052
 124505105.431 4  23692533.402
 129290793.045 4  24603219.823
 19  9  1  2  6 30.0000000  0  9G02G06G12G15G17G19G24G25G29
 114645855.527 6  21816380.527
 115838277.379 6  22043290.743
 110405684.333 6  21009500.499
 128026324.449 4  24362598.955
 128928202.629 4  24534220.674
 118799713.808 5  22606832.573
 106721102.987 7  20308349.848
 124432007.494 4  23678623.919
 129193078.773 4  24584625.748
 19  9  1  2  7  0.0000000  0 10G02G06G12G15G17G19G24G25G29G32
 114591482.284 6  21806033.723
 115846547.437 6  22044864.359
 110374622.431 6  21003589.680
 128112782.823 4  24379051.181
 129021323.990 4  24551941.376
 118893685.43415  22624714.811
 106722755.683 7  20308664.305
 124358947.427 4  23664719.739
 129095535.610 4  24566063.286
                  25031047.501
 19  9  1  2  7 30.0000000  0 10G02G06G12G15G17G19G24G25G29G32
 114537520.060 6  21795764.672
 115855402.990 6  22046549.477
 110343722.396 6  20997709.380
 128199209.262 4  24395497.695
 129114433.478 4  24569659.218
 118987836.387 5  22642631.536
 106724932.454 7  20309078.402
 124285923.630 4  23650824.694
 128998163.630 4  24547534.320
 131490647.363 3  25021837.514
 19  9  1  2  8  0.0000000  0 10G02G06G12G15G17G19G24G25G29G32
 114483971.210 6  21785574.904
 115864844.279 6  22048345.872
 110312984.590 6  20991860.080
 128285600.958 4  24411937.543
 129207529.648 4  24587375.319
 119082164.351 5  22660581.967
 106727634.183 7  20309592.661
 124212936.530 4  23636936.537
 128900964.054 4  24529037.561
 131442710.434 3  25012716.573
 19  9  1  2  8 30.0000000  0 10G02G06G12G15G17G19G24G25G29G32
 114430838.661 6  21775464.316
 115874872.305 6  22050254.322
 110282410.965 6  20986042.234
 128371956.105 4  24428370.282
 129300612.019 4  24605087.218
 119176667.752 5  22678564.698
 106730862.439 7  20310206.885
 124139987.228 4  23623052.916
 128803939.196 3  24510574.002
 131395233.627 3  25003680.787
 19  9  1  2  9  0.0000000  0 10G02G06G12G15G17G19G24G25G29G32
 114378122.453 6  21765432.585
 115885485.132 6  22052273.869
 110251998.889 6  20980254.864
 128458271.250 4  24444795.335
 129393677.055 4  24622797.594
 119271342.382 5  22696581.362
 106734615.741 7  20310921.248
 124067073.872 4  23609178.978
 128707088.392 3  24492144.383
 131348216.417 3  24994734.400
 19  9  1  2  9 30.0000000  0 10G02G06G12G15G17G19G24G25G29G32
 114325825.319 6  21755480.709
 115896683.360 6  22054404.663
 110221749.790 6  20974498.766
 128544543.792 4  24461212.773
 129486723.696 4  24640503.551
 119366186.150 5  22714629.131
 106738894.971 7  20311735.451
 123994197.422 4  23595311.216
 128610413.965 3  24473747.948
 131301660.482 3  24985875.901
 19  9  1  2 10  0.0000000  0 10G02G06G12G15G17G19G24G25G29G32
 114273949.849 6  21745609.116
 115908467.499 6  22056646.996
 110191664.701 6  20968773.971
 128630771.658 4  24477620.907
 129579750.949 4  24658206.548
 119461197.225 5  22732709.247
 106743701.304 7  20312650.004
 123921358.469 4  23581449.800
 128513917.850 3  24455384.939
 131255567.671 3  24977103.332
 19  9  1  2 10 30.0000000  0 10G02G06G12G15G17G19G24G25G29G32
 114222496.780 6  21735817.884
 115920836.053 6  22059000.634
 110161742.168 6  20963079.942
 128716950.711 4  24494020.562
 129672755.814 4  24675904.286
 119556371.757 5  22750820.453
 106749033.544 7  20313664.583
 123848555.778 5  23567597.089
 128417599.762 4  24437056.314
 131209937.662 3  24968421.493
 19  9  1  2 11  0.0000000  0 10G02G06G12G15G17G19G24G25G29G32
 114171469.508 6  21726107.744
 115933790.495 6  22061466.231
 110131983.987 6  20957416.903
 128803079.578 4  24510410.791
 129765738.479 4  24693598.840
 119651708.771 5  22768962.424
 106754893.998 7  20314779.933
 123775791.203 4  23553748.978
 128321462.654 4  24418762.839
 131164773.286 3  24959826.449
 19  9  1  2 11 30.0000000  0 10G02G06G12G15G17G19G24G25G29G32
 114120870.457 6  21716479.242
 115947331.141 6  22064042.759
 110102390.728 6  20951785.694
 128889156.860 4  24526790.025
 129858697.892 4  24711288.806
 119747206.084 5  22787135.351
 106761282.736 7  20315995.703
 123703065.334 4  23539910.153
 128225508.359 4  24400503.599
 131120076.082 3  24951320.966
 19  9  1  2 12  0.0000000  0 10G02G06G12G15G17G19G24G25G29G32
 114070700.199 6  21706932.074
 115961456.344 6  22066730.687
 110072961.545 6  20946185.505
 128975178.199 4  24543159.562
 129951630.965 4  24728972.459
 119842859.948 5  22805337.078
 106768199.408 7  20317312.015
 123630376.875 4  23526078.532
 128129736.639 4  24382278.536
 131075845.646 3  24942903.084
 19  9  1  2 12 30.0000000  0 10G02G06G12G15G17G19G24G25G29G32
 114020960.350 6  21697466.885
 115976165.738 6  22069529.611
 110043696.290 6  20940616.493
 129061140.705 4  24559517.307
 130044536.165 4  24746652.069
 119938667.623 5  22823568.929
 106775644.116 7  20318728.542
 123557725.823 4  23512253.314
 128034148.628 4  24364088.231
 131032082.944 3  24934576.621
 19  9  1  2 13  0.0000000  0 10G02G06G12G15G17G19G24G25G29G32
 113971654.619 6  21688083.982
 115991460.680 6  22072440.415
 110014596.933 7  20935079.057
 129147043.361 4  24575864.395
 130137413.526 4  24764326.135
 120034628.12815  22841829.052
 106783618.550 7  20320246.134
 123485113.999 5  23498436.225
 127938747.431 4  24345934.163
 130988790.639 3  24926338.511
 19  9  1  2 13 30.0000000  0 10G02G06G12G15G17G19G24G25G29G32
 113922784.198 6  21678784.571
 116007340.514 6  22075461.902
 109985663.129 6  20929573.007
 129232883.076 4  24592199.017
 130230261.007 4  24781993.920
 120130739.181 5  22860118.592
 106792122.816 7  20321864.415
 123412541.170 4  23484625.592
 127843533.698 4  24327815.920
 130945969.340 3  24918188.431
 19  9  1  2 14  0.0000000  0 10G02G06G12G15G17G19G24G25G29G32
 113874350.383 6  21669568.015
 116023803.991 6  22078594.995
 109956894.646 6  20924098.711
 129318656.263 4  24608521.498
 130323076.123 4  24799656.814
 120226997.174 5  22878435.921
 106801156.130 7  20323583.315
 123340006.544 5  23470822.229
 127748507.735 4  24309733.325
 130903619.066 3  24910129.721
 19  9  1  2 14 30.0000000  0 10G02G06G12G15G17G19G24G25G29G32
 113826355.791 6  21660434.845
 116040851.665 6  22081839.319
 109928292.458 6  20918655.910
 129404361.181 4  24624830.810
 130415858.449 4  24817312.385
 120323400.312 5  22896781.050
 106810719.636 7  20325403.249
 123267511.232 5  23457026.502
 127653671.921 4  24291686.620
 130861741.734 3  24902160.638
 19  9  1  2 15  0.0000000  0 10G02G06G12G15G17G19G24G25G29G32
 113778801.134 6  21651385.437
 116058482.389 6  22085193.906
 109899856.008 6  20913244.317
 129489995.320 4  24641125.470
 130508605.875 3  24834961.675
 120419945.458 5  22915152.890
 106820812.794 7  20327323.786
 123195054.623 5  23443238.880
 127559026.331 4  24273675.738
 130820337.543 3  24894281.481
 19  9  1  2 15 30.0000000  0 10G02G06G12G15G17G19G24G25G29G32
 113731688.354 6  21642420.023
 116076695.692 6  22088659.830
 109871585.218 6  20907864.861
 129575555.233 4  24657407.181
 130601316.172 4  24852603.925
 120516630.286 5  22933551.804
 106831435.483 7  20329345.266
 123122636.769 5  23429458.672
 127464572.422 4  24255702.108
 130779407.258 3  24886493.042
 19  9  1  2 16  0.0000000  0 10G02G06G12G15G17G19G24G25G29G32
 113685020.468 6  21633539.451
 116095492.200 6  22092236.950
 109843481.916 6  20902516.844
 129661039.201 4  24673674.303
 130693989.441 4  24870238.419
 120613453.000 5  22951976.113
 106842588.883 7  20331467.690
 123050258.937 5  23415685.528
 127370312.327 4  24237764.755
 130738952.912 3  24878794.478
 19  9  1  2 16 30.0000000  0 10G02G06G12G15G17G19G24G25G29G32
 113638798.536 6  21624743.667
 116114871.169 6  22095924.711
 109815545.832 6  20897200.903
 129746445.128 4  24689926.627
 130786623.984 4  24887867.573
 120710411.071 5  22970426.817
 106854273.447 7  20333691.310
 122977921.054 5  23401920.354
 127276247.029 4  24219864.647
 130698975.079 3  24871187.942
 19  9  1  2 17  0.0000000  0 10G02G06G12G15G17G19G24G25G29G32
 113593023.970 6  21616033.185
 116134831.614 6  22099723.237
 109787776.848 6  20891916.584
 129831769.268 4  24706163.391
 130879217.484 4  24905487.629
 120807501.580 5  22988902.406
 106866488.697 7  20336015.711
 122905622.756 4  23388161.573
 127182377.142 4  24202001.987
 130659474.081 3  24863671.404
 19  9  1  2 17 30.0000000  0 10G02G06G12G15G17G19G24G25G29G32
 113547698.565 6  21607407.911
 116155373.172 6  22103631.924
 109760175.220 6  20886664.149
 129917009.135 3  24722384.121
 130971768.559 4  24923099.420
 120904722.256 5  23007402.449
 106879234.118 7  20338441.202
 122833364.354 5  23374411.024
 127088703.865 4  24184175.996
 130620450.870 3  24856245.084
 19  9  1  2 18  0.0000000  0 10G02G06G12G15G17G19G24G25G29G32
 113502825.703 6  21598868.960
 116176496.682 6  22107651.578
 109732742.465 7  20881443.811
 130002164.095 4  24738588.864
 131064277.279 4  24940702.557
 121002072.079 5  23025927.684
 106892511.721 7  20340967.814
 122761147.512 5  23360668.828
 126995229.796 4  24166388.432
 130581907.803 3  24848909.897
 19  9  1  2 18 30.0000000  0  9G02G06G12G15G17G19G24G25G29
 113458405.164 6  21590415.997
 116198199.967 6  22111781.296
 109705477.738 6  20876255.393
 130087229.378 4  24754776.323
 131156740.800 4  24958297.984
 121099547.084 5  23044477.080
 106906319.981 7  20343595.501
 122688970.805 5  23346934.425
 126901954.574 4  24148639.325
 19  9  1  2 19  0.0000000  0  9G02G06G12G15G17G19G24G25G29
 113414439.159 6  21582049.710
 116220482.890 6  22116021.347
 109678381.460 7  20871099.243
 130172203.079 4  24770946.330
 131249158.219 3  24975884.824
 121197145.197 5  23063048.501
 106920659.118 7  20346324.143
 122616834.842 5  23333207.673
 126808879.844 4  24130927.201
 19  9  1  2 19 30.0000000  0  9G02G06G12G15G17G19G24G25G29
 113370929.928 6  21573770.008
 116243345.444 6  22120372.075
 109651454.540 6  20865975.188
 130257083.711 4  24787097.672
 131341528.180 4  24993462.459
 121294864.995 5  23081644.745
 106935530.343 7  20349153.955
 122544740.478 5  23319488.385
 126716007.503 4  24113254.654
 19  9  1  2 20  0.0000000  0  9G02G06G12G15G17G19G24G25G29
 113327878.533 6  21565577.616
 116266786.689 6  22124833.146
 109624697.284 7  20860883.477
 130341868.056 3  24803231.692
 131433849.130 4  25011029.619
 121392703.410 5  23100262.614
 106950932.096 7  20352084.897
 122472687.643 5  23305777.542
 126623338.011 4  24095620.441
 19  9  1  2 20 30.0000000  0 10G02G06G12G15G17G19G24G25G29G32
 113285286.613 6  21557472.652
 116290805.728 6  22129403.933
 109598109.464 7  20855823.942
 130426553.393 4  24819346.653
 131526119.343 3  25028589.458
 121490657.957 5  23118903.040
 106966864.422 7  20355116.681
 122400676.274 5  23292073.802
 126530872.496 4  24078024.058
 130396400.13313  24813609.835
 19  9  1  2 21  0.0000000  0 10G02G06G12G15G17G19G24G25G29G32
 113243156.643 6  21549455.635
 116315402.559 6  22134084.105
 109571692.192 7  20850796.889
 130511137.845 4  24835443.188
 131618338.300 3  25046136.527
 121588727.038 5  23137564.715
 106983328.979 7  20358250.022
 122328707.350 5  23278378.109
 126438612.780 4  24060467.565
 130360747.735 3  24806825.228
 19  9  1  2 21 30.0000000  0 10G02G06G12G15G17G19G24G25G29G32
 113201489.211 6  21541526.591
 116340575.824 6  22138874.582
 109545445.510 7  20845802.405
 130595618.080 4  24851519.111
 131710504.096 3  25063675.774
 121686907.662 5  23156248.321
 107000324.237 7  20361483.879
 122256780.444 5  23264690.860
 126346559.116 4  24042950.273
 130325579.524 3  24800133.107
 19  9  1  2 22  0.0000000  0 10G02G06G12G15G17G19G24G25G29G32
 113160287.005 6  21533686.072
 116366326.030 6  22143774.987
 109519370.460 7  20840840.523
 130679992.735 4  24867574.801
 131802616.217 3  25081204.605
 121785198.538 5  23174951.911
 107017851.507 7  20364819.128
 122184897.026 5  23251012.147
 126254713.892 4  24025473.339
 130290897.407 3  24793532.696
 19  9  1  2 22 30.0000000  0  9G02G06G12G15G17G19G24G25G29
 113119550.81116  21525934.184
 116392651.095 6  22148784.499
 109493466.218 7  20835911.025
 130764258.436 4  24883610.884
 131894672.163 3  25098722.009
 121883596.061 5  23193676.522
 107035908.986 7  20368255.388
 122113056.064 5  23237340.763
 126163077.103 4  24008034.963
 19  9  1  2 23  0.0000000  0  9G02G06G12G15G17G19G24G25G29
 113079282.903 6  21518271.278
 116419551.525 6  22153903.110
 109467734.499 7  20831014.659
 130848413.847 3  24899624.701
 131986671.938 3  25116228.695
 121982099.323 5  23212420.888
 107054498.517 7  20371792.799
 122041259.157 5  23223679.143
 126071651.229 4  23990637.547
 19  9  1  2 23 30.0000000  0  9G02G06G12G15G17G19G24G25G29
 113039483.114 6  21510697.753
 116447024.769 6  22159130.960
 109442174.086 7  20826150.459
 130932455.006 3  24915616.654
 132078612.503 3  25133724.818
 122080704.373 5  23231184.975
 107073617.932 7  20375431.075
 121969504.793 5  23210024.612
 125980435.203 4  23973280.001
 19  9  1  2 24  0.0000000  0  9G02G06G12G15G17G19G24G25G29
 113000154.077 6  21503213.685
 116475071.214 6  22164468.454
 109416786.538 7  20821319.368
 131016380.277 4  24931586.945
 132170493.495 3  25151209.158
 122179410.031 5  23249968.322
 107093268.002 7  20379170.546
 121897794.451 5  23196378.951
 125889431.411 4  23955962.481
 19  9  1  2 24 30.0000000  0  9G02G06G12G15G17G19G24G25G29
 112961297.445 6  21495819.592
 116503690.094 6  22169914.191
 109391572.157 7  20816521.291
 131100187.401 3  24947535.859
 132262313.650 3  25168681.195
 122278214.03515  23268769.235
 107113448.574 7  20383010.828
 121826128.458 5  23182740.859
 125798641.005 4  23938685.565
 19  9  1  2 25  0.0000000  0  9G02G06G12G15G17G19G24G25G29
 112922914.579 6  21488515.354
 116532880.509 6  22175468.758
 109366531.140 7  20811755.908
 131183873.872 3  24963460.573
 132354072.470 3  25186142.302
 122377114.31815  23287589.395
 107134159.868 7  20386951.888
 121754507.172 5  23169111.411
 125708065.251 4  23921449.677
 19  9  1  2 25 30.0000000  0  9G02G06G12G15G17G19G24G25G29
 112885007.536 6  21481301.757
 116562641.907 6  22181132.362
 109341664.321 7  20807024.078
 131267437.657 4  24979361.831
 132445767.982 3  25203591.802
 122476108.618 5  23306428.650
 107155401.741 7  20390994.243
 121682931.228 5  23155491.426
 125617705.576 4  23904255.029
 19  9  1  2 26  0.0000000  0  9G02G06G12G15G17G19G24G25G29
 112847577.181 6  21474179.427
 116592972.971 6  22186904.044
 109316971.612 7  20802325.302
 131350875.776 3  24995239.375
 132537398.725 3  25221027.715
 122575194.528 5  23325283.182
 107177173.901 7  20395137.182
 121611400.530 5  23141879.171
 125527562.597 4  23887101.102
 19  9  1  2 26 30.0000000  0  9G02G06G12G15G17G19G24G25G29
 112810625.227 6  21467147.508
 116623873.237 6  22192784.375
 109292454.398 7  20797659.592
 131434186.215 3  25011093.481
 132628964.157 3  25238452.483
 122674369.844 5  23344155.805
 107199476.224 7  20399381.129
 121539915.869 5  23128276.085
 125437637.874 4  23869988.842
 19  9  1  2 27  0.0000000  0  9G02G06G12G15G17G19G24G25G29
 112774152.523 6  21460206.797
 116655340.969 6  22198772.455
 109268112.181 7  20793027.527
 131517366.242 3  25026921.665
 132720461.893 3  25255865.287
 122773632.530 5  23363044.947
 107222307.375 7  20403725.735
 121468476.815 5  23114681.778
 125347931.406 4  23852917.566
 19  9  1  2 27 30.0000000  0  9G02G06G12G15G17G19G24G25G29
 112738161.003 6  21453358.154
 116687375.754 6  22204868.383
 109243945.941 7  20788428.845
 131600413.862 3  25042724.595
 132811891.841 3  25273263.159
 122872980.826 4  23381949.714
 107245668.124 7  20408171.100
 121397084.274 5  23101095.720
 125258444.870 4  23835888.922
 19  9  1  2 28  0.0000000  0  9G02G06G12G15G17G19G24G25G29
 112702651.430 6  21446600.679
 116719976.157 6  22211071.876
 109219955.424 7  20783863.314
 131683326.335 3  25058502.339
 132903252.256 3  25290646.950
 122972411.63114  23400871.488
 107269557.293 7  20412717.296
 121325738.166 5  23087519.392
 125169178.827 4  23818902.233
 19  9  1  2 28 30.0000000  0  9G02G06G12G15G17G19G24G25G29
 112667626.306 6  21439935.971
 116753142.287 6  22217383.105
 109196142.322 7  20779332.045
 131766102.175 3  25074254.091
 132994542.722 3  25308019.889
 123071923.69014  23419807.837
 107293975.885 7  20417363.941
 121254440.071 5  23073952.398
 125080135.642 4  23801958.073
 19  9  1  2 29  0.0000000  0  9G02G06G12G15G17G19G24G25G29
 112633085.248 6  21433362.916
 116786871.399 6  22223801.864
 109172505.435 7  20774834.353
 131848736.904 4  25089979.508
 133085759.883 3  25325379.191
 123171512.919 4  23438759.438
 107318921.786 7  20422110.882
 121183188.563 5  23060393.139
 124991314.497 4  23785055.644
 19  9  1  2 29 30.0000000  0  9G02G06G12G15G17G19G24G25G29
 112599030.859 6  21426882.486
 116821163.665 6  22230327.671
 109149046.196 6  20770369.894
 131931230.185 3  25105677.021
 133176904.426 2  25342723.383
 123271179.224 4  23457724.831
 107344395.906 7  20426958.489
 121111985.252 5  23046843.270
 124902717.623 4  23768196.456
 19  9  1  2 30  0.0000000  0  9G02G06G12G15G17G19G24G25G29
 112565464.253 6  21420495.017
 116856018.065 6  22236959.589
 109125765.659 7  20765940.108
 132013579.275 3  25121348.163
 133267974.934 3  25360053.994
 123370920.259 4  23476705.561
 107370397.665 7  20431906.417
 121040830.689 5  23033302.899
 124814346.216 4  23751380.797
 19  9  1  2 30 30.0000000  0  9G02G06G12G15G17G19G24G25G29
 112532386.609 6  21414200.353
 116891433.170 6  22243699.065
 109102663.555 7  20761543.656
 132095782.094 3  25136990.595

 123470733.526 4  23495698.720
 107396926.588 7  20436954.667
 120969724.868 5  23019772.589
 124726200.864 4  23734606.938
 19  9  1  2 31  0.0000000  0  8G02G06G12G19G24G25G29G32
 112499797.825 6  21407999.029
 116927406.563 6  22250544.663
 109079739.375 7  20757181.669
 123570615.53614  23514705.900
 107423981.199 7  20442103.184
 120898666.980 5  23006249.917
 124638281.364 4  23717876.302
 129750260.06413  24690653.669
 19  9  1  2 31 30.0000000  0  8G02G06G12G19G24G25G29G32
 112467700.023 6  21401891.156
 116963938.090 6  22257496.489
 109056994.395 7  20752853.249
 123670565.311 5  23533725.655
 107451561.491 7  20447351.455
 120827658.385 5  22992738.441
 124550589.687 4  23701189.105
 129724902.410 3  24685829.381
 19  9  1  2 32  0.0000000  0  7G02G06G12G19G24G25G29
 112436095.310 6  21395876.697
 117001027.346 6  22264554.430
 109034430.154 7  20748559.624
 123770581.415 5  23552757.942
 107479668.100 7  20452700.085
 120756700.316 5  22979236.159
 124463127.690 4  23684545.375
 19  9  1  2 32 30.0000000  0  7G02G06G12G19G24G25G29
 112404984.830 6  21389956.542
 117038673.204 6  22271717.736
 109012046.902 7  20744300.207
 123870662.069 5  23571803.522
 107508300.215 7  20458148.510
 120685793.248 5  22965742.706
 124375895.936 4  23667945.483
 19  9  1  2 33  0.0000000  0  7G02G06G12G19G24G25G29
 112374368.610 6  21384130.406
 117076873.068 6  22278986.994
 108989844.076 7  20740075.011
 123970803.647 4  23590859.157
 107537456.546 7  20463696.793
 120614936.271 5  22952258.640
 124288894.467 4  23651389.656
 19  9  1  2 33 30.0000000  0  7G02G06G12G19G24G25G29
 112344250.220 6  21378399.436
 117115628.355 6  22286361.892
 108967824.714 7  20735885.004
 124071006.34214  23609927.337
 107567138.882 7  20469345.219
 120544132.505 5  22938784.967
 124202126.654 4  23634878.205
 19  9  1  2 34  0.0000000  0  7G02G06G12G19G24G25G29
 112314627.393 6  21372762.281
 117154934.445 6  22293841.771
 108945986.169 6  20731729.038
 124171265.425 4  23629007.085
 107597343.045 7  20475092.725
 120473378.970 5  22925320.943
 124115590.292 4  23618410.747
 19  9  1  2 34 30.0000000  0  7G02G06G12G19G24G25G29
 112285503.546 6  21367220.425
 117194792.443 6  22301426.806
 108924331.185 6  20727608.180
 124271581.13814  23648095.038
 107628071.021 7  20480940.110
 120402678.587 5  22911867.075
 124029288.423 4  23601988.263
 19  9  1  2 35  0.0000000  0  7G02G06G12G19G24G25G29
 112256879.698 6  21361773.054
 117235200.902 6  22309116.004
 108902860.048 6  20723522.164
 124371951.11814  23667195.214
 107659322.700 7  20486887.012
 120332031.632 5  22898423.255
 123943222.044 4  23585610.309
 19  9  1  2 35 30.0000000  0  7G02G06G12G19G24G25G29
 112228755.330 6  21356421.183
 117276156.749 6  22316909.767
 108881571.803 7  20719471.180
 124472371.776 4  23686304.046
 107691094.866 7  20492933.101
 120261436.895 5  22884989.321
 123857390.260 4  23569278.182
 19  9  1  2 36  0.0000000  0  7G02G06G12G19G24G25G29
 112201132.129 6  21351165.159
 117317659.366 6  22324807.504
 108860467.466 7  20715454.993
 124572841.597 4  23705423.448
 107723387.850 7  20499078.332
 120190895.559 5  22871566.432
 123771794.396 5  23552989.865
 19  9  1  2 36 30.0000000  0  7G02G06G12G19G24G25G29
 112174011.982 6  21346003.940
 117359708.485 6  22332809.129
 108839548.863 7  20711474.378
 124673359.779 4  23724551.367
 107756201.974 7  20505322.646
 120120409.155 5  22858153.434
 123686436.946 5  23536746.675
 19  9  1  2 37  0.0000000  0  7G02G06G12G19G24G25G29
 112147393.897 6  21340938.879
 117402300.356 6  22340914.126
 108818814.293 6  20707528.809
 124773921.910 4  23743687.853
 107789534.726 7  20511665.601
 120049975.936 5  22844750.270
 123601316.547 4  23520548.868
 19  9  1  2 37 30.0000000  0  7G02G06G12G19G24G25G29
 112121282.200 7  21335969.864
 117445437.034 6  22349122.801
 108798267.811 7  20703619.158
 124874529.779 4  23762832.671
 107823388.407 7  20518107.804
 119979599.803 5  22831358.316
 123516437.220 4  23504396.105
 19  9  1  2 38  0.0000000  0  7G02G06G12G19G24G25G29
 112095675.524 7  21331097.052
 117489114.804 6  22357434.097
 108777907.556 7  20699744.406
 124975178.857 4  23781985.413
 107857760.152 7  20524648.597
 119909279.052 5  22817976.417
 123431797.495 5  23488289.977
 19  9  1  2 38 30.0000000  0  7G02G06G12G19G24G25G29
 112070575.181 6  21326320.686
 117533332.501 6  22365848.655
 108757734.554 7  20695905.709
 125075867.544 4  23801146.189
 107892649.455 7  20531287.713
 119839014.462 5  22804605.568
 123347398.581 5  23472228.749
 19  9  1  2 39  0.0000000  0  7G02G06G12G19G24G25G29
 112045982.236 6  21321640.496
 117578088.896 6  22374365.371
 108737749.440 7  20692102.848
 125176594.253 4  23820313.431
 107928055.282 7  20538025.176
 119768806.832 5  22791245.391
 123263241.403 5  23456214.220
 19  9  1  2 39 30.0000000  0  7G02G06G12G19G24G25G29
 112021897.931 6  21317057.520
 117623382.926 6  22382984.587
 108717953.162 6  20688335.567
 125277357.359 4  23839488.557
 107963978.003 7  20544861.233
 119698657.068 5  22777895.622
 123179327.795 5  23440245.589
 19  9  1  2 40  0.0000000  0  7G02G06G12G19G24G25G29
 111998322.030 6  21312571.006
 117669211.801 6  22391705.730
 108698345.227 6  20684604.306
 125378153.686 4  23858669.282
 108000415.417 7  20551795.088
 119628564.508 5  22764557.598
 123095657.054 4  23424324.449
 19  9  1  2 40 30.0000000  0  7G02G06G12G19G24G25G29
 111975255.930 6  21308181.808
 117715574.882 6  22400528.303
 108678927.144 7  20680909.463
 125478982.284 4  23877857.216
 108037367.576 7  20558826.667
 119558530.583 5  22751230.615
 123012230.897 5  23408448.853
 19  9  1  2 41  0.0000000  0  7G02G06G12G19G24G25G29
 111952700.501 6  21303889.464
 117762470.340 6  22409451.778
 108659699.481 7  20677250.559
 125579841.008 4  23897048.449
 108074833.463 7  20565956.289
 119488555.563 5  22737914.456
 122929049.596 5  23392620.939
 19  9  1  2 41 30.0000000  0  8G02G06G12G19G24G25G29G32
 111930657.619 6  21299695.535
 117809897.691 6  22418476.916
 108640663.684 7  20673628.425
 125680728.87114  23916247.496
 108112812.711 7  20573183.439
 119418641.106 5  22724611.307
 122846115.298 5  23376838.107
 129321938.87213  24609145.814
 19  9  1  2 42  0.0000000  0  8G02G06G12G19G24G25G29G32
 111909126.775 6  21295598.385
 117857854.057 6  22427602.662
 108621818.869 7  20670041.966
 125781642.990 4  23935451.030
 108151303.623 7  20580507.672
 119348786.583 5  22711317.654
 122763427.221 5  23361103.015
 129307002.265 3  24606303.819
 19  9  1  2 42 30.0000000  0  8G02G06G12G19G24G25G29G32
 111888107.930 7  21291598.160
 117906337.066 6  22436829.059
 108603165.250 7  20666492.273
 125882580.642 4  23954658.900
 108190304.340 7  20587929.622
 119278991.782 5  22698036.180
 122680985.901 5  23345414.741
 129292560.331 3  24603554.901
 19  9  1  2 43  0.0000000  0  8G02G06G12G19G24G25G29G32
 111867603.372 6  21287696.284
 117955346.499 6  22446155.515
 108584704.931 7  20662979.492
 125983541.306 4  23973871.443
 108229815.718 7  20595448.604
 119209258.666 5  22684766.586
 122598793.373 4  23329773.483
 129278614.281 3  24600901.832
 19  9  1  2 43 30.0000000  0  8G02G06G12G19G24G25G29G32
 111847613.742 6  21283892.609
 118004880.973 6  22455581.484
 108566438.588 7  20659503.551
 126084523.501 4  23993087.539
 108269836.675 7  20603063.910
 119139588.165 5  22671509.240
 122516850.398 5  23314180.193
 129265164.287 3  24598342.135
 19  9  1  2 44  0.0000000  0  8G02G06G12G17G24G25G29G32
 111828138.689 6  21280186.781
 118054937.458 6  22465106.852
 108548365.433 7  20656064.326
 135783371.41413  25838716.647
 108310365.339 7  20610776.460
 119069979.458 5  22658262.483
 122435156.568 5  23298635.156
 129252208.592 3  24595876.405
 19  9  1  2 44 30.0000000  0  7G02G06G12G24G25G29G32
 111809179.335 6  21276578.859
 118105514.748 6  22474731.443
 108530486.983 7  20652662.354
 108351400.721 7  20618585.039
 119000433.726 5  22645028.774
 122353712.844 5  23283137.148
 129239747.489 3  24593504.918
 19  9  1  2 45  0.0000000  0  7G02G06G12G24G25G29G32
 111790736.385 6  21273068.935
 118156611.146 6  22484454.540
 108512803.715 7  20649297.243
 108392942.041 7  20626490.295
 118930951.549 5  22631806.843
 122272520.730 5  23267687.097
 129227780.665 3  24591227.634
 19  9  1  2 45 30.0000000  0  8G02G06G12G19G24G25G29G32
 111772811.002 6  21269657.925
 118208225.46516  22494276.762
 108495316.952 7  20645969.483
 126488620.52314  24069984.344
 108434989.240 7  20634491.551
 118861534.253 5  22618596.911
 122191581.104 5  23252284.471
 129216308.450 3  24589044.555
 19  9  1  2 46  0.0000000  0  8G02G06G12G19G24G25G29G32
 111755403.236 6  21266345.265
 118260355.702 6  22504196.675
 108478026.738 7  20642679.049
 126589679.079 4  24089215.124
 108477540.385 7  20642589.040
 118792181.993 5  22605399.188
 122110893.846 5  23236930.180
 129205330.025 3  24586955.341
 19  9  1  2 46 30.0000000  0  8G02G06G12G19G24G25G29G32
 111738513.917 6  21263131.688
 118312999.995 6  22514214.775
 108460933.512 7  20639426.394
 126690747.701 4  24108448.481
 108520594.491 7  20650781.785
 118722895.366 5  22592214.840
 122030460.388 5  23221624.306
 129194845.038 3  24584959.795
 19  9  1  2 47  0.0000000  0  8G02G06G12G19G24G25G29G32
 111722143.595 6  21260016.395
 118366156.636 6  22524329.967
 108444038.694 7  20636211.385
 126791824.636 4  24127684.018
 108564150.590 7  20659070.168
 118653675.226 5  22579042.117
 121950281.203 5  23206366.631
 129184853.324 3  24583058.414
 19  9  1  2 47 30.0000000  0  8G02G06G12G19G24G25G29G32
 111706292.653 6  21257000.019
 118419823.678 6  22534542.195
 108427342.624 7  20633034.273
 126892908.165 4  24146918.124
 108608207.817 7  20667454.093
 118584521.958 5  22565882.677
 121870356.804 5  23191157.098
 129175354.139 3  24581250.681
 19  9  1  2 48  0.0000000  0  8G02G06G12G19G24G25G29G32
 111690962.709 6  21254082.838
 118474000.334 6  22544851.750
 108410846.916 7  20629895.396
 126993997.506 4  24166155.874
 108652765.543 7  20675933.101
 118515437.377 5  22552736.598
 121790688.742 5  23175996.951
 129166348.172 3  24579537.783
 19  9  1  2 48 30.0000000  0  8G02G06G12G19G24G25G29G32
 111676152.094 6  21251263.940
 118528682.823 6  22555258.089
 108394550.346 7  20626794.133
 127095088.863 4  24185392.141
 108697820.811 7  20684506.720
 118446420.166 5  22539602.877
 121711276.143 5  23160885.471
 129157833.083 3  24577916.120
 19  9  1  2 49  0.0000000  0  8G02G06G12G19G24G25G29G32
 111661862.347 6  21248544.980
 118583870.313 6  22565759.079
 108378454.673 6  20623731.284
 127196181.482 4  24204629.804
 108743373.502 7  20693175.023
 118377472.029 5  22526482.677
 121632120.537 5  23145822.769
 129149809.305 3  24576390.457
 19  9  1  2 49 30.0000000  0  8G02G06G12G19G24G25G29G32
 111648094.550 7  21245925.312
 118639561.366 6  22576357.145
 108362560.941 7  20620706.761
 127297274.483 4  24223866.825
 108789422.845 7  20701938.025
 118308594.169 5  22513375.598
 121553223.142 5  23130808.666
 129142276.896 3  24574957.764
 19  9  1  2 50  0.0000000  0  8G02G06G12G19G24G25G29G32
 111634848.526 7  21243404.612
 118695753.625 6  22587050.023
 108346869.468 7  20617720.663
 127398365.306 4  24243104.486
 108835967.290 7  20710795.145
 118239786.722 6  22500281.875
 121474583.512 5  23115843.925
 129135234.827 3  24573617.225
 19  9  1  2 50 30.0000000  0  8G02G06G12G19G24G25G29G32
 111622124.190 7  21240983.122
 118752444.599 6  22597838.053
 108331380.265 7  20614773.186
 127499451.997 4  24262339.402
 108883005.087 7  20719745.959
 118171049.923 5  22487201.666
 121396202.344 5  23100928.864
 129128681.987 4  24572370.272
 19  9  1  2 51  0.0000000  0  8G02G06G12G19G24G25G29G32
 111609922.415 6  21238661.255
 118809632.597 6  22608720.510
 108316094.231 7  20611864.374
 127600532.819 4  24281575.360
 108930535.325 7  20728790.762
 118102384.607 6  22474135.787
 121318080.578 5  23086062.591
 129122618.055 3  24571217.083
 19  9  1  2 51 30.0000000  0  8G02G06G12G19G24G25G29G32
 111598244.811 7  21236439.241
 118867317.289 6  22619697.617
 108301013.912 7  20608994.708
 127701607.939 4  24300809.399
 108978557.843 7  20737929.294
 118033793.160 6  22461082.739
 121240219.736 5  23071245.907
 129117043.941 3  24570155.512
 19  9  1  2 52  0.0000000  0  8G02G06G12G19G24G25G29G32
 111587089.994 6  21234316.309
 118925495.138 6  22630768.377
 108286138.366 7  20606163.963
 127802673.945 4  24320042.309
 109027070.070 7  20747160.890
 117965274.766 6  22448044.396
 121162619.452 5  23056479.295
 129111957.605 3  24569187.566
 19  9  1  2 52 30.0000000  0  8G02G06G12G19G24G25G29G32
 111576458.699 6  21232293.382
 118984164.267 6  22641933.121
 108271468.419 7  20603372.288
 127903729.609 4  24339271.618
 109076070.512 7  20756485.316
 117896830.240 6  22435019.947
 121085280.153 5  23041762.230
 129107358.483 3  24568313.685
 19  9  1  2 53  0.0000000  0  8G02G06G12G19G24G25G29G32
 111566351.580 6  21230369.844
 119043323.090 6  22653190.160
 108257005.351 7  20600620.045
 128004773.258 3  24358499.854
 109125558.748 7  20765902.614
 117828460.770 6  22422009.670
 121008202.987 5  23027095.018
 129103246.358 3  24567530.192
 19  9  1  2 53 30.0000000  0  8G02G06G12G19G24G25G29G32
 111556768.095 6  21228546.363
 119102968.847 6  22664540.223
 108242749.109 7  20597907.358
 128105802.772 3  24377725.107
 109175532.988 7  20775412.443
 117760166.291 6  22409013.787
 120931387.946 5  23012477.355
 129099619.752 3  24566840.063
 19  9  1  2 54  0.0000000  0  8G02G06G12G19G24G25G29G32
 111547709.020 6  21226822.550
 119163100.181 6  22675983.289
 108228700.859 7  20595233.964
 128206817.148 3  24396948.190
 109225991.788 7  20785014.244
 117691948.261 6  22396031.660
 120854835.899 5  22997909.886
 129096478.601 3  24566242.267
 19  9  1  2 54 30.0000000  0  8G02G06G12G19G24G25G29G32
 111539175.230 7  21225198.654
 119223715.402 6  22687518.299
 108214861.805 7  20592600.605
 128307815.433 4  24416166.844
 109276934.534 7  20794708.433
 117623807.820 6  22383065.592
 120778547.762 5  22983392.745
 129093822.648 3  24565736.450
 19  9  1  2 55  0.0000000  0  8G02G06G12G19G24G25G29G32
 111531166.542 6  21223674.583
 119284812.240 5  22699144.121
 108201232.597 7  20590006.834
 128408795.564 3  24435383.421
 109328360.135 7  20804494.407
 117555745.537 6  22370113.697
 120702524.103 5  22968926.064
 129091650.883 3  24565324.264
 19  9  1  2 55 30.0000000  0  8G02G06G12G19G24G25G29G32
 111523683.049 6  21222250.200
 119346388.355 5  22710861.955
 108187813.620 7  20587453.358
 128509755.598 3  24454595.134
 109380265.755 7  20814371.730
 117487761.880 6  22357176.769
 120626764.827 5  22954509.734
 129089962.254 3  24565002.191
 19  9  1  2 56  0.0000000  0  7G02G06G12G19G24G25G29
 111516724.810 6  21220926.246
 119408441.809 5  22722670.195
 108174605.761 7  20584940.188
 128610694.326 3  24473801.463
 109432651.147 7  20824340.407
 117419857.880 6  22344255.164
 120551271.131 5  22940143.774
 19  9  1  2 56 30.0000000  0  7G02G06G12G19G24G25G29
 111510291.422 7  21219702.150
 119470970.021 5  22734568.696
 108161609.361 7  20582466.912
 128711609.707 3  24493006.432
 109485513.150 7  20834399.637
 117352033.755 6  22331348.368
 120476042.442 5  22925827.934
 19  9  1  2 57  0.0000000  0  7G02G06G12G19G24G25G29
 111504383.064 6  21218577.736
 119533970.937 5  22746558.325
 108148825.222 6  20580034.074
 128812500.191 3  24512205.649
 109538851.674 7  20844549.679
 117284290.491 5  22318457.107
 120401079.873 5  22911563.193
 19  9  1  2 57 30.0000000  0  7G02G06G12G19G24G25G29
 111499000.219 7  21217553.520
 119597442.57615  22758635.954
 108136254.504 7  20577642.230
 128913364.498 3  24531399.925
 109592665.086 7  20854789.961
 117216628.975 6  22305582.026
 120326384.006 5  22897349.055
 19  9  1  2 58  0.0000000  0  7G02G06G12G19G24G25G29
 111494143.645 6  21216629.430
 119661383.348 5  22770803.442
 108123898.237 7  20575290.925
 129014201.512 3  24550589.138
 109646951.753 7  20865120.533
 117149050.602 6  22292721.961
 120251955.762 5  22883186.028
 19  9  1  2 58 30.0000000  0  8G02G06G12G19G24G25G29G32
 111489812.796 6  21215805.149
 119725790.84815  22783059.597
 108111756.956 7  20572980.323
 129115009.086 3  24569771.490
 109701711.045 7  20875540.881
 117081556.031 6  22279878.328
 120177795.039 5  22869073.846
 129089920.62713  24564995.516
 19  9  1  2 59  0.0000000  0  8G02G06G12G19G24G25G29G32
 111486008.382 6  21215081.298
 119790663.372 5  22795404.661
 108099831.915 6  20570711.016
 129215786.687 3  24588948.863
 109756941.003 7  20886050.678
 117014146.499 6  22267050.589
 120103902.955 5  22855012.593
 129091591.767 3  24565313.788
 19  9  1  2 59 30.0000000  0  8G02G06G12G19G24G25G29G32
 111482728.832 7  21214457.302
 119855997.449 6  22807837.357
 108088122.739 7  20568482.945
 129316531.537 3  24608119.550
 109812638.558 7  20896649.632
 116946821.574 6  22254239.468
 120030278.969 5  22841002.336
 129093738.577 3  24565722.208
 19  9  1  3  0  0.0000000  0  8G02G06G12G19G24G25G29G32
 111479975.678 6  21213933.133
 119921792.129 5  22820357.662
 108076631.433 7  20566296.235
 129417243.475 3  24627285.100
 109868804.471 7  20907337.716
 116879583.393 6  22241444.105
 119956924.691 5  22827043.417
 129096361.388 4  24566221.527
 19  9  1  3  0 30.0000000  0  8G02G06G12G19G24G25G29G32
 111477747.398 7  21213509.379
 119988043.805 5  22832964.743
 108065357.321 7  20564150.796
 129517919.412 3  24646443.147
 109925435.147 7  20918114.080
 116812431.416 6  22228665.803
 119883839.103 5  22813135.355
 129099457.819 4  24566811.472
 19  9  1  3  1  0.0000000  0  8G02G06G12G19G24G25G29G32
 111476045.149 6  21213185.343
 120054751.557 5  22845658.763
 108054302.879 6  20562047.229
 129618559.663 3  24665594.624
 109982530.431 7  20928979.056
 116745367.870 6  22215903.817
 119811024.015 5  22799279.216
 129103028.136 3  24567489.422
 19  9  1  3  1 30.0000000  0  8G02G06G12G19G24G25G29G32
 111474869.439 7  21212961.787
 120121913.754 5  22858439.356
 108043468.941 7  20559985.484
 129719163.105 3  24684737.268
 110040088.983 7  20939931.981
 116678394.176 6  22203159.230
 119738480.420 5  22785474.394
 129107072.000 3  24568259.777
 19  9  1  3  2  0.0000000  0  8G02G06G12G19G24G25G29G32
 111474218.185 6  21212837.647
 120189525.830 5  22871305.667
 108032854.518 7  20557965.784
 129819726.230 3  24703874.743
 110098106.991 7  20950972.265
 116611508.926 6  22190431.172
 119666206.445 5  22771721.600
 129111586.034 4  24569118.325
 19  9  1  3  2 30.0000000  0  8G02G06G12G19G24G25G29G32
 111474092.973 7  21212813.681
 120257587.659 5  22884257.823
 108022462.330 7  20555988.284
 129920249.361 3  24723004.802
 110156585.029 7  20962100.398
 116544715.231 6  22177720.697
 119594204.445 5  22758020.024
 129116571.278 3  24570066.764
 19  9  1  3  3  0.0000000  0  8G02G06G12G19G24G25G29G32
 111474492.305 6  21212889.771
 120326095.717 5  22897294.172
 108012291.661 7  20554052.747
 130020729.736 3  24742124.498
 110215520.706 7  20973315.427
 116478012.671 6  22165027.739
 119522473.360 5  22744369.740
 129122025.428 3  24571106.049
 19  9  1  3  3 30.0000000  0  8G02G06G12G19G24G25G29G32
 111475416.820 7  21213065.818
 120395048.079 5  22910415.542
 108002344.087 7  20552159.618
 130121166.554 3  24761236.718
 110274912.492 7  20984617.456
 116411402.558 6  22152352.415
 119451014.366 5  22730771.549
 129127947.784 3  24572232.241
 19  9  1  3  4  0.0000000  0  9G02G05G06G12G19G24G25G29G32
 111476865.965 6  21213341.409
 133598846.71312  25423014.617
 120464442.52315  22923620.876
 107992620.441 7  20550309.388
 130221558.389 3  24780341.285
 110334758.447 7  20996005.643
 116344885.911 6  22139694.568
 119379827.741 5  22717225.405
 129134337.307 3  24573447.624
 19  9  1  3  4 30.0000000  0  9G02G05G06G12G19G24G25G29G32
 111478839.517 6  21213716.994
 133526725.366 3  25409292.553
 120534276.321 5  22936910.006
 107983121.107 7  20548501.987
 130321903.594 3  24799436.286
 110395055.921 7  21007480.063
 116278463.181 6  22127054.402
 119308913.157 5  22703730.755
 129141192.432 3  24574753.121
 19  9  1  3  5  0.0000000  0  9G02G05G06G12G19G24G25G29G32
 111481337.894 6  21214192.396
 133454468.305 3  25395541.759
 120604547.943 5  22950281.616
 107973847.602 7  20546737.103
 130422201.508 3  24818522.689
 110455804.996 7  21019040.040
 116212136.201 6  22114432.879
 119238272.327 5  22690288.374
 129148512.782 3  24576145.668
 19  9  1  3  5 30.0000000  0  9G02G05G06G12G19G24G25G29G32
 111484359.579 7  21214767.511
 133382067.053 2  25381764.507
 120675253.958 5  22963736.871
 107964799.468 7  20545015.442
 130522449.864 3  24837599.198
 110517002.546 7  21030685.638
 116145904.764 6  22101829.724
 119167903.968 5  22676897.817
 129156295.973 3  24577625.886
 19  9  1  3  6  0.0000000  0  8G02G06G12G19G24G25G29G32
 111487905.524 7  21215442.284
 120746393.069 5  22977274.216
 107955979.021 7  20543336.894
 130622648.201 3  24856666.303
 110578647.734 7  21042416.620
 116079770.885 6  22089244.796
 119097809.914 5  22663559.594
 129164542.012 3  24579195.953
 19  9  1  3  6 30.0000000  0  9G02G05G06G12G19G24G25G29G32
 111491974.655 7  21216216.638
                  25354129.643
 120817962.41515  22990893.203
 107947386.588 7  20541701.716
 130722794.918 3  24875722.835
 110640738.254 7  21054231.796
 116013735.061 6  22076678.581
 119027989.822 5  22650272.875
 129173249.084 2  24580852.779
 19  9  1  3  7  0.0000000  0  9G02G05G06G12G19G24G25G29G32
 111496567.740 7  21217090.820
                  25340273.547
 120889960.23915  23004594.008
 107939023.429 7  20540110.443
 130822888.897 3  24894769.926
 110703273.240 7  21066131.829
 115947798.863 6  22064131.323
 118958444.754 5  22637038.885
 129182416.627 3  24582597.739
 19  9  1  3  7 30.0000000  0  9G02G05G06G12G19G24G25G29G32
 111501683.522 7  21218063.893
 133091082.661 3  25326392.278
 120962383.603 5  23018375.980
 107930889.859 7  20538562.677
 130922928.687 3  24913807.504
 110766249.675 7  21078115.821
 115881962.731 6  22051603.237
 118889174.199 5  22623857.058
 129192042.828 3  24584430.858
 19  9  1  3  8  0.0000000  0  8G02G05G06G12G19G24G25G29
 111507321.40616  21219136.958
 133018002.768 2  25312485.630
 121035229.897 5  23032238.366
 107922986.565 7  20537058.761
 131022912.787 3  24932834.776
 110829665.980 7  21090183.549
 115816227.387 6  22039094.580
 118820178.303 5  22610727.918
 19  9  1  3  8 30.0000000  0  8G02G05G06G12G19G24G25G29
 111513480.879 7  21220309.192
 132944794.026 3  25298554.103
 121108496.37915  23046180.306
 107915313.855 7  20535598.424
 131122839.231 3  24951849.668
 110893520.076 7  21102334.750
 115750593.527 6  22026604.631
 118751456.671 5  22597650.080
 19  9  1  3  9  0.0000000  0  8G02G05G06G12G19G24G25G29
 111520163.334 6  21221580.832
 132871461.024 3  25284599.826
 121182182.626 5  23060202.257
 107907874.897 7  20534182.926
 131222708.916 3  24970853.659
 110957812.081 7  21114569.210
 115685064.137 6  22014134.443
 118683012.164 5  22584625.849
 19  9  1  3  9 30.0000000  0  8G02G05G06G12G19G24G25G29
 111527367.653 7  21222951.553
 132798005.694 3  25270621.441
 121256285.634 5  23074303.104
 107900669.885 7  20532812.039
 131322519.854 3  24989847.840
 111022539.097 7  21126886.230
 115619639.656 6  22001684.575
 118614843.695 5  22571653.574
 19  9  1  3 10  0.0000000  0  8G02G05G06G12G19G24G25G29
 111535091.563 6  21224421.535
 132724428.897 3  25256619.508
 121330801.109 5  23088483.446
 107893697.452 7  20531484.975
 131422269.005 2  25008829.717
 111087697.873 7  21139285.551
 115554319.229 6  21989254.489
 118546950.703 5  22558734.113
 19  9  1  3 10 30.0000000  0  7G02G05G06G12G24G25G29
 111543335.507 7  21225990.122
 132650733.790 3  25242596.520
 121405727.431 5  23102741.372
 107886959.734 7  20530202.839
 111153286.914 7  21151766.563
 115489104.722 6  21976844.443
 118479333.667 6  22545867.062
 19  9  1  3 11  0.0000000  0  7G02G05G06G12G24G25G29
 111552099.580 7  21227658.054
 132576923.749 3  25228551.093
 121481062.828 5  23117077.164
 107880457.796 7  20528965.756
 111219305.507 7  21164329.576
 115423997.854 6  21964454.948
 118411993.307 6  22533052.655
 19  9  1  3 11 30.0000000  0  7G02G05G06G12G24G25G29
 111561381.969 7  21229424.476
 132503000.339 3  25214483.365
 121556803.551 5  23131490.571
 107874191.893 7  20527773.331
 111285750.220 7  21176973.740
 115358998.391 6  21952086.142
 118344928.970 6  22520290.824
 19  9  1  3 12  0.0000000  0  7G02G05G06G12G24G25G29
 111571184.289 7  21231289.777
 132428968.166 3  25200395.936
 121632949.191 5  23145980.639
 107868164.565 7  20526626.296
 111352621.273 7  21189698.765
 115294109.418 6  21939738.373
 118278142.737 5  22507581.589
 19  9  1  3 12 30.0000000  0  7G02G05G06G12G24G25G29
 111581504.840 7  21233253.879
 132354828.308 3  25186287.232
 121709496.010 5  23160547.375
 107862375.284 7  20525524.762
 111419915.379 7  21202504.251
 115229330.751 6  21927411.547
 118211633.282 5  22494925.349
 19  9  1  3 13  0.0000000  0  7G02G05G06G12G24G25G29
 111592344.070 7  21235316.479
 132280584.566 3  25172159.600
 121786442.648 5  23175189.206
 107856826.198 7  20524468.830
 111487631.787 7  21215390.598
 115164664.592 6  21915105.839
 118145402.166 5  22482322.487
 19  9  1  3 13 30.0000000  0  7G02G05G06G12G24G25G29
 111603699.324 6  21237477.300
 132206239.97113  25158011.864
 121863784.79015  23189906.864
 107851516.348 7  20523458.415
 111555766.328 7  21228356.266
 115100110.247 6  21902821.570
 118079448.301 6  22469771.482
 19  9  1  3 14  0.0000000  0  7G02G05G06G12G24G25G29
 111615571.739 6  21239736.598
 132131794.789 3  25143844.877
 121941521.451 5  23204699.693
 107846447.975 7  20522493.977
 111624318.723 7  21241401.263
 115035670.251 6  21890558.741
 118013772.616 6  22457273.934
 19  9  1  3 14 30.0000000  0  7G02G05G06G12G24G25G29
 111627959.497 7  21242093.946
 132057252.509 2  25129660.058
 122019648.920 5  23219566.941
 107841621.042 7  20521575.446
 111693285.787 7  21254525.179
 114971344.476 6  21878318.074
 117948374.421 6  22444828.903
 19  9  1  3 15  0.0000000  0  7G02G05G06G12G24G25G29
 111640861.712 6  21244549.024
 131982615.359 3  25115457.682
 122098164.636 5  23234508.273
 107837036.274 7  20520702.992
 111762665.598 7  21267727.694
 114907134.065 6  21866099.499
 117883253.845 6  22432436.615
 19  9  1  3 15 30.0000000  0  7G02G05G06G12G24G25G29
 111654278.853 7  21247102.012
 131907887.272 2  25101237.200
 122177067.034 5  23249522.994
 107832695.561 7  20519876.990
 111832457.251 7  21281008.426
 114843041.082 6  21853902.751
 117818411.718 6  22420097.845
 19  9  1  3 16  0.0000000  0  7G02G05G06G12G24G25G29
 111668209.435 7  21249753.156
 131833070.348 3  25086999.485
 122256353.022 5  23264610.747
 107828599.239 7  20519097.430
 111902657.673 7  21294367.685
 114779066.085 6  21841728.625
 117753847.778 6  22407811.978
 19  9  1  3 16 30.0000000  0  7G02G05G06G12G24G25G29
 111682653.084 7  21252501.885
 131758167.755 3  25072747.280
 122336020.213 5  23279770.395
 107824748.197 7  20518364.582
 111973265.130 7  21307803.539
 114715210.310 6  21829577.368
 117689562.395 6  22395578.473
 19  9  1  3 17  0.0000000  0  6G02G06G12G24G25G29
 111697609.036 6  21255347.886
 122416066.417 5  23295003.387
 107821143.551 7  20517678.835
 112044277.989 7  21321316.937
 114651475.179 6  21817448.677
 117625556.004 6  22383398.447
 19  9  1  3 17 30.0000000  0  6G02G06G12G24G25G29
 111713075.856 7  21258291.143
 122496488.148 5  23310306.806
 107817785.631 7  20517039.779
 112115693.411 7  21334906.832
 114587861.123 6  21805343.327
 117561828.050 6  22371271.967
 19  9  1  3 18  0.0000000  0  6G02G06G12G24G25G29
 111729052.494 7  21261331.054
 122577282.526 5  23325681.561
 107814674.843 7  20516447.967
 112187508.883 7  21348572.795
 114524368.848 6  21793261.486
 117498378.039 6  22359197.039
 19  9  1  3 18 30.0000000  0  6G02G06G12G24G25G29
 111745540.257 7  21264468.563
 122658448.984 5  23341126.713
 107811814.121 7  20515903.586
 112259724.178 7  21362314.850
 114461001.532 6  21781203.202
 117435207.918 6  22347177.043
 19  9  1  3 19  0.0000000  0  6G02G06G12G24G25G29
 111762537.608 7  21267703.381
 122739984.458 5  23356643.204
 107809204.020 7  20515406.833
 112332336.403 7  21376132.684
 114397759.862 6  21769168.548
 117372317.565 6  22335209.091
 19  9  1  3 19 30.0000000  0  6G02G06G12G24G25G29
 111780042.496 7  21271034.081
 122821885.064 5  23372228.203
 107806844.136 7  20514957.597
 112405342.955 7  21390025.407
 114334643.681 6  21757158.024
 117309705.556 6  22323294.628
 19  9  1  3 20  0.0000000  0  7G02G05G06G12G24G25G29
 111798055.722 7  21274462.297
                  24972557.523
 122904149.83915  23387882.324
 107804736.769 7  20514556.597
 112478742.777 7  21403992.814
 114271655.845 6  21745171.942
 117247373.502 6  22311432.835
 19  9  1  3 20 30.0000000  0  6G02G06G12G24G25G29
 111816574.900 7  21277986.146
 122986774.852 5  23403604.752
 107802881.232 7  20514203.571
 112552532.514 7  21418034.683
 114208796.149 6  21733210.302
 117185320.339 6  22299624.542
 19  9  1  3 21  0.0000000  0  7G02G05G06G12G24G25G29
 111835600.538 6  21281606.731
 131080634.98113  24943815.019
 123069758.80315  23419396.473
 107801280.219 7  20513898.994
 112626710.639 7  21432150.081
 114146067.150 6  21721273.198
 117123547.098 6  22287869.439
 19  9  1  3 21 30.0000000  0  7G02G05G06G12G24G25G29
 111855130.871 7  21285323.085
 131005016.57913  24929425.377
 123153098.09715  23435255.699
 107799933.353 7  20513642.806
 112701274.896 7  21446339.272
 114083469.044 6  21709361.108
 117062053.639 6  22276167.738
 19  9  1  3 22  0.0000000  0  7G02G05G06G12G24G25G29
 111875164.567 6  21289135.410
 130929350.224 3  24915028.803
 123236789.912 5  23451181.378
 107798841.498 7  20513435.073
 112776222.420 7  21460601.429
 114021002.849 6  21697474.302
 117000839.149 6  22264518.989
 19  9  1  3 22 30.0000000  0  7G02G05G06G12G24G25G29
 111895700.855 7  21293043.201
 130853631.174 3  24900618.067
 123320831.688 5  23467174.360
 107798005.549 7  20513275.755
 112851551.400 7  21474936.059
 113958669.820 6  21685612.662
 116939903.712 6  22252923.494
 19  9  1  3 23  0.0000000  0  7G02G05G06G12G24G25G29
 111916738.853 6  21297046.694
 130777862.223 3  24886200.697
 123405221.304 5  23483233.202
 107797426.704 7  20513165.576
 112927260.216 7  21489343.087
 113896471.707 6  21673776.610
 116879247.737 6  22241380.713
 19  9  1  3 23 30.0000000  0  7G02G05G06G12G24G25G29
 111938277.652 7  21301145.461
 130702046.053 3  24871772.913
 123489956.049 5  23499357.181
 107797105.960 7  20513104.796
 113003346.252 7  21503821.659
 113834409.656 6  21661966.570
 116818871.393 6  22229891.501
 19  9  1  3 24  0.0000000  0  7G02G05G06G12G24G25G29
 111960315.938 7  21305339.360
 130626185.352 3  24857337.772
 123575032.709 5  23515547.740
 107797044.047 7  20513092.709
 113079806.650 7  21518371.657
 113772484.307 6  21650182.355
 116758774.244 6  22218455.596
 19  9  1  3 24 30.0000000  0  7G02G05G06G12G24G25G29
 111982853.990 7  21309628.084
 130550284.089 3  24842893.579
 123660450.120 5  23531801.772
 107797242.965 7  20513130.848
 113156640.610 7  21532992.768
 113710698.443 6  21638425.188
 116698957.472 6  22207072.664
 19  9  1  3 25  0.0000000  0  7G02G05G06G12G24G25G29
 112005889.103 6  21314011.621
 130474343.323 3  24828443.531
 123746204.010 5  23548120.144
 107797701.839 7  20513218.259
 113233844.343 7  21547684.005
 113649051.660 6  21626694.201
 116639419.556 6  22195743.098
 19  9  1  3 25 30.0000000  0  7G02G05G06G12G24G25G29
 112029420.936 7  21318489.395
 130398367.074 3  24813984.797
 123832292.561 5  23564502.885
 107798422.661 7  20513355.232
 113311416.305 7  21562445.198
 113587546.042 6  21614990.015
 116580161.413 6  22184466.762
 19  9  1  3 26  0.0000000  0  7G02G05G06G12G24G25G29
 112053447.525 7  21323061.661
 130322356.932 3  24799521.742
 123918712.022 5  23580947.564
 107799405.094 7  20513542.031
 113389353.798 7  21577276.461
 113526181.764 6  21603312.631
 116521181.713 6  22173243.220
 19  9  1  3 26 30.0000000  0  8G02G05G06G12G24G25G29G31
 112077969.13417  21327727.942
 130246317.43614  24785051.090
 124005461.43515  23597455.210
 107800651.674 7  20513779.366
 113467655.142 7  21592176.868
 113464961.774 6  21591662.899
 116462481.610 6  22162073.081
 134595068.54913  25612589.613
 19  9  1  3 27  0.0000000  0  8G02G05G06G12G24G25G29G31
 112102983.627 7  21332487.943
 130170250.742 3  24770576.051
 124092537.014 4  23614024.419
 107802162.347 7  20514067.053
 113546317.782 7  21607145.879
 113403886.321 6  21580040.538
 116404060.495 6  22150956.384
 134495447.299 3  25593632.354
 19  9  1  3 27 30.0000000  0  8G02G05G06G12G24G25G29G31
 112128490.246 7  21337341.881
 130094159.480 3  24756096.572
 124179936.24715  23630657.207
 107803938.120 7  20514404.911
 113625339.302 6  21622183.125
 113342956.793 6  21568445.967
 116345918.456 6  22139891.795
 134395949.56613  25574698.476
 19  9  1  3 28  0.0000000  0  7G02G05G06G12G24G25G29
 112154488.698 7  21342289.022
 130018048.262 3  24741613.316
 124267657.68515  23647349.538
 107805981.060 7  20514793.795
 113704718.682 7  21637288.594
 113282175.731 6  21556880.101
 116288056.518 6  22128880.656
 19  9  1  3 28 30.0000000  0  7G02G05G06G12G24G25G29
 112180976.564 7  21347329.642
 129941917.667 3  24727125.499
 124355697.331 5  23664102.791
 107808290.727 7  20515233.331
 113784451.907 7  21652461.476
 113221543.080 6  21545341.565
 116230473.399 6  22117923.618
 19  9  1  3 29  0.0000000  0  7G02G05G06G12G24G25G29
 112207953.599 7  21352463.211
 129865772.361 3  24712636.075
 124444053.418 5  23680916.649
 107810869.003 7  20515723.889
 113864537.875 6  21667701.156
 113161061.115 6  21533832.572
 116173169.873 6  22107019.130
 19  9  1  3 29 30.0000000  0  7G02G05G06G12G24G25G29
 112235417.559 7  21357689.417
 129789613.832 3  24698142.892
 124532722.245 5  23697789.669
 107813715.773 7  20516265.507
 113944973.133 7  21683007.626
 113100730.139 6  21522352.076
 116116144.490 6  22096167.111
 19  9  1  3 30  0.0000000  0  7G02G05G06G12G24G25G29
 112263368.538 7  21363008.646
 129713446.122 3  24683649.658
 124621702.458 5  23714721.440
 107816833.683 7  20516858.960
 114025756.569 6  21698380.068
 113040552.753 6  21510900.652
 116059399.323 6  22085368.892
 19  9  1  3 30 30.0000000  0  7G02G05G06G12G24G25G29
 112291803.780 7  21368419.519
 129637270.933 3  24669154.486
 124710989.806 5  23731712.946
 107820221.529 7  20517503.560
 114106884.637 6  21713818.077
 112980528.780 6  21499478.561
 116002931.977 6  22074623.409
 19  9  1  3 31  0.0000000  0  7G02G05G06G12G24G25G29
 112320722.484 6  21373922.162
 129561091.980 3  24654657.330
 124800582.167 5  23748762.196
 107823880.560 7  20518199.681
 114188354.794 6  21729321.486
 112920660.080 6  21488085.889
 115946742.711 6  22063931.022
 19  9  1  3 31 30.0000000  0  7G02G05G06G12G24G25G29
 112350124.485 6  21379517.398
 129484913.068 3  24640161.533
 124890477.918 5  23765868.685
 107827813.278 7  20518948.237
 114270166.527 6  21744889.897
 112860949.111 6  21476723.261
 115890832.511 6  22053291.727
 19  9  1  3 32  0.0000000  0  7G02G05G06G12G24G25G29
 112380006.838 7  21385203.936
 129408735.206 3  24625664.365
 124980672.779 5  23783032.825
 107832018.842 7  20519748.410
 114352315.324 6  21760522.264
 112801395.623 6  21465390.506
 115835200.444 6  22042705.270
 19  9  1  3 32 30.0000000  0  8G02G05G06G12G24G25G29G31
 112410369.560 7  21390981.641
 129332563.221 3  24611169.169
 125071165.38215  23800252.852
 107836499.377 7  20520601.351
 114434800.351 6  21776218.432
 112742002.323 6  21454088.499
 115779846.709 6  22032171.623
                  25386786.210
 19  9  1  3 33  0.0000000  0  8G02G05G06G12G24G25G29G31
 112441210.228 7  21396850.681
 129256398.328 3  24596675.804
 125161951.986 5  23817528.386
 107841254.568 7  20521506.153
 114517617.813 6  21791978.272
 112682769.480 6  21442816.704
 115724770.816 6  22021691.205
 133310513.601 3  25368148.240
 19  9  1  3 33 30.0000000  0  8G02G05G06G12G24G25G29G31
 112472527.643 6  21402809.837
 129180244.302 3  24582184.215
 125253030.136 5  23834860.055
 107846285.861 7  20522463.567
 114600766.167 6  21807800.912
 112623698.831 6  21431576.219
 115669972.283 6  22011263.331
 133212716.310 3  25349537.649
 19  9  1  3 34  0.0000000  0  7G02G05G06G12G24G25G29
 112504320.528 7  21408860.166
 129104103.820 3  24567695.834
 125344396.971 4  23852247.380
 107851593.912 7  20523473.688
 114684242.383 6  21823686.046
 112564791.514 6  21420366.550
 115615450.980 6  22000888.375
 19  9  1  3 34 30.0000000  0  7G02G05G06G12G24G25G29
 112536588.222 6  21415000.416
 129027980.941 3  24553209.983
 125436050.728 4  23869688.070
 107857180.636 7  20524536.675
 114768044.726 6  21839633.018
 112506049.882 6  21409188.341
 115561207.962 6  21990566.339
 19  9  1  3 35  0.0000000  0  7G02G05G06G12G24G25G29
 112569328.285 7  21421230.607
 128951877.522 4  24538727.875
 125527987.998 4  23887182.530
 107863045.973 7  20525652.945
 114852170.837 6  21855641.729
 112447474.540 6  21398041.921
 115507241.951 6  21980297.219
 19  9  1  3 35 30.0000000  0  7G02G05G06G12G24G25G29
 112602540.158 7  21427550.561
 128875796.714 3  24524249.978
 125620206.165 4  23904730.913
 107869191.131 7  20526822.597
 114936617.495 6  21871711.143
 112389067.157 6  21386926.994
 115453552.880 6  21970080.720
 19  9  1  3 36  0.0000000  0  7G02G05G06G12G24G25G29
 112636223.337 6  21433960.209
 128799742.713 3  24509777.392
 125712703.784 4  23922333.874
 107875618.281 7  20528045.474
 115021384.037 6  21887841.853
 112330830.301 6  21375845.154
 115400141.601 6  21959916.477
 19  9  1  3 36 30.0000000  0  8G02G05G06G12G24G25G29G31
 112670374.571 7  21440459.137
 128723717.154 3  24495310.376
 125805476.71514  23939987.204
 107882326.664 7  20529321.907
 115106466.331 6  21904032.311
 112272763.953 6  21364795.298
 115347007.049 6  21949805.252
 132629308.47313  25238519.629
 19  9  1  3 37  0.0000000  0  8G02G05G06G12G24G25G29G31
 112704992.346 7  21447046.598
 128647722.857 4  24480848.017
 125898521.900 4  23957692.618
 107889316.930 7  20530652.427
 115191861.839 6  21920282.521
 112214869.196 6  21353778.598
 115294148.374 6  21939746.792
 132532659.590 3  25220126.748
 19  9  1  3 37 30.0000000  0  8G02G05G06G12G24G25G29G31
 112740076.789 6  21453723.169
 128571764.312 4  24466394.129
 125991838.356 4  23975450.393
 107896591.791 7  20532036.541
 115277569.543 6  21936592.550
 112157149.186 6  21342794.390
 115241566.968 6  21929740.727
 132436185.457 4  25201768.110
 19  9  1  3 38  0.0000000  0  8G02G05G06G12G24G25G29G31
 112775625.597 7  21460487.613
 128495843.645 4  24451947.320
 126085422.299 4  23993258.919
 107904151.037 7  20533475.058
 115363585.852 6  21952960.715
 112099604.259 6  21331844.238
 115189261.417 6  21919787.257
 132339887.306 4  25183444.077
 19  9  1  3 38 30.0000000  0  8G02G05G06G12G24G25G29G31
 112811636.228 7  21467340.119
 128419962.777 4  24437507.528
 126179270.033 4  24011118.376
 107911994.482 7  20534967.627
 115449907.514 6  21969387.238
 112042234.972 6  21320927.109
 115137230.333 6  21909886.338
 132243767.184 3  25165153.208
 19  9  1  3 39  0.0000000  0  8G02G05G06G12G24G25G29G31
 112848108.591 7  21474280.976
 128344126.492 4  24423076.586
 126273380.561 4  24029026.899
 107920124.357 7  20536514.695
 115536533.305 6  21985871.411
 111985044.374 6  21310044.300
 115085475.953 6  21900037.797
 132147828.894 3  25146896.702
 19  9  1  3 39 30.0000000  0  8G02G05G06G12G24G25G29G31
 112885039.126 6  21481308.393
 128268335.940 4  24408652.956
 126367749.146 4  24046984.317
 107928540.217 7  20538116.154
 115623459.443 6  22002413.141
 111928031.993 6  21299195.004
 115033995.448 6  21890241.085
 132052072.936 2  25128673.486
 19  9  1  3 40  0.0000000  0  8G02G05G06G12G24G25G29G31
 112922429.155 7  21488423.686
 128192596.446 4  24394240.618
 126462375.981 4  24064990.332
 107937245.428 7  20539772.567
 115710685.557 6  22019011.816
 111871202.059 6  21288380.924
 114982791.261 6  21880497.409
 131956504.363 2  25110489.003
 19  9  1  3 40 30.0000000  0  7G02G05G06G12G24G25G29
 112960274.783 7  21495625.337
 128116909.167 4  24379838.539
 126557255.436 4  24083046.078
 107946238.141 7  20541484.054
 115798206.768 6  22035666.835
 111814553.236 6  21277600.697
 114931860.504 6  21870805.558
 19  9  1  3 41  0.0000000  0  7G02G05G06G12G24G25G29
 112998576.549 6  21502913.841
 128041279.120 4  24365447.091
 126652387.771 4  24101148.344
 107955522.059 7  20543250.733
 115886023.249 6  22052377.395
 111758089.915 6  21266856.486
 114881205.891 6  21861166.222
 19  9  1  3 41 30.0000000  0  7G02G05G06G12G24G25G29
 113037332.272 7  21510289.015
 127965708.873 4  24351065.282
 126747769.371 4  24119299.694
 107965097.019 7  20545072.785
 115974131.319 6  22069143.827
 111701812.676 7  21256147.082
 114830825.737 6  21851579.459
 19  9  1  3 42  0.0000000  0  8G02G05G06G12G24G25G29G31
 113076538.506 7  21517749.690
 127890199.664 4  24336696.556
 126843395.92114  24137496.758
 107974962.502 7  20546950.116
 116062527.304 6  22085965.148
 111645721.446 7  21245472.938
 114780718.644 6  21842044.368
 131576138.14213  25038106.612
 19  9  1  3 42 30.0000000  0  8G02G05G06G12G24G25G29G31
 113116195.105 6  21525296.093
 127814755.642 4  24322341.130
 126939265.613 4  24155741.350
 107985120.033 7  20548883.121
 116151209.218 6  22102840.626
 111589818.461 7  21234835.441
 114730885.215 6  21832561.208
 131481536.556 4  25020104.937
 19  9  1  3 43  0.0000000  0  8G02G05G06G12G24G25G29G31
 113156300.136 7  21532927.681
 127739379.701 4  24307997.827
 127035375.715 4  24174029.868
 107995570.769 7  20550871.785
 116240174.643 6  22119770.339
 111534105.452 7  21224233.553
 114681325.021 6  21823130.343
 131387135.551 4  25002141.699
 19  9  1  3 43 30.0000000  0  8G02G05G06G12G24G25G29G31
 113196852.530 6  21540644.614
 127664075.433 4  24293667.380
 127131724.16214  24192364.829
 108006315.816 7  20552916.399
 116329422.036 6  22136753.521
 111478584.392 6  21213668.133
 114632038.362 6  21813751.604
 131292938.357 4  24984216.260
 19  9  1  3 44  0.0000000  0  8G02G05G06G12G24G25G29G31
 113237850.228 6  21548446.109
 127588845.693 4  24279351.349
 127228308.03114  24210742.933
 108017356.343 7  20555017.449
 116418947.964 6  22153789.852
 111423256.619 6  21203139.604
 114583024.503 6  21804424.440
 131198947.108 3  24966330.165
 19  9  1  3 44 30.0000000  0  7G02G05G06G12G24G25G29
 113279290.826 6  21556332.110
 127513692.770 4  24265050.302
 127325123.851 4  24229167.186
 108028691.971 7  20557174.761
 116508749.223 6  22170878.536
 111368122.808 7  21192648.237
 114534282.392 6  21795149.291
 19  9  1  3 45  0.0000000  0  7G02G05G06G12G24G25G29
 113321172.589 7  21564301.785
 127438620.021 4  24250764.692
 127422168.76214  24247633.703
 108040323.485 7  20559387.967
 116598823.217 6  22188018.973
 111313184.390 7  21182193.644
 114485811.733 6  21785925.402
 19  9  1  3 45 30.0000000  0  7G02G05G06G12G24G25G29
 113363495.252 7  21572355.469
 127363631.897 4  24236494.165
 127519441.68514  24266143.873
 108052253.602 7  20561658.381
 116689169.243 6  22205211.096
 111258444.528 7  21171777.101
 114437613.715 6  21776753.692
 19  9  1  3 46  0.0000000  0  7G02G05G06G12G24G25G29
 113406256.474 7  21580492.865
 127288731.045 4  24222241.395
 127616939.316 4  24284697.735
 108064482.378 7  20563985.202
 116779783.787 6  22222454.591
 111203904.126 7  21161398.401
 114389687.327 6  21767633.548
 19  9  1  3 46 30.0000000  0  8G02G05G06G12G24G25G29G31
 113449454.953 6  21588713.551
 127213920.26614  24208004.875
 127714659.08214  24303293.082
 108077010.824 7  20566369.246
 116870664.183 6  22239748.810
 111149564.849 7  21151057.803
 114342032.076 6  21758564.881
 130732163.86113  24877504.493
 19  9  1  3 47  0.0000000  0  8G02G05G06G12G24G25G29G31
 113493088.023 6  21597016.312
 127139201.673 4  24193787.196
 127812597.34214  24321930.088
 108089838.728 7  20568810.409
 116961807.321 6  22257092.926
 111095427.294 7  21140755.975
 114294647.192 6  21749548.177
 130639459.227 3  24859862.725
 19  9  1  3 47 30.0000000  0  8G02G05G06G12G24G25G29G31
 113537154.117 6  21605401.958
 127064579.160 4  24179587.212
 127910751.931 4  24340608.515
 108102967.488 7  20571308.767
 117053211.026 6  22274486.357
 111041493.596 7  21130492.764
 114247532.679 6  21740582.505
 130546977.665 4  24842264.769
 19  9  1  3 48  0.0000000  0  8G02G05G06G12G24G25G29G31
 113581651.715 6  21613869.474
 126990055.414 4  24165404.834
 128009120.071 4  24359326.847
 108116398.000 7  20573864.504
 117144872.592 6  22291928.540
 110987765.125 7  21120268.224
 114200687.803 6  21731668.187
 130454721.681 4  24824708.202
 19  9  1  3 48 30.0000000  0  8G02G05G06G12G24G25G29G31
 113626579.230 6  21622419.174
 126915633.935 4  24151243.362
 128107699.552 4  24378085.553
 108130131.383 7  20576477.974
 117236789.684 6  22309419.977
 110934243.966 7  21110083.537
 114154112.752 6  21722805.240
 130362693.927 3  24807194.617
 19  9  1  3 49  0.0000000  0  7G02G05G06G12G24G25G29
 113671936.010 6  21631049.955
 126841319.527 4  24137102.022
 128206488.841 4  24396885.624
 108144169.578 7  20579149.379
 117328961.099 6  22326959.793
 110880932.822 7  21099938.900
 114107808.182 6  21713993.623
 19  9  1  3 49 30.0000000  0  7G02G05G06G12G24G25G29
 113717717.333 6  21639761.799
 126767112.473 4  24122980.262
 128305482.329 4  24415723.160
 108158510.356 7  20581878.602
 117421381.100 6  22344546.355
 110827830.297 7  21089833.909
 114061770.879 6  21705233.082
 19  9  1  3 50  0.0000000  0  8G02G05G06G12G24G25G29G31
 113763922.609 6  21648554.504
 126693016.333 4  24108880.839
 128404678.53114  24434599.653
 108173155.956 7  20584665.246
 117514048.991 6  22362180.537
 110774939.234 7  21079768.971
 114016001.968 6  21696523.482
 130088010.22413  24754926.358
 19  9  1  3 50 30.0000000  0  8G02G05G06G12G24G25G29G31
 113810550.899 6  21657427.634
 126619035.681 4  24094802.987
 128504075.781 4  24453514.625
 108188108.376 7  20587510.455
 117606962.195 6  22379861.670
 110722262.189 6  21069744.757
 113970501.298 6  21687865.219
 129996919.957 3  24737591.862
 19  9  1  3 51  0.0000000  0  8G02G05G06G12G24G25G29G31
 113857599.680 6  21666380.622
 126545172.459 4  24080747.390
 128603670.559 4  24472467.849
 108203367.373 7  20590414.541
 117700117.510 6  22397588.355
 110669799.951 7  21059761.589
 113925268.329 6  21679257.498
 129906070.138 3  24720302.561
 19  9  1  3 51 30.0000000  0  8G02G05G06G12G24G25G29G31
 113905067.274 6  21675413.538
 126471430.636 4  24066714.983
 128703460.476 4  24491455.508
 108218934.105 7  20593376.660
 117793512.203 6  22415361.085
 110617554.324 6  21049819.661
 113880302.243 6  21670700.544
 129815463.343 4  24703060.360
 19  9  1  3 52  0.0000000  0  8G02G05G06G12G24G25G29G31
 113952951.637 7  21684525.526
 126397812.807 4  24052705.712
 128803442.569 4  24510482.624
 108234808.945 7  20596397.667
 117887144.316 6  22433178.672
 110565526.651 7  21039919.282
 113835603.064 6  21662194.698
 129725101.840 4  24685865.376
 19  9  1  3 52 30.0000000  0  8G02G05G06G12G24G25G29G31
 114001250.418 6  21693716.567
 126324320.991 4  24038720.569
 128903613.575 4  24529544.062
 108250991.986 7  20599477.305
 117981010.031 6  22451040.725
 110513717.887 7  21030060.454
 113791169.346 6  21653739.492
 129634987.457 4  24668717.744
 19  9  1  3 53  0.0000000  0  8G02G05G06G12G24G25G29G31
 114049964.037 6  21702986.387
 126250961.039 4  24024761.089
 129003973.247 4  24548641.966
 108267486.656 7  20602616.017
 118075109.136 6  22468946.992
 110462132.094 7  21020243.851
 113747003.215 6  21645335.013
 129545124.896 4  24651617.377
 19  9  1  3 53 30.0000000  0  8G02G05G06G12G24G25G29G31
 114099088.064 6  21712334.413
 126177733.580 4  24010826.089
 129104516.614 4  24567774.723
 108284291.480 7  20605813.752
 118169436.784 6  22486897.085
 110410768.497 7  21010469.713
 113703101.387 6  21636980.834
 129455514.534 4  24634565.335
 19  9  1  3 54  0.0000000  0  8G02G05G06G12G24G25G29G31
 114148622.249 6  21721760.713
 126104643.952 4  23996917.648
 129205242.694 4  24586942.240
 108301408.888 7  20609071.026
 118263992.119 6  22504890.371
 110359630.470 7  21000738.623
 113659465.423 6  21628677.115
 129366160.453 4  24617561.168
 19  9  1  3 54 30.0000000  0  8G02G05G06G12G24G25G29G31
 114198563.657 6  21731263.860
 126031693.953 4  23983035.916
 129306147.694 4  24606144.081
 108318838.060 7  20612387.887
 118358771.316 6  22522926.550
 110308718.497 7  20991050.235
 113616093.796 6  21620423.472
 129277064.079 4  24600607.748
 19  9  1  3 55  0.0000000  0  8G02G05G06G12G24G25G29G31
 114248910.425 6  21740844.577
 125958885.821 4  23969180.431
 129407228.38314  24625378.621
 108336579.778 7  20615764.000
 118453771.135 6  22541004.151
 110258033.558 7  20981405.294
 113572985.738 6  21612220.232
 129188226.98214  24583702.011
 19  9  1  3 55 30.0000000  0  8G02G05G06G12G24G25G29G31
 114299661.581 6  21750502.332
 125886224.51014  23955353.812
 129508484.097 4  24644647.395
 108354636.696 7  20619200.197
 118548990.135 6  22559124.091
 110207579.243 7  20971804.092
 113530142.301 6  21604067.724
 129099653.715 4  24566846.827
 19  9  1  3 56  0.0000000  0  8G02G05G06G12G24G25G29G31
 114350814.164 6  21760236.513
 125813712.232 4  23941555.649
 129609910.891 4  24663948.300
 108373008.068 7  20622696.067
 118644425.118 6  22577284.636
 110157355.923 7  20962246.666
 113487561.949 6  21595965.034
 129011345.510 3  24550042.555
 19  9  1  3 56 30.0000000  0  8G02G05G06G12G24G25G29G31
 114402366.066 6  21770046.389
 125741351.570 4  23927785.683
 129711505.83014  24683280.410
 108391694.508 7  20626252.164
 118740073.180 6  22595485.775
 110107364.996 7  20952733.919
 113445243.862 6  21587911.931
 128923304.677 4  24533288.284
 19  9  1  3 57  0.0000000  0  8G02G05G06G12G24G25G29G31
 114454316.058 6  21779932.124
 125669146.557 4  23914045.789
 129813267.120 4  24702646.017
 108410697.407 7  20629868.250
 118835932.374 6  22613727.433
 110057608.785 7  20943265.612
 113403188.095 6  21579909.310
 128835533.971 4  24516585.970
 19  9  1  3 57 30.0000000  0  8G02G05G06G12G24G25G29G31
 114506661.328 6  21789893.219
 125597100.157 4  23900335.697
 129915191.669 4  24722041.329
 108430017.173 7  20633544.630
 118931999.716 6  22632007.982
 110008088.500 7  20933842.142
 113361394.011 6  21571956.240
 128748035.696 3  24499935.819
 19  9  1  3 58  0.0000000  0  8G02G05G06G12G24G25G29G31
 114559400.874 7  21799929.181
 125525215.243 4  23886656.626
 130017276.974 4  24741467.324
 108449654.674 7  20637281.459
 119028272.299 6  22650328.554
 109958805.999 7  20924464.178
 113319861.275 6  21564052.370
 128660812.593 4  24483338.233
 19  9  1  3 58 30.0000000  0  8G02G05G06G12G24G25G29G31
 114612532.821 6  21810039.980
 125453495.482 4  23873008.363
 130119520.909 4  24760923.069
 108469611.428 7  20641079.135
 119124748.176 6  22668687.122
 109909763.437 7  20915131.605
 113278589.866 6  21556199.019
 128573867.360 4  24466793.296
 19  9  1  3 59  0.0000000  0  8G02G05G06G12G24G25G29G31
 114666054.293 6  21820224.650
 125381943.808 5  23859392.139
 130221920.056 4  24780410.958
 108489886.899 7  20644937.601
 119221423.881 6  22687083.690
 109860961.551 7  20905844.936
 113237578.179 6  21548394.789
 128487201.651 4  24450300.482
 19  9  1  3 59 30.0000000  0  8G02G05G06G12G24G25G29G31
 114719964.498 6  21830483.476
 125310563.312 4  23845809.229
 130324472.692 4  24799924.405
 108510482.865 7  20648856.864
 119318297.436 6  22705519.025
 109812402.894 7  20896604.568
 113196826.705 6  21540640.042
 128400818.843 4  24433862.508
 19  9  1  4  0  0.0000000  0  8G02G05G06G12G24G25G29G31
 114774260.023 6  21840815.518
 125239356.596 5  23832259.071
 130427175.506 4  24819468.899
 108531399.194 7  20652837.113
 119415365.283 6  22723989.792
 109764088.450 7  20887410.697
 113156334.423 6  21532934.379
 128314720.825 4  24417478.964
 19  9  1  4  0 30.0000000  0  8G02G05G06G12G24G25G29G31
 114828940.169 6  21851220.600
 125168327.881 4  23818742.948
 130530026.78914  24839040.336
 108552637.721 7  20656878.660
 119512625.835 6  22742497.881
 109716020.773 7  20878263.802
 113116101.476 6  21525278.137
 128228910.538 4  24401149.869
 19  9  1  4  1  0.0000000  0  8G02G05G06G12G24G25G29G31
 114884001.912 6  21861698.872
 125097479.596 4  23805261.070
 130633023.06113  24858640.013
 108574198.294 7  20660981.341
 119610075.957 6  22761042.585
 109668200.718 7  20869163.912
 113076126.624 6  21517671.398
 128143389.824 4  24384875.847
 19  9  1  4  1 30.0000000  0  8G02G05G06G12G24G25G29G31
 114939443.420 6  21872248.982
 125026815.268 4  23791813.637
 130736162.050 3  24878266.927
 108596081.736 7  20665145.739
 119707712.902 6  22779621.727
 109620630.153 7  20860111.639
 113036409.619 6  21510113.411
 128058161.281 4  24368657.325
 19  9  1  4  2  0.0000000  0  8G02G05G06G12G24G25G29G31
 114995262.483 6  21882870.816
 124956337.709 4  23778402.564
 130839441.119 3  24897920.449
 108618288.773 7  20669371.610
 119805534.166 6  22798236.739
 109573310.720 7  20851107.028
 112996949.633 6  21502604.389
 127973227.365 4  24352494.654
 19  9  1  4  2 30.0000000  0  7G02G05G12G24G25G29G31
 115051457.675 6  21893564.227
 124886049.901 4  23765027.154
 108640820.601 7  20673659.276
 119903536.907 6  22816885.907
 109526244.443 7  20842150.787
 112957746.657 6  21495144.458
 127888590.739 4  24336388.161
 19  9  1  4  3  0.0000000  0  7G02G05G12G24G25G29G31
 115108026.307 6  21904329.197
 124815955.053 4  23751688.693
 108663677.020 7  20678008.673
 120001718.279 6  22835569.345
 109479432.384 7  20833242.553
 112918799.441 6  21487733.544
 127804253.054 4  24320339.322
 19  9  1  4  3 30.0000000  0  7G02G05G12G24G25G29G31
 115164967.260 6  21915164.685
 124746057.002 4  23738387.491
 108686859.697 7  20682420.417
 120100076.610 6  22854286.232
 109432877.179 7  20824383.331
 112880108.570 6  21480370.561
 127720217.907 4  24304348.937
 19  9  1  4  4  0.0000000  0  7G02G05G12G24G25G29G31
 115222275.997 6  21926070.268
 124676357.246 4  23725124.277
 108710367.178 7  20686893.659
 120198606.763 6  22873036.256
 109386578.179 7  20815572.736
 112841671.180 6  21473056.253
 127636485.312 4  24288415.018
 19  9  1  4  4 30.0000000  0  7G02G05G12G24G25G29G31
 115279953.528 6  21937045.739
 124606860.655 4  23711898.802
 108734203.009 7  20691429.333
 120297308.954 6  22891818.282
 109340540.151 7  20806812.105
 112803489.591 6  21465790.377
 127553060.632 4  24272540.063
 19  9  1  4  5  0.0000000  0  7G02G05G12G24G25G29G31
 115337995.917 6  21948090.921
 124537569.055 4  23698713.348
 108758366.048 7  20696027.668
 120396178.953 6  22910633.031
 109294762.890 7  20798101.178
 112765561.303 6  21458572.948
 127469944.591 4  24256723.469
 19  9  1  4  5 30.0000000  0  7G02G05G12G24G25G29G31
 115396402.224 6  21959205.463
 124468487.110 4  23685567.586
 108782858.284 7  20700688.298
 120495214.990 6  22929478.711
 109249249.414 7  20789440.325
 112727887.200 6  21451403.864
 127387140.980 4  24240966.805
 19  9  1  4  6  0.0000000  0  7G02G05G12G24G25G29G31
 115455169.926 6  21970388.125
 124399617.346 4  23672461.849
 108807679.759 7  20705411.638
 120594414.096 6  22948355.670
 109204000.969 7  20780829.722
 112690466.265 6  21444282.585
 127304651.187 4  24225269.212
 19  9  1  4  6 30.0000000  0  7G02G05G12G24G25G29G31
 115514296.783 6  21981640.132
 124330962.395 4  23659397.521
 108832831.087 7  20710197.886
 120693772.994 6  22967262.741
 109159018.913 7  20772269.967
 112653297.758 6  21437209.397
 127222477.753 4  24209632.360
 19  9  1  4  7  0.0000000  0  7G02G05G12G24G25G29G31
 115573780.657 6  21992959.342
 124262525.689 5  23646374.925
 108858312.783 7  20715046.996
 120793289.503 6  22986200.819
 109114305.056 7  20763761.034
 112616380.905 6  21430184.735
 127140622.876 4  24194055.606
 19  9  1  4  7 30.0000000  0  7G02G05G12G24G25G29G31
 115633618.777 6  22004346.208
 124194309.587 5  23633393.468
 108884124.985 7  20719958.739
 120892960.283 5  23005167.181
 109069860.432 7  20755303.624
 112579714.769 6  21423207.509
 127059088.531 4  24178540.261
 19  9  1  4  8  0.0000000  0  7G02G05G12G24G25G29G31
 115693810.654 6  22015800.201
 124126318.907 5  23620455.480
 108910269.572 7  20724934.020
 120992784.027 6  23024163.183
 109025688.160 7  20746897.906
 112543299.918 6  21416277.893
 126977877.974 4  24163086.948
 19  9  1  4  8 30.0000000  0  7G02G05G12G24G25G29G31
 115754352.224 6  22027320.911
 124058554.702 5  23607559.777
 108936745.473 7  20729971.924
 121092756.343 5  23043187.080
 108981788.304 7  20738544.064
 112507134.069 6  21409395.805
 126896992.630 4  24147695.537
 19  9  1  4  9  0.0000000  0  7G02G05G12G24G25G29G31
 115815243.031 6  22038908.369
 123991021.648 5  23594709.340
 108963554.852 7  20735073.604
 121192875.671 5  23062239.317
 108938164.136 7  20730242.616
 112471218.382 6  21402561.375
 126816435.994 4  24132364.915
 19  9  1  4  9 30.0000000  0  7G02G05G12G24G25G29G31
 115876480.478 6  22050561.181
 123923723.199 5  23581901.975
 108990698.346 7  20740239.036
 121293139.873 5  23081318.796
 108894817.196 7  20721993.793
 112435552.103 6  21395773.736
 126736210.394 4  24117098.061
 19  9  1  4 10  0.0000000  0  7G02G05G12G24G25G29G31
 115938061.856 6  22062279.654
 123856661.018 5  23569141.023
 109018175.763 7  20745467.679
 121393545.079 5  23100425.671
 108851748.411 7  20713798.301
 112400133.872 6  21389034.438
 126656317.660 4  24101895.515
 19  9  1  4 10 30.0000000  0  7G02G05G12G24G25G29G31
 115999985.982 6  22074063.339
 123789839.627 5  23556425.396
 109045988.817 7  20750760.316
 121494089.746 5  23119557.979
 108808960.708 7  20705656.257
 112364964.161 6  21382341.787
 126576760.835 4  24086756.263
 19  9  1  4 11  0.0000000  0  7G02G05G12G24G25G29G31
 116062249.958 6  22085911.949
 123723260.976 5  23543755.802
 109074137.073 7  20756116.802
 121594770.427 5  23138717.761
 108766454.531 7  20697567.547
 112330041.145 6  21375696.082
 126497541.345 4  24071681.682
 19  9  1  4 11 30.0000000  0  7G02G05G12G24G25G29G31
 116124852.309 6  22097825.188
 123656929.128 4  23531133.754
 109102621.148 7  20761537.238
 121695584.561 5  23157901.810
 108724232.479 7  20689532.693
 112295364.998 6  21369097.458
 126418661.497 4  24056671.341
 19  9  1  4 12  0.0000000  0  7G02G05G12G24G25G29G31
 116187789.015 6  22109801.147
 123590845.482 5  23518557.876
 109131440.608 7  20767021.368
 121796528.754 5  23177110.695
 108682294.644 7  20681552.337
 112260933.767 6  21362545.365
 126340123.290 4  24041725.263
 19  9  1  4 12 30.0000000  0  7G02G05G12G24G25G29G31
 116251060.158 6  22121841.643
 123525015.371 5  23506031.468
 109160598.644 7  20772570.084
 121897602.018 5  23196344.520
 108640644.974 7  20673626.465
 112226749.008 6  21356040.206
 126261931.041 4  24026845.748
 19  9  1  4 13  0.0000000  0  7G02G05G12G24G25G29G31
 116314662.891 6  22133944.704
 123459440.969 5  23493553.281
 109190094.593 7  20778183.193
 121998800.870 5  23215602.071
 108599284.379 7  20665755.749
 112192809.347 6  21349581.672
 126184085.823 4  24012033.079
 19  9  1  4 13 30.0000000  0  8G02G05G06G12G24G25G29G31
 116378594.145 6  22146110.492
 123394124.444 5  23481122.893
 133247742.78713  25356202.814
 109219928.213 7  20783860.239
 122100122.136 5  23234882.912
 108558213.951 7  20657940.341
 112159113.524 6  21343169.692
 126106589.422 4  23997285.343
 19  9  1  4 14  0.0000000  0  8G02G05G06G12G24G25G29G31
 116442852.800 6  22158338.287
 123329070.315 5  23468743.938
 133353631.348 3  25376352.075
 109250100.967 7  20789601.740
 122201563.969 5  23254186.296
 108517436.292 7  20650180.938
 112125661.626 6  21336803.865
 126029444.927 4  23982605.323
 19  9  1  4 14 30.0000000  0  8G02G05G06G12G24G25G29G31
 116507436.217 6  22170628.185
 123264280.809 5  23456414.935
 133459597.686 3  25396517.542
 109280612.845 7  20795408.052
 122303123.159 5  23273512.295
 108476952.546 7  20642477.110
 112092452.387 6  21330484.207
 125952654.098 4  23967993.471
 19  9  1  4 15  0.0000000  0  8G02G05G06G12G24G25G29G31
 116572341.649 6  22182979.177
 123199758.850 5  23444136.847
 133565638.885 3  25416694.957
 109311463.898 7  20801278.876
 122404796.693 5  23292860.674
 108436763.886 7  20634829.509
 112059484.891 6  21324210.725
 125876218.610 4  23953447.825
 19  9  1  4 15 30.0000000  0  7G02G05G12G24G25G29G31
 116637567.526 6  22195391.333
 123135507.646 5  23431910.457
 109342655.271 7  20807214.367
 122506582.196 5  23312229.696
 108396872.720 7  20627238.649
 112026759.279 6  21317983.216
 125800141.460 4  23938971.096
 19  9  1  4 16  0.0000000  0  7G02G05G12G24G25G29G31
 116703111.048 6  22207863.820
 123071529.952 5  23419735.982
 109374187.102 7  20813214.723
 122608476.931 5  23331619.195
 108357280.476 7  20619704.299
 111994274.376 6  21311801.794
 125724424.806 4  23924562.171
 19  9  1  4 16 30.0000000  0  7G02G05G12G24G25G29G31
 116768971.575 6  22220396.972
 123007830.212 5  23407613.958
 109406061.292 7  20819280.017
 122710479.409 5  23351030.470
 108317990.206 7  20612227.640
 111962030.904 6  21305666.001
 125649072.114 4  23910223.184
 19  9  1  4 17  0.0000000  0  7G02G05G12G24G25G29G31
 116835146.256 6  22232989.124
 122944411.416 5  23395545.794
 109438277.803 7  20825410.721
 122812586.235 5  23370460.354
 108279002.851 7  20604808.661
 111930027.512 6  21299575.924
 125574084.857 4  23895954.076
 19  9  1  4 17 30.0000000  0  8G02G05G06G12G24G25G29G31
 116901632.196 6  22245640.893
 122881275.447 5  23383530.954
 134096893.84613  25517789.996
 109470836.114 7  20831606.464
 122914794.392 5  23389910.227
 108240319.652 7  20597447.319
 111898263.168 6  21293531.204
 125499464.882 4  23881754.527
 19  9  1  4 18  0.0000000  0  7G02G05G12G24G25G29G31
 116968427.517 6  22258351.709
 122818425.010 5  23371571.090
 109503737.346 7  20837867.455
 123017100.988 5  23409378.235
 108201942.511 7  20590144.250
 111866737.369 6  21287532.159
 125425214.317 4  23867624.624
 19  9  1  4 18 30.0000000  0  7G02G05G12G24G25G29G31
 117035530.835 6  22271121.386
 122755864.979 5  23359666.017
 109536982.943 7  20844193.752
 123119504.797 5  23428864.631
 108163874.193 7  20582900.227
 111835450.446 6  21281578.516
 125351336.495 4  23853565.603
 19  9  1  4 19  0.0000000  0  8G02G05G06G12G24G25G29G31
 117102938.042 6  22283948.549
 122693596.174 5  23347817.593
 134416411.56312  25578592.736
 109570570.952 7  20850585.301
 123222000.744 5  23448369.601
 108126114.333 7  20575714.708
 111804399.416 6  21275669.389
 125277831.599 4  23839578.548
 19  9  1  4 19 30.0000000  0  8G02G05G06G12G24G25G29G31
 117170648.327 6  22296833.403
 122631623.263 5  23336024.198
 134523028.233 3  25598881.393
 109604503.785 7  20857042.737
 123324587.923 5  23467890.782
 108088666.045 7  20568588.711
 111773585.672 6  21269805.992
 125204703.560 4  23825663.194
 19  9  1  4 20  0.0000000  0  8G02G05G06G12G24G25G29G31
 117238658.831 6  22309775.492
 122569948.354 5  23324288.116

 109638780.807 7  20863565.382
 123427263.126 5  23487429.873
 108051530.507 7  20561522.266
 111743007.345 6  21263987.113
 125131953.930 5  23811819.178
 19  9  1  4 20 30.0000000  0  7G02G05G12G24G25G29G31
 117306968.604 6  22322774.163
 122508575.524 5  23312608.459
 109673404.119 7  20870153.963
 123530024.411 5  23506984.499
 108014710.690 7  20554515.556
 111712665.642 6  21258213.402
 125059585.791 4  23798047.906
 19  9  1  4 21  0.0000000  0  7G02G05G12G24G25G29G31
 117375573.906 6  22335829.463
 122447506.592 5  23300987.663
 109708372.360 7  20876808.192
 123632868.467 5  23526555.361
 107978206.911 7  20547569.010
 111682558.397 6  21252484.288
 124987600.178 4  23784348.410
 19  9  1  4 21 30.0000000  0  7G02G05G12G24G25G29G31
 117444473.846 6  22348940.688
 122386745.959 5  23289425.022
 109743687.196 7  20883528.319
 123735794.262 5  23546141.976
 107942022.275 7  20540683.272
 111652686.172 6  21246799.610
 124916000.424 4  23770724.431
 19  9  1  4 22  0.0000000  0  7G02G05G12G24G25G29G31
 117513665.358 6  22362107.299
 122326295.676 5  23277921.923
 109779348.398 7  20890314.593
 123838797.058 5  23565741.869
 107906157.473 7  20533858.594
 111623047.628 6  21241159.524
 124844787.984 4  23757172.987
 19  9  1  4 22 30.0000000  0  8G02G05G12G21G24G25G29G31
 117583145.418 6  22375329.056
 122266157.482 5  23266478.399
 109815355.388 7  20897166.521
                  24166588.102
 123941873.951 5  23585356.784
 107870613.286 7  20527094.586
 111593640.742 6  21235563.620
 124773964.117 4  23743695.203
 19  9  1  4 23  0.0000000  0  8G02G05G12G21G24G25G29G31
 117652912.784 6  22388605.298
 122206336.147 5  23255094.568
 109851709.713 7  20904084.456
 126895330.225 3  24147378.652
 124045023.128 5  23604985.905
 107835392.562 7  20520392.248
 111564466.124 6  21230011.787
 124703531.973 4  23730292.430
 19  9  1  4 23 30.0000000  0  8G02G05G12G21G24G25G29G31
 117722965.197 6  22401935.468
 122146834.026 5  23243771.688
 109888411.914 7  20911068.651
 126794567.485 3  24128203.594
 124148242.593 5  23624627.816
 107800497.194 7  20513751.870
 111535523.408 6  21224504.197
 124633493.889 4  23716964.601
 19  9  1  4 24  0.0000000  0  8G02G05G12G21G24G25G29G31
 117793300.908 6  22415320.149
 122087654.948 5  23232510.016
 109925462.664 7  20918119.227
 126693988.606 3  24109064.835
 124251529.715 5  23644282.907
 107765929.441 7  20507173.762
 111506812.378 6  21219040.496
 124563852.159 5  23703712.764
 19  9  1  4 24 30.0000000  0  8G02G05G12G21G24G25G29G31
 117863915.668 6  22428757.780
 122028800.211 5  23221310.433
 109962860.390 7  20925235.523
 126593593.796 3  24089959.978
 124354880.348 5  23663950.394
 107731688.813 7  20500658.117
 111478330.022 6  21213620.702
 124494607.122 5  23690536.451
 19  9  1  4 25  0.0000000  0  8G02G05G12G21G24G25G29G31
 117934809.667 6  22442248.234
 121970274.443 5  23210173.717
 110000607.549 7  20932418.778
 126493387.583 3  24070891.620
 124458293.560 5  23683628.166
 107697779.310 7  20494205.438
 111450078.288 7  21208244.652
 124425763.037 5  23677435.230
 19  9  1  4 25 30.0000000  0  8G02G05G12G21G24G25G29G31
 118005979.212 6  22455791.697
 121912079.300 5  23199099.218
 110038703.241 7  20939668.092
 126393370.230 3  24051859.845
 124561765.690 5  23703318.535
 107664201.292 7  20487815.893
 111422055.131 6  21202911.854
 124357320.685 5  23664411.885
 19  9  1  4 26  0.0000000  0  8G02G05G12G21G24G25G29G31
 118077422.935 6  22469386.635
 121854218.507 5  23188088.412
 110077148.847 7  20946983.993
 126293544.386 3  24032863.074
 124665294.931 5  23723019.348
 107630957.350 7  20481489.680
 111394260.740 6  21197622.957
 124289283.005 5  23651464.363
 19  9  1  4 26 30.0000000  0  8G02G05G12G21G24G25G29G31
 118149138.314 6  22483033.978
 121796694.971 5  23177142.035
 110115944.417 7  20954366.817
 126193912.182 3  24013904.286
 124768878.402 5  23742730.168
 107598048.964 7  20475227.296
 111366694.492 6  21192377.389
 124221651.795 5  23638594.276
 19  9  1  4 27  0.0000000  0  8G02G05G12G21G24G25G29G31
 118221123.823 6  22496732.605
 121739511.898 5  23166260.473
 110155090.413 7  20961815.828
 126094476.507 3  23994981.925
 124872513.619 5  23762452.120
 107565478.278 7  20469029.527
 111339355.942 6  21187174.741
 124154429.691 4  23625802.358
 19  9  1  4 27 30.0000000  0  8G02G05G12G21G24G25G29G31
 118293375.386 6  22510481.203
 121682670.662 5  23155444.146
 110194585.584 7  20969331.482
 125995237.535 3  23976097.392
 124976197.009 5  23782182.168
 107533245.310 7  20462895.719
 111312242.391 6  21182015.286
 124087617.045 5  23613088.210
 19  9  1  4 28  0.0000000  0  8G02G05G12G21G24G25G29G31
 118365892.424 6  22524280.697
 121626175.959 5  23144693.245
 110234432.125 6  20976914.135
 125896198.882 3  23957251.175
 125079927.532 5  23801920.937
 107501353.620 7  20456826.814
 111285355.564 6  21176898.987
 124021217.651 5  23600453.229
 19  9  1  4 28 30.0000000  0  8G02G05G12G21G24G25G29G31
 118438671.693 6  22538130.069
 121570029.575 5  23134009.182
 110274629.217 7  20984563.355
 125797361.496 3  23938442.994
 125183700.856 5  23821668.436
 107469803.698 7  20450823.140
 111258693.492 7  21171825.376
 123955232.829 5  23587895.862
 19  9  1  4 29  0.0000000  0  8G02G05G12G21G24G25G29G31
 118511712.026 6  22552029.650
 121514235.380 5  23123391.549
 110315178.196 7  20992279.753
 125698728.357 3  23919673.758
 125287515.944 4  23841424.392
 107438598.282 7  20444884.982
 111232256.591 6  21166794.578
 123889665.031 4  23575418.842
 19  9  1  4 29 30.0000000  0  8G02G05G12G21G24G25G29G31
 118585009.386 6  22565977.648
 121458794.780 5  23112841.655
 110356077.770 7  21000062.538
 125600299.483 4  23900943.095
 125391368.744 5  23861187.132
 107407737.424 7  20439012.324
 111206042.578 6  21161805.976
 123824514.877 5  23563020.891
 19  9  1  4 30  0.0000000  0  8G02G05G12G21G24G25G29G31
 118658563.465 6  22579974.230
 121403712.043 5  23102359.546
 110397329.808 6  21007912.573
 125502079.297 4  23882253.041
 125495257.885 5  23880956.537
 107377224.578 7  20433205.921
 111180052.550 6  21156860.406
 123759786.080 5  23550703.800
 19  9  1  4 30 30.0000000  0  8G02G05G12G21G24G25G29G31
 118732370.891 6  22594019.555
 121348989.006 5  23091946.908
 110438933.281 7  21015829.618
 125404068.028 3  23863601.502
 125599180.260 5  23900732.503
 107347060.290 7  20427465.769
 111154284.788 6  21151956.985
 123695479.530 5  23538466.432
 19  9  1  4 31  0.0000000  0  8G02G05G12G21G24G25G29G31
 118806429.657 6  22608112.490
 121294629.149 5  23081601.859
 110480889.122 7  21023813.378
 125306268.520 3  23844990.994
 125703133.383 5  23920514.831
 107317246.557 7  20421792.459
 111128738.882 6  21147095.942
 123631597.413 5  23526310.446
 19  9  1  4 31 30.0000000  0  8G02G05G12G21G24G25G29G31
 118880737.016 6  22622252.921
 121240634.084 5  23071327.270
 110523196.804 7  21031864.434
 125208682.066 4  23826421.015
 125807114.347 4  23940300.830
 107287784.551 7  20416186.176
 111103413.677 6  21142276.656
 123568141.287 5  23514234.876
 19  9  1  4 32  0.0000000  0  8G02G05G12G21G24G25G29G31
 118955292.033 6  22636439.831
 121187008.578 5  23061122.320
 110565858.191 7  21039982.622
 125111312.024 3  23807891.336
 125911121.959 5  23960092.885
 107258677.319 7  20410647.118
 111078309.574 6  21137499.323
 123505114.487 5  23502241.727
 19  9  1  4 32 30.0000000  0  8G02G05G12G21G24G25G29G31
 119030092.396 6  22650673.864
 121133755.400 5  23050988.391
 110608873.348 6  21048168.122
 125014159.782 3  23789404.363
 126015152.743 4  23979889.358
 107229926.334 7  20405176.127
 111053426.260 6  21132764.127
 123442518.589 5  23490330.746
 19  9  1  4 33  0.0000000  0  8G02G05G12G21G24G25G29G31
 119105134.100 6  22664953.853
 121080875.565 5  23040925.724
 110652240.131 7  21056420.588
 124917225.887 3  23770958.086
 126119203.434 5  23999690.170
 107201531.634 7  20399772.736
 111028761.155 6  21128070.725
 123380354.261 5  23478499.970
 19  9  1  4 33 30.0000000  0  8G02G05G12G21G24G25G29G31
 119180416.349 6  22679280.051
 121028372.652 5  23030934.553
 110695960.453 6  21064740.210
 124820513.894 3  23752554.908
 126223271.705 4  24019492.781
 107173496.088 7  20394437.568
 111004314.931 6  21123418.862
 123318624.429 5  23466753.939
 19  9  1  4 34  0.0000000  0  8G02G05G12G21G24G25G29G31
 119255937.802 6  22693650.825
 120976250.430 5  23021016.780
 110740035.300 7  21073127.346
 124724026.038 3  23734193.571
 126327356.291 4  24039298.770
 107145822.113 7  20389171.576
 110980087.442 7  21118808.384
 123257331.562 5  23455090.517
 19  9  1  4 34 30.0000000  0  8G02G05G12G21G24G25G29G31
 119331693.832 6  22708067.118
 120924509.763 5  23011170.620
 110784462.680 7  21081581.713
 124627761.90413  23715874.628
 126431452.852 4  24059108.281
 107118509.169 7  20383974.004
 110956075.961 7  21114239.169
 123196475.672 5  23443510.037
 19  9  1  4 35  0.0000000  0  8G02G05G12G21G24G25G29G31
 119407683.081 6  22722526.836
 120873154.217 5  23001397.979
 110829243.818 6  21090103.064
 124531724.72514  23697600.467
 126535559.198 4  24078919.498
 107091559.925 7  20378845.843
 110932281.455 6  21109711.070
 123136059.481 5  23432012.656
 19  9  1  4 35 30.0000000  0  8G02G05G12G21G24G25G29G31
 119483903.623 6  22737031.379
 120822186.694 5  22991699.087
 110874378.918 6  21098692.146
 124435916.968 3  23679368.480
 126639673.264 5  24098731.674
 107064976.217 7  20373787.078
 110908702.988 6  21105224.319
 123076085.160 5  23420600.304
 19  9  1  4 36  0.0000000  0  8G02G05G12G21G24G25G29G31
 119560353.150 6  22751579.577
 120771609.934 5  22982074.558
 110919868.21916  21107348.784
 124340340.192 4  23661180.760
 126743792.589 4  24118545.601
 107038759.707 7  20368798.297
 110885339.867 6  21100778.597
 123016554.508 5  23409271.889
 19  9  1  4 36 30.0000000  0  8G02G05G12G21G24G25G29G31
 119637030.509 6  22766170.713
 120721427.499 5  22972525.180
 110965712.172 6  21116072.506
 124244996.230 3  23643037.282
 126847915.036 4  24138358.609
 107012912.392 7  20363879.720
 110862191.747 6  21096373.516
 122957469.530 5  23398028.690
 19  9  1  4 37  0.0000000  0  8G02G05G12G21G24G25G29G31
 119713932.225 6  22780804.390
 120671641.365 5  22963051.164
 111011910.220 7  21124863.611
 124149886.99514  23624938.279
 126952037.630 4  24158172.961
 106987435.303 7  20359031.658
 110839257.898 6  21092009.484
 122898831.624 5  23386870.639
 19  9  1  4 37 30.0000000  0  8G02G05G12G21G24G25G29G31
 119791055.940 6  22795480.986
 120622254.224 5  22953653.238
 111058462.701 7  21133722.207
 124055014.34314  23606886.279
 127056157.723 4  24177986.217
 106962330.273 7  20354254.334
 110816537.599 7  21087685.986
 122840642.769 5  23375797.552
 19  9  1  4 38  0.0000000  0  8G02G05G12G21G24G25G29G31
 119868399.151 6  22810198.559
 120573267.085 5  22944330.878
 111105369.119 6  21142648.207
 123960379.303 4  23588876.595
 127160271.837 4  24197798.590
 106937598.011 7  20349547.990
 110794029.084 6  21083402.831
 122782904.087 5  23364809.766
 19  9  1  4 38 30.0000000  0  8G02G05G12G21G24G25G29G31
 119945960.438 6  22824957.883
 120524684.332 5  22935085.912
 111152630.481 7  21151642.028
 123865984.873 4  23570914.034
 127264379.091 4  24217609.817
 106913241.225 7  20344913.108
 110771732.929 6  21079159.721
 122725618.111 5  23353909.515
 19  9  1  4 39  0.0000000  0  8G02G05G12G21G24G25G29G31
 120023737.728 6  22839758.297
 120476508.954 5  22925917.933
 111200246.575 6  21160702.909
 123771832.725 4  23552997.080
 127368476.500 4  24237418.915
 106889261.356 7  20340349.672
 110749648.060 6  21074957.331
 122668786.643 5  23343094.002
 19  9  1  4 39 30.0000000  0  8G02G05G12G21G24G25G29G31
 120101728.688 6  22854599.460
 120428743.351 5  22916829.248
 111248217.47317  21169831.330
 123677924.500 4  23535127.538
 127472561.738 4  24257225.501
 106865659.988 7  20335858.499
 110727774.386 6  21070795.002
 122612411.239 5  23332365.856
 19  9  1  4 40  0.0000000  0  8G02G05G12G21G24G25G29G31
 120179931.312 6  22869481.005
 120381389.907 5  22907817.980
 111296543.588 6  21179027.606
 123584262.367 4  23517303.437
 127576632.030 4  24277029.159
 106842438.993 7  20331439.508
 110706111.278 6  21066672.292
 122556494.145 5  23321724.819
 19  9  1  4 40 30.0000000  0  8G02G05G12G21G24G25G29G31
 120258342.714 6  22884402.423
 120334450.984 5  22898885.704
 111345224.053 7  21188291.227
 123490847.147 4  23499528.179
 127680684.297 4  24296829.027
 106819599.113 7  20327093.421
 110684657.255 6  21062589.985
 122501035.908 5  23311171.749
 19  9  1  4 41  0.0000000  0  8G02G05G12G21G24G25G29G31
 120336961.070 6  22899362.980
 120287929.697 5  22890032.988
 111394259.348 6  21197622.560
 123397681.559 4  23481798.518
 127784716.589 4  24316626.612
 106797142.299 7  20322819.821
 110663411.820 6  21058546.918
 122446038.668 5  23300706.633
 19  9  1  4 41 30.0000000  0  8G02G05G12G21G24G25G29G31
 120415784.079 6  22914362.879
 120241828.238 5  22881260.176
 111443649.692 7  21207021.066
 123304767.31314  23464117.646
 127888726.817 4  24336419.006
 106775070.260 7  20318619.785
 110642375.176 7  21054543.846
 122391504.476 5  23290329.066
 19  9  1  4 42  0.0000000  0  8G02G05G12G21G24G25G29G31
 120494809.094 6  22929400.713
 120196149.139 5  22872567.674
 111493394.77316  21216487.258
 123212105.950 4  23446484.886
 127992711.308 4  24356207.979
 106753384.279 7  20314493.203
 110621546.019 6  21050580.142
 122337434.577 5  23280040.188
 19  9  1  4 42 30.0000000  0  8G02G05G12G21G24G25G29G31
 120574034.240 6  22944476.844
 120150894.702 5  22863956.132
 111543494.53116  21226020.818
 123119699.121 4  23428900.519
 128096668.373 4  24375988.771
 106732085.908 7  20310440.209
 110600923.600 6  21046656.102
 122283830.708 5  23269839.139
 19  9  1  4 43  0.0000000  0  8G02G05G12G21G24G25G29G31
 120653457.514 6  22959589.994
 120106068.054 5  22855425.610
 111593949.10416  21235622.068
 123027548.807 4  23411364.835
 128200595.370 4  24395765.251
 106711176.860 7  20306461.278
 110580507.434 6  21042770.965
 122230694.562 5  23259728.199
 19  9  1  4 43 30.0000000  0  8G02G05G12G21G24G25G29G31
 120733077.561 6  22974741.278
 120061672.383 5  22846977.713
 111644759.546 7  21245290.887
 122935657.630 4  23393878.402
 128304491.059 4  24415536.265
 106690659.672 7  20302557.110
 110560297.857 7  21038925.063
 122178028.644 5  23249705.755
 19  9  1  4 44  0.0000000  0  8G02G05G12G21G24G25G29G31
 120812890.386 6  22989929.325
 120017708.173 5  22838611.538
 111695923.887 6  21255027.273
 122844025.476 4  23376441.192
 128408350.766 4  24435300.353
 106670533.880 7  20298727.041
 110540292.586 6  21035118.352
 122125832.817 5  23239772.661
 19  9  1  4 44 30.0000000  0  8G02G05G12G21G24G25G29G31
 120892895.370 6  23005154.337
 119974179.856 5  22830328.201
 111747443.613 6  21264831.096
 122752655.86614  23359054.077
 128512173.793 4  24455056.607
 106650802.669 7  20294972.548
 110520492.451 6  21031350.222
 122074110.258 5  23229930.323
 19  9  1  4 45  0.0000000  0  8G02G05G12G21G24G25G29G31
 120973088.880 6  23020414.256
 119931088.504 5  22822128.563
 111799317.251 6  21274702.413
 122661549.032 4  23341717.366
 128615956.486 4  24474806.051
 106631466.194 7  20291292.956
 110500895.329 6  21027621.155
 122022861.045 5  23220178.421
 19  9  1  4 45 30.0000000  0  8G02G05G12G21G24G25G29G31
 121053469.746 6  23035709.925
 119888437.441 5  22814011.930
 111851545.715 7  21284641.029
 122570707.611 4  23324430.153
 128719696.988 4  24494548.129
 106612526.875 7  20287689.118
 110481501.524 7  21023930.784
 121972087.747 5  23210516.406
 19  9  1  4 46  0.0000000  0  8G02G05G12G21G24G25G29G31
 121134035.139 5  23051041.446
 119846228.378 5  22805979.814
 111904128.40116  21294647.339
 122480132.787 4  23307194.319
 128823392.438 4  24514279.797
 106593985.813 7  20284160.905
 110462310.006 6  21020278.625
 121921791.280 5  23200945.392
 19  9  1  4 46 30.0000000  0  8G02G05G12G21G24G25G29G31
 121214784.002 6  23066407.388
 119804464.953 5  22798032.362
 111957066.33117  21304721.073
 122389827.240 4  23290010.416
 128927041.426 4  24534003.067
 106575845.339 7  20280708.770
 110443321.228 7  21016665.244
 121871974.210 5  23191465.480
 19  9  1  4 47  0.0000000  0  8G02G05G12G21G24G25G29G31
 121295713.010 5  23081807.452
 119763148.787 5  22790170.539
 112010358.442 6  21314862.042
 122299791.926 4  23272877.261
 129030640.260 4  24553718.554
 106558105.881 7  20277332.957
 110424533.624 6  21013089.936
 121822637.075 5  23182077.662
 19  9  1  4 47 30.0000000  0  8G02G05G12G21G24G25G29G31
 121376820.317 6  23097242.128
 119722282.222 5  22782393.852
 112064004.913 7  21325071.023
 122210028.725 4  23255796.096
 129134187.486 4  24573422.955
 106540769.397 7  20274033.959
 110405946.709 7  21009553.077
 121773781.658 5  23172780.688
 19  9  1  4 48  0.0000000  0  8G02G05G12G21G24G25G29G31
 121458105.063 5  23112710.072
 119681869.025 5  22774703.042
 112118006.672 6  21335346.988
 122120540.66914  23238766.871
 129237681.356 4  24593116.922
 106523838.478 7  20270812.093
 110387561.252 6  21006054.449
 121725410.485 5  23163575.195
 19  9  1  4 48 30.0000000  0  8G02G05G12G21G24G25G29G31
 121539563.842 5  23128210.540
 119641909.854 5  22767099.125
 112172361.742 6  21345690.467
 122031327.395 4  23221789.860
 129341118.048 4  24612800.734
 106507312.951 7  20267667.425
 110369374.478 7  21002593.651
 121677523.502 5  23154462.892
 19  9  1  4 49  0.0000000  0  8G02G05G12G21G24G25G29G31
 121621194.079 5  23143744.478
 119602407.085 5  22759581.955
 112227070.399 6  21356101.234
 121942390.836 4  23204865.934
 129444495.131 4  24632472.340
 106491194.365 7  20264599.996
 110351386.439 6  20999170.328
 121630122.104 5  23145442.762
 19  9  1  4 49 30.0000000  0  8G02G05G12G21G24G25G29G31
 121702992.759 5  23159310.167
 119563362.337 5  22752152.466
 112282131.442 6  21366578.799
 121853731.588 4  23187993.950
 129547809.225 4  24652132.420
 106475483.192 7  20261610.302
 110333595.310 7  20995784.659
 121583206.868 5  23136515.050
 19  9  1  4 50  0.0000000  0  8G02G05G12G21G24G25G29G31
 121784959.364 5  23174907.720
 119524779.707 5  22744810.251
 112337546.368 6  21377123.861
 121765352.947 4  23171176.272
 129651059.839 4  24671779.694
 106460182.692 7  20258698.842
 110316002.293 7  20992437.176
 121536780.893 5  23127680.617
 19  9  1  4 50 30.0000000  0  8G02G05G12G21G24G25G29G31
 121867091.847 5  23190537.354
 119486660.918 5  22737556.469
 112393315.038 6  21387736.416
 121677256.506 4  23154412.123
 129754244.194 4  24691415.275
 106445294.083 7  20255865.611
 110298606.746 7  20989126.766
 121490845.405 5  23118939.691
 19  9  1  4 51  0.0000000  0  8G02G05G12G21G24G25G29G31
 121949387.126 5  23206197.612
 119449007.643 5  22730390.829
 112449436.399 6  21398416.006
 121589443.342 4  23137701.453
 129857359.494 4  24711037.386
 106430817.955 7  20253110.865
 110281407.275 6  20985853.702
 121445400.881 5  23110291.726
 19  9  1  4 51 30.0000000  0  8G02G05G12G21G24G25G29G31
 122031843.536 5  23221889.091
 119411822.599 5  22723314.880
 112505910.642 6  21409162.638
 121501915.362 4  23121045.336
 129960403.838 3  24730646.867
 106416756.128 7  20250434.980
 110264403.564 7  20982618.218
 121400449.244 5  23101737.457
 19  9  1  4 52  0.0000000  0  8G02G05G12G21G24G25G29G31
 122114459.735 5  23237610.235
 119375108.758 5  22716328.372
 112562738.285 6  21419976.289
 121414674.647 4  23104444.139
 130063375.119 4  24750240.846
 106403110.683 7  20247838.326
 110247595.300 6  20979419.675
 121355992.007 5  23093277.415
 19  9  1  4 52 30.0000000  0  8G02G05G12G21G24G25G29G31
 122197231.817 5  23253361.422
 119338866.72416  22709431.861
 112619917.231 7  21430857.383
 121327721.180 4  23087897.698
                  24769822.112
 106389881.357 7  20245320.793
 110230981.116 7  20976258.238
 121312029.449 5  23084911.384
 19  9  1  4 53  0.0000000  0  7G02G05G12G21G25G29G31
 122280159.258 5  23269141.505
 119303100.126 5  22702625.784
 112677448.916 6  21441805.603
 121241058.125 4  23071406.609
 106377071.141 7  20242883.143
 110214561.602 7  20973133.722
 121268564.478 5  23076640.573
 19  9  1  4 53 30.0000000  0  7G02G05G12G21G25G29G31
 122363240.490 5  23284951.993
 119267811.600 5  22695910.501
 112735333.642 6  21452820.526
 121154687.580 4  23054970.726
 106364681.943 7  20240525.637
 110198336.612 7  20970046.353
 121225598.398 5  23068464.665
 19  9  1  4 54  0.0000000  0  7G02G05G12G21G25G29G31
 122446470.456 5  23300789.879
 119233000.797 5  22689286.277
 112793568.237 6  21463902.347
 121068608.250 4  23038589.928
 106352712.250 7  20238248.021
 110182302.769 6  20966994.847
 121183129.788 5  23060382.422
 19  9  1  4 54 30.0000000  0  7G02G05G12G21G25G29G31
 122529849.048 5  23316656.479
 119198671.903 6  22682753.700
 112852154.480 6  21475050.788
 120982823.415 5  23022265.956
 106341165.298 7  20236050.666
 110166461.447 7  20963980.405
 121141161.577 5  23052396.452
 19  9  1  4 55  0.0000000  0  7G02G05G12G21G25G29G31
 122613374.796 5  23332550.659
 119164827.177 5  22676313.104
 112911092.579 6  21486266.540
 120897335.396 4  23005998.250
 106330043.104 7  20233934.169
 110150812.623 6  20961002.419
 121099696.029 5  23044506.166
 19  9  1  4 55 30.0000000  0  7G02G05G12G21G25G29G31
 122697044.559 5  23348472.716
 119131467.880 5  22669965.112
 112970381.287 6  21497548.663
 120812144.517 5  22989787.019
 106319345.858 7  20231898.468
 110135354.622 7  20958061.114
 121058732.939 5  23036710.981
 19  9  1  4 56  0.0000000  0  7G02G05G12G21G25G29G31
 122780856.683 5  23364421.317
 119098596.705 5  22663709.532
 113030020.790 6  21508897.860
 120727253.044 5  22973632.702
 106309075.553 7  20229944.057
 110120087.805 7  20955155.869
 121018274.249 5  23029011.437
 19  9  1  4 56 30.0000000  0  7G02G05G12G21G25G29G31
 122864809.078 5  23380397.071
 119066215.515 5  22657547.983
 113090010.694 6  21520313.359
 120642662.190 5  22957535.430
 106299233.232 7  20228071.259
 110105011.016 7  20952286.820
 120978320.708 5  23021409.013
 19  9  1  4 57  0.0000000  0  7G02G05G12G21G25G29G31
 122948899.022 5  23396399.142
 119034326.066 5  22651479.341
 113150350.125 6  21531795.446
 120558372.832 5  22941495.958
 106289819.619 7  20226279.807
 110090123.317 7  20949453.634
 120938873.151 5  23013902.456
 19  9  1  4 57 30.0000000  0  7G02G05G12G21G25G29G31
 123033124.588 5  23412426.387
 119002930.017 5  22645505.340
 113211038.618 6  21543344.299
 120474386.434 5  22925513.491
 106280836.119 7  20224570.478
 110075424.245 7  20946656.556
 120899932.578 5  23006492.202
 19  9  1  4 58  0.0000000  0  7G02G05G12G21G25G29G31
 123117484.611 5  23428479.531
 118972030.674 5  22639625.200
 113272076.816 6  21554959.464
 120390705.696 4  22909589.538
 106272284.977 6  20222943.224
 110060914.096 6  20943895.479
 120861501.084 5  22999179.199
 19  9  1  4 58 30.0000000  0  7G02G05G12G21G25G29G31
 123201976.845 5  23444557.922
 118941629.693 5  22633840.080
 113333464.605 6  21566641.038
 120307331.765 4  22893723.847
 106264167.253 6  20221398.342
 110046592.027 6  20941170.180
 120823579.425 5  22991962.621
 19  9  1  4 59  0.0000000  0  7G02G05G12G21G25G29G31
 123286598.374 5  23460661.266
 118911728.288 5  22628149.774
 113395200.197 6  21578389.190
 120224264.978 4  22877916.638
 106256483.387 6  20219936.197
 110032456.664 6  20938480.140
 120786167.955 5  22984843.391
 19  9  1  4 59 30.0000000  0  7G02G05G12G21G25G29G31
 123371347.399 5  23476788.200
 118882328.450 5  22622555.244
 113457283.473 6  21590203.267
 120141507.208 5  22862168.466
 106249234.773 6  20218556.843
 110018507.865 6  20935825.784
 120749268.045 5  22977821.714
 19  9  1  5  0  0.0000000  0  7G02G05G12G21G25G29G31
 123456222.213 5  23492939.137
 118853432.883 5  22617056.812
 113519714.762 5  21602083.191
 120059060.381 4  22846479.775
 106242423.104 6  20217260.641
 110004745.798 6  20933207.001
 120712881.211 5  22970897.492
 19  9  1  5  0 30.0000000  0  7G02G05G12G21G25G29G31
 123541220.056 5  23509113.908
 118825042.557 5  22611654.223
 113582492.550 6  21614029.785
 119976924.886 4  22830849.775
 106236048.769 6  20216047.563
 109991168.818 6  20930623.494
 120677007.184 5  22964070.942
 19  9  1  5  1  0.0000000  0  7G02G05G12G21G25G29G31
 123626339.918 5  23525311.331
 118797160.001 5  22606348.215
 113645617.963 6  21626042.062
 119895103.295 4  22815279.812
 106230113.997 6  20214918.332
 109977777.253 6  20928074.953
 120641648.091 5  22957342.334
 19  9  1  5  1 30.0000000  0  7G02G05G12G21G25G29G31
 123711580.492 5  23541532.456
 118769788.286 5  22601139.452
 113709091.275 6  21638120.536
 119813597.553 5  22799769.537
 106224620.808 6  20213873.052
 109964571.471 6  20925562.076
 120606805.742 5  22950712.220
 19  9  1  5  2  0.0000000  0  7G02G05G12G21G25G29G31
 123796937.349 5  23557774.999
 118742926.863 5  22596028.003
 113772908.584 6  21650264.756
 119732406.693 5  22784319.314
 106219567.918 6  20212911.442
 109951548.750 6  20923084.094
 120572478.742 5  22944179.722
 19  9  1  5  2 30.0000000  0  7G02G05G12G21G25G29G31
 123882409.420 5  23574040.015
 118716578.391 5  22591013.813
 113837071.167 6  21662474.293
 119651533.143 5  22768929.316
 106214957.394 6  20212034.034
 109938709.260 6  20920640.781
 120538668.806 5  22937746.167
 19  9  1  5  3  0.0000000  0  7G02G05G12G21G25G29G31
 123967994.562 5  23590326.659
 118690744.493 5  22586097.952
 113901578.682 6  21674749.590
 119570977.995 5  22753600.174
 106210790.590 6  20211241.258
 109926052.713 6  20918231.885
 120505376.912 5  22931410.967
 19  9  1  5  3 30.0000000  0  7G02G05G12G21G25G29G31
 124053691.672 5  23606634.189
 118665428.389 5  22581280.697
 113966431.097 6  21687090.681
 119490743.291 5  22738332.432
 106207069.290 6  20210533.211
 109913579.307 6  20915858.574
 120472604.490 5  22925175.090
 19  9  1  5  4  0.0000000  0  7G02G05G12G21G25G29G31
 124139498.955 5  23622963.062
 118640631.040 5  22576561.911
 114031627.968 6  21699497.556
 119410830.053 5  22723124.966
 106203794.543 6  20209910.025
 109901288.273 6  20913519.532
 120440352.653 5  22919037.486
 19  9  1  5  4 30.0000000  0  7G02G05G12G21G25G29G31
 124225413.155 5  23639311.787
 118616353.463 5  22571942.361
 114097167.671 6  21711969.260
 119331239.458 5  22707979.772
 106200966.513 6  20209371.861
 109889178.065 6  20911215.093
 120408620.741 5  22912999.121
 19  9  1  5  5  0.0000000  0  7G02G05G12G21G25G29G31
 124311431.704 5  23655680.116
 118592596.703 5  22567421.479
 114163049.361 6  21724506.395
 119251971.566 5  22692895.829
 106198585.599 6  20208918.724
 109877247.732 6  20908944.950
 120377409.370 5  22907059.982
 19  9  1  5  5 30.0000000  0  7G02G05G12G21G25G29G31
 124397554.671 5  23672069.487
 118569364.977 5  22563000.326
 114229274.566 6  21737108.353
 119173029.903 5  22677873.325
 106196655.254 6  20208551.423
 109865499.072 6  20906709.182
 120346721.582 5  22901220.103
 19  9  1  5  6  0.0000000  0  7G02G05G12G21G25G29G31
 124483779.547 5  23688477.088
 118546658.933 5  22558679.147
 114295842.127 6  21749775.885
 119094415.177 5  22662913.317
 106195175.717 6  20208269.966
 109853930.693 6  20904507.795
 120316557.343 5  22895479.741
 19  9  1  5  6 30.0000000  0  7G02G05G12G21G25G29G31
 124570103.462 5  23704904.233
 118524479.322 5  22554458.660
 114362750.522 6  21762507.733
 119016127.614 5  22648016.151
 106194147.203 6  20208073.979
 109842541.386 6  20902340.686
 120286916.273 5  22889839.241
 19  9  1  5  7  0.0000000  0  7G02G05G12G21G25G29G31
 124656525.480 5  23721349.858
 118502828.906 5  22550339.073
 114430000.383 5  21775305.181
 118938169.624 5  22633181.185
 106193571.990 6  20207964.534
 109831331.865 6  20900207.464
 120257800.498 5  22884298.699
 19  9  1  5  7 30.0000000  0  7G02G05G12G21G25G29G31
 124743042.415 5  23737814.007
 118481707.884 5  22546319.761
 114497589.514 6  21788166.806
 118860541.096 5  22618408.614
 106193449.522 6  20207941.337
 109820300.004 6  20898108.025
 120229209.028 5  22878858.395
 19  9  1  5  8  0.0000000  0  7G02G05G12G21G25G29G31
 124829653.124 5  23754294.782
 118461119.068 5  22542401.683
 114565518.380 6  21801093.580
 118783243.857 5  22603699.559
 106193781.764 6  20208004.704
 109809446.342 6  20896042.741
 120201143.476 5  22873517.162
 19  9  1  5  8 30.0000000  0  7G02G05G12G21G25G29G31
 124916354.949 5  23770793.560
 118441063.278 5  22538585.396
 114633785.592 5  21814084.270
 118706278.574 5  22589053.341
 106194569.243 6  20208154.539
 109798769.774 6  20894011.123
 120173603.996 5  22868276.223
 19  9  1  5  9  0.0000000  0  7G02G05G12G21G25G29G31
 125003147.270 5  23787309.783
 118421543.078 5  22534870.875
 114702391.909 6  21827139.598
 118629647.611 5  22574471.529
 106195814.125 6  20208391.316
 109788271.110 6  20892013.191
 120146592.456 5  22863136.461
 19  9  1  5  9 30.0000000  0  7G02G05G12G21G25G29G31
 125090027.075 4  23803842.526
 118402558.763 5  22531258.009
 114771335.352 5  21840258.968
 118553351.186 5  22559952.392
 106197516.235 5  20208715.186
 109777948.735 5  20890048.784
 120120108.009 5  22858096.763
 19  9  1  5 10  0.0000000  0  7G02G05G12G21G25G29G31
 125176993.425 4  23820391.912
 118384113.230 5  22527748.259
 114840617.072 5  21853443.198
 118477391.274 5  22545497.259
 106199677.584 5  20209126.481
 109767803.189 5  20888118.213
 120094152.590 5  22853157.540
 19  9  1  5 10 30.0000000  0  7G02G05G12G21G25G29G31
 125264043.223 5  23836956.570
 118366206.815 5  22524340.593
 114910235.021 5  21866690.413
 118401768.425 5  22531106.747
 106202298.342 6  20209625.136
 109757833.323 6  20886221.126
 120068725.971 5  22848319.360
 19  9  1  5 11  0.0000000  0  7G02G05G12G21G25G29G31
 125351174.574 5  23853537.284
 118348840.430 5  22521036.146
 114980187.799 6  21880002.526
 118326482.925 5  22516780.532
 106205378.754 6  20210211.557
 109748038.113 6  20884357.111
 120043827.793 5  22843581.059
 19  9  1  5 11 30.0000000  0  7G02G05G12G21G25G29G31
 125438387.034 5  23870133.094
 118332017.134 5  22517834.470
 115050476.428 6  21893377.840
 118251537.562 5  22502518.839
 106208921.499 6  20210885.655
 109738418.444 6  20882526.419
 120019460.645 5  22838944.159
 19  9  1  5 12  0.0000000  0  7G02G05G12G21G25G29G31
 125525677.783 4  23886744.313
 118315737.588 5  22514736.695
 115121099.729 5  21906817.126
 118176932.766 5  22488322.061
 106212926.680 6  20211647.801
 109728973.457 6  20880729.267
 119995624.025 5  22834408.149
 19  9  1  5 12 30.0000000  0  7G02G05G12G21G25G29G31
 125613044.332 4  23903369.261
 118300002.577 5  22511742.613
 115192056.280 5  21920319.459
 118102668.979 5  22474190.096
 106217394.585 6  20212498.160
 109719701.847 6  20878964.903
 119972317.706 5  22829972.764
 19  9  1  5 13  0.0000000  0  7G02G05G12G21G25G29G31
 125700485.556 5  23920008.777
 118284814.065 5  22508852.205
 115263345.883 6  21933885.693
 118028747.842 5  22460123.755
 106222326.741 6  20213436.607
 109710604.060 6  20877233.741
 119949542.812 5  22825638.883
 19  9  1  5 13 30.0000000  0  7G02G05G12G21G25G29G31
 125787999.856 5  23936662.937
 118270173.760 5  22506065.764
 115334968.253 6  21947515.099
 117955170.772 5  22446122.146
 106227724.257 6  20214463.791
 109701679.808 6  20875535.443
 119927300.051 5  22821406.023
 19  9  1  5 14  0.0000000  0  7G02G05G12G21G25G29G31
 125875584.326 4  23953328.984
 118256081.998 5  22503384.290
 115406921.619 6  21961207.264
 117881937.847 5  22432186.462
 106233587.035 6  20215579.438
 109692927.782 6  20873870.008
 119905588.822 5  22817274.761
 19  9  1  5 14 30.0000000  0  7G02G05G12G21G25G29G31
 125963237.776 4  23970008.887
 118242540.717 5  22500807.835
 115479206.077 6  21974962.676
 117809050.611 5  22418315.844
 106239916.609 6  20216783.809
 109684348.266 6  20872237.354
 119884410.449 5  22813244.851
 19  9  1  5 15  0.0000000  0  7G02G05G12G21G25G29G31
 126050958.622 4  23986701.786
 118229551.079 5  22498335.732
 115551820.686 6  21988780.640
 117736510.295 5  22404512.446
 106246713.992 6  20218077.356
 109675940.984 6  20870637.431
 119863765.274 5  22809316.779
 19  9  1  5 15 30.0000000  0  7G02G05G12G21G25G29G31
 126138743.572 4  24003406.678
 118217113.205 5  22495968.828
 115624763.829 5  22002661.151
 117664316.965 5  22390774.386
 106253978.857 6  20219459.753
 109667704.505 6  20869070.072
 119843652.479 5  22805488.737
 19  9  1  5 16  0.0000000  0  7G02G05G12G21G25G29G31
 126226592.750 4  24020124.042
 118205230.229 5  22493707.662
 115698036.343 6  22016604.913
 117592472.986 5  22377103.245
 106261713.521 6  20220931.770
 109659639.693 6  20867535.350
 119824073.947 5  22801763.694
 19  9  1  5 16 30.0000000  0  7G02G05G12G21G25G29G31
 126314502.786 4  24036852.316
 118193901.848 5  22491552.234
 115771636.196 6  22030610.088
 117520977.984 5  22363498.000
 106269917.539 6  20222492.696
 109651745.084 6  20866033.067
 119805028.632 5  22798139.335
 19  9  1  5 17  0.0000000  0  7G02G05G12G21G25G29G31
 126402473.333 4  24053592.104
 118183130.416 5  22489502.336
 115845563.349 6  22044678.126
 117449834.291 5  22349959.806
 106278592.748 6  20224143.785
 109644021.420 6  20864563.316
 119786517.968 5  22794616.200
 19  9  1  5 17 30.0000000  0  7G02G05G12G21G25G29G31
 126490501.596 4  24070344.075
 118172915.946 5  22487558.733
 115919816.458 6  22058808.187
 117379041.800 5  22336488.563
 106287739.085 6  20225884.356
 109636467.325 6  20863125.934
 119768541.098 5  22791195.941
 19  9  1  5 18  0.0000000  0  7G02G05G12G21G25G29G31
 126578586.128 4  24087106.120
 118163260.081 5  22485721.129
 115994395.463 5  22072999.986
 117308602.018 5  22323083.886
 106297357.862 6  20227714.426
 109629083.249 6  20861720.957
 119751099.340 5  22787876.671
 19  9  1  5 18 30.0000000  0  7G02G05G12G21G25G29G31
 126666724.204 4  24103878.135
 118154163.294 5  22483990.144
 116069298.089 6  22087253.462
 117238515.168 5  22309746.891
 106307448.845 6  20229634.889
 109621867.635 6  20860347.689
 119734191.828 5  22784659.143
 19  9  1  5 19  0.0000000  0  7G02G05G12G21G25G29G31
 126754915.459 4  24120660.656
 118145627.969 5  22482365.770
 116144525.313 6  22101568.743
 117168783.128 5  22296477.278
 106318014.107 6  20231645.337
 109614821.825 6  20859006.661
 119717819.947 5  22781543.746
 19  9  1  5 19 30.0000000  0  7G02G05G12G21G25G29G31
 126843157.239 4  24137451.971
 118137654.267 5  22480848.308
 116220075.236 6  22115945.291
 117099406.004 5  22283275.574
 106329053.483 6  20233745.967
 109607944.437 6  20857698.112
 119701982.914 5  22778530.100
 19  9  1  5 20  0.0000000  0  8G02G05G12G21G25G26G29G31
 126931446.790 4  24154253.208
 118130241.913 5  22479438.051
 116295946.141 5  22130383.194
 117030383.780 5  22270140.985
 106340566.564 6  20235936.934
 131862282.22313  25092556.810
 109601233.994 6  20856421.155
 119686679.964 5  22775618.161
 19  9  1  5 20 30.0000000  0  8G02G05G12G21G25G26G29G31
 127019785.133 4  24171064.094
 118123394.958 5  22478134.700
 116372139.501 6  22144882.321
 116961720.128 5  22257074.531
 106352556.839 6  20238218.642
 131761563.019 3  25073390.461
 109594692.968 6  20855176.365
 119671913.879 5  22772808.371
 19  9  1  5 21  0.0000000  0  8G02G05G12G21G25G26G29G31
 127108168.202 4  24187882.401
 118117112.277 5  22476939.276
 116448652.192 6  22159442.295
 116893413.503 5  22244076.332
 106365022.629 6  20240590.779
 131660836.307 3  25054222.572
 109588318.825 6  20853963.661
 119657682.594 5  22770100.491
 19  9  1  5 21 30.0000000  0  8G02G05G12G21G25G26G29G31
 127196594.545 4  24204708.929
 118111394.905 5  22475851.547
 116525484.218 6  22174063.214
 116825465.122 5  22231145.744
 106377964.959 6  20243053.744
 131560104.128 3  25035053.718
 109582111.680 6  20852782.535
 119643986.588 5  22767494.041
 19  9  1  5 22  0.0000000  0  7G02G05G12G21G25G29G31
 127285062.639 4  24221544.570
 118106243.662 5  22474871.259
 116602634.750 5  22188744.161
 116757875.926 5  22218284.240
 106391384.599 6  20245607.202
 109576071.396 6  20851633.030
 119630826.109 5  22764989.711
 19  9  1  5 22 30.0000000  0  7G02G05G12G21G25G29G31
 127373570.753 4  24238387.047
 118101659.177 5  22473998.747
 116680102.446 5  22203485.699
 116690646.513 5  22205490.745
 106405282.089 6  20248251.779
 109570197.374 6  20850515.161
 119618200.844 5  22762587.150
 19  9  1  5 23  0.0000000  0  7G02G05G12G21G25G29G31
 127462118.470 4  24255237.085
 118097644.095 5  22473235.057
 116757887.582 5  22218287.722
 116623778.970 5  22192766.645
 106419659.149 6  20250987.811
 109564490.603 6  20849429.029
 119606112.070 5  22760286.607
 19  9  1  5 23 30.0000000  0  7G02G05G12G21G25G29G31
 127550702.351 4  24272093.594
 118094197.453 5  22472579.213
 116835987.898 5  22233149.768
 116557272.775 5  22180111.124
 106434514.856 6  20253814.540
 109558949.323 6  20848374.379
 119594558.143 5  22758088.321
 19  9  1  5 24  0.0000000  0  7G02G05G12G21G25G29G31
 127639320.660 4  24288957.012
 118091320.266 5  22472031.295
 116914402.249 5  22248071.581
 116491128.470 5  22167523.760
 106449849.791 6  20256732.819
 109553573.147 6  20847351.413
 119583539.088 5  22755990.824
 19  9  1  5 24 30.0000000  0  7G02G05G12G21G25G29G31
 127727972.676 4  24305826.993
 118089013.986 5  22471592.282
 116993130.861 5  22263053.408
 116425347.779 5  22155006.580
 106465665.352 6  20259742.490
 109548362.712 6  20846359.877
 119573055.941 5  22753995.944
 19  9  1  5 25  0.0000000  0  8G02G05G12G21G25G26G29G31
 127816655.757 4  24322703.412
 118087278.877 5  22471262.406
 117072172.324 5  22278094.195
 116359930.808 5  22142558.014
 106481961.491 6  20262843.601
                  24900873.476
 109543317.099 6  20845399.934
 119563108.052 5  22752103.230
 19  9  1  5 25 30.0000000  0  8G02G05G12G21G25G26G29G31
 127905368.790 4  24339584.520
 118086115.864 5  22471040.845
 117151524.914 5  22293194.446
 116294878.243 5  22130178.993
 106498738.517 6  20266036.214
 130754265.997 3  24881708.685
 109538435.750 6  20844471.258
 119553694.877 5  22750312.005
 19  9  1  5 26  0.0000000  0  7G02G05G12G21G25G29G31
 127994110.052 4  24356472.294
 118085525.09615  22470928.853
 117231188.174 5  22308354.104
 116230190.808 5  22117869.309
 106515997.083 6  20269320.265
 109533718.665 6  20843573.431
 119544816.588 5  22748622.597
 19  9  1  5 26 30.0000000  0  7G02G05G12G21G25G29G31
 128082878.244 4  24373363.874
 118085508.05515  22470925.310
 117311161.620 5  22323572.281
 116165869.646 5  22105628.891
 106533738.194 6  20272696.350
 109529166.245 6  20842707.026
 119536473.608 5  22747035.092
 19  9  1  5 27  0.0000000  0  7G02G05G12G21G25G29G31
 128171670.985 4  24390260.771
 118086064.697 5  22471031.545
 117391443.632 5  22338849.306
 116101914.998 5  22093458.942
 106551961.622 6  20276164.003
 109524777.386 6  20841871.751
 119528664.831 5  22745549.109
 19  9  1  5 27 30.0000000  0  7G02G05G12G21G25G29G31
 128260487.218 4  24407162.043
 118087196.386 5  22471246.465
 117472033.501 6  22354185.499
 116038327.874 5  22081358.715
 106570668.332 6  20279723.736
 109520552.552 6  20841067.798
 119521390.607 5  22744165.016
 19  9  1  5 28  0.0000000  0  7G02G05G12G21G25G29G31
 128349324.862 4  24424066.568
 118088903.544 5  22471571.461
 117552930.423 5  22369579.565
 115975108.770 5  22069328.625
 106589858.512 6  20283375.611
 109516491.394 6  20840295.061
 119514650.815 5  22742882.256
 19  9  1  5 28 30.0000000  0  7G02G05G12G21G25G29G31
 128438181.915 4  24440976.705
 118091185.761 5  22472005.623
 117634132.373 5  22385032.148
 115912257.740 5  22057367.802
 106609531.986 6  20287119.549
 109512592.667 6  20839553.306
 119508444.375 5  22741701.420
 19  9  1  5 29  0.0000000  0  7G02G05G12G21G25G29G31
 128527057.343 4  24457889.055
 118094044.154 5  22472549.680
 117715638.792 5  22400541.910
 115849775.811 5  22045478.730
 106629689.557 6  20290955.194
 109508856.501 6  20838842.422
 119502771.297 5  22740621.615
 19  9  1  5 29 30.0000000  0  7G02G05G12G21G25G29G31
 128615949.930 4  24474803.320
 118097480.185 5  22473203.563
 117797449.416 5  22416109.917
 115787664.231 5  22033658.851
 106650332.374 6  20294883.461
 109505283.792 6  20838162.541
 119497632.424 5  22739643.575
 19  9  1  5 30  0.0000000  0  7G02G05G12G21G25G29G31
 128704857.487 4  24491722.496
 118101493.217 5  22473967.049
 117879561.911 5  22431735.354
 115725922.552 5  22021909.890
 106671459.509 6  20298903.785
 109501872.947 6  20837513.462
 119493025.869 5  22738767.378
 19  9  1  5 30 30.0000000  0  7G02G05G12G21G25G29G31
 128793778.249 4  24508643.785
 118106084.017 5  22474840.540
 117961975.791 6  22447418.781
 115664551.785 5  22010231.232
 106693071.844 6  20303016.468
 109498624.361 6  20836895.171
 119488951.932 5  22737991.843
 19  9  1  5 31  0.0000000  0  7G02G05G12G21G25G29G31
 128882710.713 4  24525566.735
 118111252.874 5  22475824.531
 118044689.864 5  22463158.084
 115603552.445 5  21998623.343
 106715169.579 6  20307221.732
 109495537.762 6  20836307.755
 119485410.163 5  22737317.882
 19  9  1  5 31 30.0000000  0  7G02G05G12G21G25G29G31
 128971654.901 4  24542492.586
 118117001.632 5  22476918.769
 118127704.585 5  22478955.678
 115542926.39715  21987086.861
 106737754.495 6  20311519.491
 109492614.415 6  20835751.506
 119482401.533 5  22736745.608
 19  9  1  5 32  0.0000000  0  8G02G05G12G21G25G26G29G31
 129060606.895 4  24559420.242
 118123328.635 5  22478122.123
 118211016.571 5  22494809.671
 115482671.809 5  21975620.906
 106760824.448 6  20315909.365
 129446669.40912  24632882.343
 109489851.571 6  20835225.707
 119479923.378 5  22736273.972
 19  9  1  5 32 30.0000000  0  8G02G05G12G21G25G26G29G31
 129149565.841 4  24576348.507
 118130234.413 5  22479436.341
 118294624.874 5  22510719.517
 115422789.941 5  21964226.056
 106784380.392 6  20320392.129
 129346277.944 3  24613778.126
 109487249.873 6  20834730.692
 119477975.905 5  22735903.622
 19  9  1  5 33  0.0000000  0  8G02G05G12G21G25G26G29G31
 129238529.250 4  24593276.971
 118137719.407 5  22480860.688
 118378528.130 5  22526685.717
 115363280.607 5  21952901.321
 106808422.090 6  20324967.093
 129245922.786 3  24594680.884
 109484808.622 6  20834266.088
 119476558.111 5  22735633.414
 19  9  1  5 33 30.0000000  0  8G02G05G12G21G25G26G29G31
 129327497.167 4  24610207.331
 118145784.93715  22482394.900
 118462726.522 5  22542708.120
 115304145.949 5  21941648.741
 106832951.098 6  20329634.749
 129145607.186 3  24575592.139
 109482528.798 6  20833832.337
 119475670.633 5  22735464.843
 19  9  1  5 34  0.0000000  0  7G05G12G21G25G26G29G31
 118154431.254 5  22484041.045
 118547219.242 5  22558786.529
 115245386.514 5  21930467.238
 106857967.797 6  20334395.089
 129045333.308 3  24556511.010
 109480410.691 6  20833429.480
 119475313.487 5  22735397.086
 19  9  1  5 34 30.0000000  0  8G02G05G12G21G25G26G29G31
 129505453.67114  24644068.387
 118163657.070 5  22485796.592
 118632003.360 5  22574920.685
 115187000.886 5  21919356.493
 106883470.714 6  20339248.270
 128945101.492 3  24537436.077
 109478452.229 6  20833056.690
 119475484.503 5  22735429.372
 19  9  1  5 35  0.0000000  0  8G02G05G12G21G25G26G29G31
 129594423.617 4  24660998.994
 118173463.135 5  22487662.503
 118717077.765 5  22591109.562
 115128990.062 5  21908317.705
 106909460.171 6  20344193.857
 128844913.899 3  24518371.932
 109476653.455 6  20832714.534
 119476183.184 5  22735562.057
 19  9  1  5 35 30.0000000  0  7G05G12G21G25G26G29G31
 118183850.54815  22489638.963
 118802442.930 5  22607354.265
 115071355.355 5  21897350.110
 106935937.646 6  20349232.425
 128744773.754 3  24499315.808
 109475015.566 6  20832402.296
 119477410.250 5  22735795.532
 19  9  1  5 36  0.0000000  0  7G05G12G21G25G26G29G31
 118194818.717 5  22491726.363
 118888096.244 5  22623653.526
 115014096.198 6  21886453.878
 106962902.231 6  20354363.581
 128644682.148 4  24480269.007
 109473537.346 6  20832121.465
 119479163.872 5  22736129.675
 19  9  1  5 36 30.0000000  0  8G02G05G12G21G25G26G29G31
                  24711787.837
 118206367.520 5  22493923.957
 118974036.862 5  22640007.268
 114957212.93015  21875629.405
 106990353.979 6  20359587.448
 128544640.888 3  24461231.969
 109472218.744 6  20831870.332
 119481443.613 5  22736563.458
 19  9  1  5 37  0.0000000  0  7G05G12G21G25G26G29G31
 118218497.922 5  22496232.293
 119060263.865 5  22656415.824
 114900706.961 5  21864876.878
 107018293.843 6  20364904.419
 128444652.911 3  24442204.695
 109471060.283 6  20831649.853
 119484249.646 5  22737097.424
 19  9  1  5 37 30.0000000  0  8G02G05G12G21G25G26G29G31
 130039213.83514  24745639.185
 118231209.470 5  22498651.339
 119146776.060 5  22672878.987
 114844578.138 5  21854195.764
 107046721.385 6  20370314.003
 128344719.679 3  24423187.758
 109470061.315 6  20831459.792
 119487580.333 5  22737731.148
 19  9  1  5 38  0.0000000  0  7G05G12G21G25G26G29G31
 118244502.559 5  22501180.738
 119233572.002 5  22689395.581
 114788826.820 6  21843586.419
 107075636.854 6  20375816.558
 128244843.451 3  24404182.798
 109469222.032 6  20831300.324
 119491435.961 5  22738464.855
 19  9  1  5 38 30.0000000  0  7G05G12G21G25G26G29G31
 118258376.186 5  22503820.668
 119320649.138 5  22705965.260
 114733452.266 5  21833048.818
 107105038.998 6  20381411.309
 128145025.014 3  24385187.570
 109468541.119 6  20831170.689
 119495814.097 5  22739297.933
 19  9  1  5 39  0.0000000  0  7G05G12G21G25G26G29G31
 118272832.022 5  22506571.557
 119408008.286 5  22722589.684
 114678456.279 6  21822583.818
 107134929.732 6  20387099.299
 128045268.175 3  24366204.112
 109468020.225 6  20831071.858
 119500715.922 5  22740230.661
 19  9  1  5 39 30.0000000  0  8G02G05G12G21G25G26G29G31
 130394874.73214  24813319.882
 118287868.761 5  22509432.681
 119495647.459 5  22739266.502
 114623838.704 6  21812190.233
 107165308.158 6  20392880.314
 127945574.223 3  24347233.756
 109467658.198 6  20831002.846
 119506139.901 5  22741262.864
 19  9  1  5 40  0.0000000  0  7G05G12G21G25G26G29G31
 118303487.67115  22512405.285
 119583565.990 5  22755996.830
 114569600.153 6  21801868.968
 107196175.055 6  20398754.051
 127845945.936 3  24328274.854
 109467455.873 6  20830964.419
 119512085.829 5  22742394.141
 19  9  1  5 40 30.0000000  0  7G05G12G21G25G26G29G31
 118319687.201 5  22515487.749
 119671761.171 5  22772779.860
 114515739.838 5  21791619.832
 107227528.804 6  20404720.453
 127746383.827 3  24309329.127
 109467411.535 6  20830955.706
 119518551.474 5  22743624.866
 19  9  1  5 41  0.0000000  0  7G05G12G21G25G26G29G31
 118336467.389 5  22518680.715
 119760231.782 5  22789615.803
 114462258.129 6  21781442.673
 107259369.657 6  20410779.690
 127646890.295 4  24290396.089
 109467525.455 6  20830977.582
 119525536.021 5  22744954.196
 19  9  1  5 41 30.0000000  0  7G05G12G21G25G26G29G31
 118353828.982 5  22521985.191
 119848977.632 5  22806503.057
 114409155.993 6  21771337.899
 107291698.733 6  20416931.660
 127547468.583 4  24271477.106
 109467798.541 6  20831029.452
 119533040.009 5  22746382.021
 19  9  1  5 42  0.0000000  0  7G05G12G21G25G26G29G31
 118371771.283 5  22525399.519
 119937996.722 5  22823443.443
 114356433.330 6  21761305.191
 107324515.045 6  20423176.489
 127448119.883 4  24252570.602
 109468230.237 6  20831111.609
 119541061.540 5  22747908.487
 19  9  1  5 42 30.0000000  0  7G05G12G21G25G26G29G31
 118390293.933 5  22528924.166
 120027287.874 5  22840434.823
 114304090.302 5  21751344.184
 107357818.605 6  20429513.906
 127348846.487 3  24233679.766
 109468820.244 6  20831223.768
 119549599.994 5  22749533.154
 19  9  1  5 43  0.0000000  0  7G05G12G21G25G26G29G31
 118409397.194 5  22532559.432
 120116849.847 5  22857477.948
 114252127.315 6  21741456.091
 107391609.514 6  20435944.037
 127249650.588 4  24214803.132
 109469568.809 6  20831366.217
 119558654.679 5  22751256.501
 19  9  1  5 43 30.0000000  0  7G05G12G21G25G26G29G31
 118429081.379 5  22536304.967
 120206682.435 5  22874572.660
 114200545.229 6  21731640.312
 107425888.417 6  20442467.166
 127150535.246 4  24195942.567
 109470476.737 6  20831539.114
 119568225.170 5  22753077.602
 19  9  1  5 44  0.0000000  0  7G05G12G21G25G26G29G31
 118449345.221 5  22540161.278
 120296782.643 5  22891717.986
 114149342.875 6  21721896.910
 107460653.926 6  20449082.794
 127051501.299 4  24177097.234
 109471542.834 6  20831742.138
 119578309.661 5  22754996.675
 19  9  1  5 44 30.0000000  0  8G02G05G12G21G25G26G29G31
                  24982274.969
 118470188.710 5  22544127.621
 120387149.197 5  22908913.969
 114098520.652 6  21712225.807
 107495906.005 6  20455791.067
 126952551.028 4  24158267.247
 109472766.929 6  20831975.107
 119588907.323 5  22757012.871
 19  9  1  5 45  0.0000000  0  8G02G05G12G21G25G26G29G31
 131371389.743 3  24999144.165
 118491611.380 5  22548204.222
 120477781.168 5  22926160.590
 114048079.016 6  21702626.876
 107531644.556 6  20462592.091
 126853686.686 4  24139453.212
 109474149.115 6  20832238.085
 119600016.961 5  22759127.154
 19  9  1  5 45 30.0000000  0  8G02G05G12G21G25G26G29G31
 131460005.385 3  25016007.358
 118513613.720 5  22552391.008
 120568677.583 5  22943457.716
 113998018.327 5  21693100.623
 107567869.945 6  20469485.511
 126754910.920 4  24120657.000
 109475690.116 6  20832531.256
 119611638.102 5  22761338.671
 19  9  1  5 46  0.0000000  0  8G02G05G12G21G25G26G29G31
 131548588.161 3  25032864.279
 118536194.095 5  22556687.895
 120659836.098 5  22960804.450
 113948337.937 5  21683646.890
 107604580.824 6  20476471.088
 126656224.858 4  24101876.963
 109477388.904 6  20832854.422
 119623768.816 5  22763646.853
 19  9  1  5 46 30.0000000  0  8G02G05G12G21G25G26G29G31
 131637138.074 3  25049714.537
 118559353.570 5  22561095.055
 120751256.615 5  22978201.661
 113899038.978 6  21674265.814
 107641778.240 6  20483549.594
 126557631.973 4  24083115.596
 109479246.492 6  20833208.019
 119636409.088 5  22766052.695
 19  9  1  5 47  0.0000000  0  8G02G05G12G21G25G26G29G31
 131725652.755 3  25066558.755
 118583090.662 5  22565612.191
 120842936.503 5  22995648.198
 113850120.766 6  21664956.721
 107679461.017 6  20490720.617
 126459133.520 4  24064371.903
 109481261.990 6  20833591.445
 119649557.072 5  22768554.424
 19  9  1  5 47 30.0000000  0  8G02G05G12G21G25G26G29G31
 131814129.168 3  25083395.842
 118607403.676 5  22570238.688
 120934873.500 5  23013142.633
 113801581.833 5  21655720.199
 107717627.552 6  20497983.353
 126360730.349 4  24045646.821
 109483434.287 6  20834005.100
 119663210.239 5  22771152.801
 19  9  1  5 48  0.0000000  0  8G02G05G12G21G25G26G29G31
 131902569.466 3  25100223.763
 118632294.592 5  22574975.303
 121027068.485 5  23030687.017
 113753425.065 6  21646556.009
 107756280.168 6  20505338.641
 126262427.297 4  24026940.605
 109485765.717 6  20834448.591
 119677370.231 5  22773847.309
 19  9  1  5 48 30.0000000  0  8G02G05G12G21G25G26G29G31
 131990970.532 3  25117047.275
 118657761.883 5  22579821.151
 121119518.494 5  23048279.810
 113705648.689 6  21637464.567
 107795416.913 6  20512786.364
 126164224.925 4  24008252.546
 109488255.096 6  20834922.420
 119692034.061 5  22776637.802
 19  9  1  5 49  0.0000000  0  8G02G05G12G21G25G26G29G31
 132079332.391 3  25133861.222
 118683806.121 5  22584777.141
 121212223.630 5  23065920.646
 113658254.449 6  21628445.874
 107835039.042 6  20520326.033
 126066127.048 4  23989585.726
 109490903.560 6  20835426.211
 119707202.000 5  22779524.274
 19  9  1  5 49 30.0000000  0  8G02G05G12G21G25G26G29G31
 132167652.648 3  25150669.009
 118710424.974 5  22589842.752
 121305180.984 5  23083610.582
 113611240.320 5  21619499.333
 107875144.459 6  20527957.949
 125968134.060 4  23970938.783
 109493709.416 6  20835960.223
 119722871.326 5  22782505.981
 19  9  1  5 50  0.0000000  0  7G05G12G21G25G26G29G31
 118737618.520 5  22595017.587
 121398389.335 5  23101347.077
 113564607.383 6  21610625.471
 107915733.317 6  20535681.697
 125870248.817 4  23952311.637
 109496673.677 6  20836524.209
 119739041.651 5  22785583.065
 19  9  1  5 50 30.0000000  0  8G05G12G20G21G25G26G29G31
 118765385.211 5  22600301.458
 121491846.309 5  23119131.057
 130107560.15313  24758645.732
 113518354.399 6  21601823.565
 107956804.220 6  20543497.323
 125772472.486 4  23933705.203
 109499795.075 6  20837118.284
 119755710.366 5  22788754.837
 19  9  1  5 51  0.0000000  0  8G05G12G20G21G25G26G29G31
 118793725.948 5  22605694.373
 121585551.808 5  23136962.742
 130001847.690 2  24738529.491
 113472482.403 6  21593094.688
 107998358.035 6  20551404.565
 125674808.617 4  23915119.960
 109503074.935 6  20837742.493
 119772877.696 5  22792022.083
 19  9  1  5 51 30.0000000  0  7G05G12G21G25G26G29G31
 118822639.821 5  22611197.061
 121679504.360 5  23154841.594
 113426991.291 6  21584438.070
 108040394.277 6  20559403.994
 125577259.363 4  23896558.019
 109506513.218 6  20838396.555
 119790542.081 5  22795383.139
 19  9  1  5 52  0.0000000  0  7G05G12G21G25G26G29G31
 118852126.926 5  22616807.896
 121773703.075 5  23172767.179
 113381881.601 6  21575854.199
 108082913.185 6  20567495.112
 125479827.634 4  23878017.235
 109510110.829 6  20839081.305
 119808703.054 5  22798838.990
 19  9  1  5 52 30.0000000  0  7G05G12G21G25G26G29G31
 118882185.227 5  22622527.720
 121868145.095 5  23190738.826
 113337152.174 6  21567341.967
 108125912.888 6  20575677.605
 125382514.378 4  23859498.404
 109513866.431 6  20839795.872
 119827357.709 5  22802389.015
 19  9  1  5 53  0.0000000  0  7G05G12G21G25G26G29G31
 118912815.143 5  22628356.472
 121962830.315 5  23208756.972
 113292803.590 6  21558902.964
 108169394.036 6  20583951.901
 125285322.942 4  23841004.146
 109517781.067 6  20840540.932
 119846505.787 5  22806032.802
 19  9  1  5 53 30.0000000  0  7G05G12G21G25G26G29G31
 118944014.047 5  22634293.488
 122057755.081 5  23226820.908
 113248834.472 6  21550535.675
 108213354.606 6  20592317.139
 125188254.080 4  23822532.835
 109521853.419 6  20841315.807
 119866144.593 5  22809769.916
 19  9  1  5 54  0.0000000  0  7G05G12G21G25G26G29G31
 118975782.327 5  22640338.756
 122152918.990 5  23244930.085
 113205245.527 6  21542241.026
 108257794.814 6  20600774.020
 125091310.773 4  23804084.837
 109526084.346 6  20842121.128
 119886273.439 5  22813600.204
 19  9  1  5 54 30.0000000  0  7G05G12G21G25G26G29G31
 119008118.598 5  22646492.207
 122248320.158 5  23263083.959
 113162036.111 6  21534018.736
 108302713.679 6  20609321.600
 124994494.934 4  23785661.608
 109530473.274 6  20842955.943
 119906890.604 5  22817524.100
 19  9  1  5 55  0.0000000  0  8G05G12G20G21G25G26G29G31
 119041022.303 5  22652753.912
 122343957.112 5  23281282.437
 129153600.00213  24577112.715
 113119206.287 6  21525868.106
 108348110.949 6  20617960.480
 124897809.135 4  23767261.777
 109535020.864 6  20843821.498
 119927994.610 5  22821539.505
 19  9  1  5 55 30.0000000  0  9G02G05G12G20G21G25G26G29G31
 133223795.49913  25351646.911
 119074494.416 5  22659123.016
 122439830.077 5  23299527.039
 129047287.773 3  24556882.763
 113076757.751 6  21517790.956
 108393987.800 6  20626690.710
 124801257.385 4  23748889.121
 109539728.795 6  20844717.471
 119949586.120 5  22825648.472
 19  9  1  5 56  0.0000000  0  9G02G05G12G20G21G25G26G29G31
 133311463.254 3  25368328.659
 119108532.483 5  22665600.430
 122535935.871 5  23317815.465
 128940919.928 3  24536642.273
 113034688.401 6  21509785.426
 108440341.656 6  20635511.800
 124704840.084 4  23730542.155
 109544595.204 6  20845643.455
 119971661.622 5  22829849.476
 19  9  1  5 56 30.0000000  0  9G02G05G12G20G21G25G26G29G31
 133399072.089 3  25385000.303
 119143135.172 5  22672185.253
 122632272.871 5  23336147.586
 128834499.334 3  24516390.644
 112992997.911 6  21501851.739
 108487171.978 6  20644423.159
 124608559.536 4  23712220.762
 109549620.443 6  20846599.953
 119994219.664 5  22834142.263
 19  9  1  5 57  0.0000000  0  9G02G05G12G20G21G25G26G29G31
 133486621.100 3  25401660.389
 119178301.988 5  22678876.882
 122728839.726 5  23354523.728
 128728028.397 3  24496129.544
 112951686.499 6  21493990.576
 108534478.439 6  20653425.350
 124512418.375 4  23693924.824
 109554804.578 6  20847586.316
 120017259.009 5  22838526.173
 19  9  1  5 57 30.0000000  0  9G02G05G12G20G21G25G26G29G31
 133574109.244 3  25418308.938
 119214031.973 5  22685676.655
 122825634.893 5  23372942.764
 128621509.511 3  24475859.593
 112910753.642 6  21486200.943
 108582260.089 6  20662517.661
 124416418.677 4  23675656.725
 109560147.833 6  20848603.284
 120040777.725 5  22843002.356
 19  9  1  5 58  0.0000000  0  9G02G05G12G20G21G25G26G29G31
 133661535.534 3  25434945.029
 119250324.167 5  22692582.712
 122922656.794 5  23391406.108
 128514945.193 3  24455580.503
 112870199.400 6  21478483.998
 108630516.529 6  20671700.813
 124320562.948 4  23657416.304
 109565650.401 6  20849650.365
 120064774.767 5  22847568.254
 19  9  1  5 58 30.0000000  0  9G02G05G12G20G21G25G26G29G31
 133748898.334 3  25451571.126
 119287177.393 5  22699595.286
 123019903.436 5  23409911.308
 128408337.738 3  24435293.453
 112830023.542 6  21470838.601
 108679246.838 6  20680973.802
 124224853.356 4  23639203.033
 109571312.422 6  20850727.569
 120089248.067 5  22852225.111
 19  9  1  5 59  0.0000000  0  9G02G05G12G20G21G25G26G29G31
 133836198.547 3  25468183.523
 119324592.478 5  22706715.450
 123117375.208 5  23428459.904
 128301691.139 3  24414999.355
 112790226.890 6  21463265.635
 108728452.101 6  20690337.114
 124129293.980 4  23621018.634
 109577135.408 6  20851835.845
 120114197.494 5  22856973.446
 19  9  1  5 59 30.0000000  0  9G02G05G12G20G21G25G26G29G31
 133923433.397 3  25484783.879
 119362566.647 5  22713941.557
 123215068.519 4  23447050.127
 128195006.111 3  24394698.388
 112750807.543 5  21455764.650
 108778129.621 5  20699790.572
 124033885.256 4  23602863.207
 109583118.018 5  20852974.228
 120139620.409 5  22861811.357
 19  9  1  6  0  0.0000000  0  9G02G05G12G20G21G25G26G29G31
 134010600.641 3  25501370.060
 119401098.020 5  22721273.642
 123312981.122 4  23465682.106
 128088284.373 2  24374389.596
 112711764.508 6  21448335.068
 108828278.073 6  20709333.586
 123938628.890 4  23584736.882
 109589259.617 6  20854143.071
 120165514.177 5  22866738.360
 19  9  1  6  0 30.0000000  0  9G02G05G12G20G21G25G26G29G31
 134097700.340 3  25517945.519
 119440186.388 5  22728712.666
 123411112.557 4  23484355.729
 127981529.350 3  24354075.595
 112673098.696 5  21440977.071
 108878897.734 6  20718966.113
 123843528.302 4  23566639.634
 109595561.328 6  20855342.505
 120191878.055 5  22871754.950
 19  9  1  6  1  0.0000000  0  9G02G05G12G20G21G25G26G29G31
 134184732.074 3  25534507.844
 119479831.343 5  22736256.098
 123509462.104 4  23503072.271
 127874743.995 3  24333754.690
 112634810.344 6  21433691.013
 108929988.186 6  20728688.335
 123748586.197 4  23548572.662
 109602023.726 6  20856572.271
 120218710.809 5  22876861.225
 19  9  1  6  1 30.0000000  0  9G02G05G12G20G21G25G26G29G31
 134271692.302 3  25551056.793
 119520029.285 5  22743905.625
 123608024.932 5  23521827.886
 127767928.226 3  24313427.516
 112596896.319 6  21426476.234
 108981546.336 6  20738499.672
 123653802.599 4  23530536.090
 109608644.568 6  20857831.955
 120246008.398 5  22882055.454
 19  9  1  6  2  0.0000000  0  8G05G12G20G21G25G26G29G31
 119560781.867 5  22751660.579
 123706802.230 5  23540624.225
 127661087.362 3  24293097.246
 112559359.082 6  21419333.149
 109033574.220 6  20748400.356
 123559182.749 4  23512529.839
 109615427.076 6  20859122.711
 120273772.084 5  22887339.357
 19  9  1  6  2 30.0000000  0  8G05G12G20G21G25G26G29G31
 119602087.296 5  22759520.496
 123805791.921 5  23559462.006
 127554223.268 3  24272761.892
 112522197.675 6  21412261.357
 109086070.279 6  20758389.881
 123464728.370 4  23494555.969
 109622370.643 6  20860444.001
 120301999.259 5  22892710.782
 19  9  1  6  3  0.0000000  0  8G05G12G20G21G25G26G29G31
 119643944.713 5  22767485.979
 123904993.195 4  23578338.476
 127447338.838 3  24252422.004
 112485412.421 6  21405261.671
 109139034.200 6  20768468.442
 123370442.260 4  23476614.001
 109629476.036 6  20861795.937
 120330688.700 5  22898170.207
 19  9  1  6  3 30.0000000  0  8G05G12G20G21G25G26G29G31
 119686352.268 5  22775556.149
 124004403.433 5  23597256.044
 127340435.151 3  24232078.746
 112449002.012 6  21398332.722
 109192464.099 7  20778636.146
 123276325.887 4  23458703.975
 109636742.439 6  20863178.985
 120359837.790 5  22903716.959
 19  9  1  6  4  0.0000000  0  8G05G12G20G21G25G26G29G31
 119729309.252 5  22783730.402
 124104020.978 4  23616212.906
 127233516.147 3  24211732.677
 112412966.415 6  21391475.282
 109246359.750 6  20788892.111
 123182382.220 4  23440827.273
 109644170.610 6  20864592.346
 120389445.154 5  22909350.979
 19  9  1  6  4 30.0000000  0  8G05G12G20G21G25G26G29G31
 119772813.411 5  22792009.212
 124203843.761 5  23635208.624
 127126583.280 3  24191383.362
 112377304.529 6  21384689.139
 109300719.548 6  20799236.480
 123088613.008 4  23422983.835
 109651760.187 6  20866036.737
 120419508.561 5  22915072.535
 19  9  1  6  5  0.0000000  0  8G05G12G20G21G25G26G29G31
 119816864.123 4  22800391.767
 124303870.739 4  23654242.898
 127019639.171 3  24171032.201
 112342016.387 5  21377974.315
 109355542.956 5  20809668.848
 122995020.964 4  23405173.264
 109659511.899 5  20867511.679
 120450026.595 5  22920879.511
 19  9  1  6  5 30.0000000  0  8G05G12G20G21G25G26G29G31
 119861460.003 5  22808877.813
 124404099.779 4  23673315.799
 126912686.196 3  24150680.530
 112307101.274 6  21371330.348
 109410828.937 6  20820189.304
 122901608.431 4  23387397.749
 109667425.536 6  20869017.641
 120480997.202 5  22926772.736
 19  9  1  6  6  0.0000000  0  8G05G12G20G21G25G26G29G31
 119906599.198 5  22817467.510
 124504529.205 4  23692426.813
 126805726.819 3  24130325.505
 112272558.874 6  21364756.996
 109466576.112 6  20830797.995
 122808377.476 4  23369656.849
 109675500.969 6  20870554.464
 120512418.221 5  22932752.341
 19  9  1  6  6 30.0000000  0  8G05G12G20G21G25G26G29G31
 119952280.989 5  22826160.407
 124605157.506 4  23711575.618
 126698763.570 3  24109972.566
 112238388.506 6  21358254.237
 109522784.053 6  20841494.069
 122715330.930 4  23351951.109
 109683739.017 6  20872122.171
 120544287.923 5  22938816.634
 19  9  1  6  7  0.0000000  0  8G05G12G20G21G25G26G29G31
 119998503.375 5  22834956.311
 124705982.102 4  23730761.976
 126591798.423 3  24089617.727
 112204589.191 6  21351822.528
 109579450.910 6  20852277.094
 122622470.382 4  23334279.213
 109692139.181 6  20873720.656
 120576604.096 5  22944966.435
 19  9  1  6  7 30.0000000  0  8G05G12G20G21G25G26G29G31
 120045265.179 5  22843854.947
 124807001.891 4  23749985.194
 126484834.457 3  24069262.281
 112171160.872 6  21345461.437
 109636576.313 6  20863148.000
 122529798.926 4  23316644.991
 109700702.200 6  20875349.988
 120609365.294 5  22951200.939
 19  9  1  6  8  0.0000000  0  8G05G12G20G21G25G26G29G31
 120092565.275 5  22852855.201
 124908215.920 4  23769246.095
 126377874.366 3  24048908.418
 112138103.428 6  21339170.837
 109694159.540 6  20874105.507
 122437319.243 4  23299046.633
 109709428.660 6  20877010.702
 120642569.697 5  22957519.290
 19  9  1  6  8 30.0000000  0  8G05G12G20G21G25G26G29G31
 120140401.540 5  22861959.019
 125009621.63614  23788543.370
 126270920.039 3  24028557.300
 112105415.624 6  21332950.720
 109752198.781 6  20885150.028
 122345033.014 4  23281485.157
 109718318.019 6  20878702.400
 120676215.015 5  22963922.049
 19  9  1  6  9  0.0000000  0  8G05G12G20G21G25G26G29G31
 120188774.191 5  22871163.887
 125111217.811 4  23807875.946
 126163974.916 3  24008205.476
 112073098.107 6  21326800.418
 109810694.204 6  20896281.508
 122252943.854 5  23263960.978
 109727371.768 6  20880425.176
 120710299.925 5  22970408.016
 19  9  1  6  9 30.0000000  0  8G05G12G20G21G25G26G29G31
 120237680.784 5  22880470.998
 125213002.837 4  23827245.037
 126057041.403 3  23987857.001
 112041149.844 6  21320721.210
 109869644.399 6  20907499.420
 122161053.915 4  23246474.926
 109736590.100 6  20882179.340
 120744822.703 5  22976977.670
 19  9  1  6 10  0.0000000  0  8G05G12G20G21G25G26G29G31
 120287118.793 5  22889878.092
 125314973.936 4  23846649.655
 125950120.779 3  23967510.456
 112009569.368 6  21314711.660
 109929047.193 6  20918803.255
 122069364.497 4  23229026.928
 109745971.776 6  20883964.542
 120779779.950 5  22983629.682
 19  9  1  6 10 30.0000000  0  8G05G12G20G21G25G26G29G31
 120337087.823 5  22899387.342
 125417130.402 4  23866089.346
 125843216.574 3  23947166.318
 111978357.023 6  21308772.162
 109988902.420 6  20930193.146
 121977878.986 5  23211618.423
 109755518.150 6  20885781.142
 120815170.583 5  22990364.168
 19  9  1  6 11  0.0000000  0  8G05G12G20G21G25G26G29G31
 120387585.500 5  22908996.188
 125519469.311 4  23885564.277
 125736330.346 3  23926827.290
 111947511.160 6  21302902.419
 110049207.949 6  20941669.232
 121886598.924 5  23194248.124
 109765228.531 6  20887629.038
 120850991.602 5  22997180.288
 19  9  1  6 11 30.0000000  0  8G05G12G20G21G25G26G29G31
 120438611.933 5  22918706.681
 125621990.615 4  23905073.762
 125629466.356 3  23906491.491
 111917032.993 6  21297102.346
 110109964.479 6  20953230.661
 121795528.543 5  23176918.146
 109775105.291 6  20889508.416
 120887242.899 5  23004079.153
 19  9  1  6 12  0.0000000  0  8G05G12G20G21G25G26G29G31
 120490163.284 5  22928516.868
 125724690.610 4  23924617.071
 125522625.195 3  23886160.405
 111886919.495 6  21291372.334
 110171168.547 6  20964877.590
 121704667.959 5  23159627.345
 109785146.114 6  20891419.301
 120923920.206 5  23011058.981
 19  9  1  6 12 30.0000000  0  8G05G12G20G21G25G26G29G31
 120542240.243 5  22938426.677
 125827569.502 4  23944193.736
 125415811.234 3  23865834.039
 111857172.480 5  21285711.619
 110232821.161 6  20976609.695
 121614021.857 4  23142378.345
 109795353.657 6  20893361.837
 120961023.633 5  23018119.388
 19  9  1  6 13  0.0000000  0  8G05G12G20G21G25G26G29G31
 120594839.826 5  22948435.528
 125930624.056 4  23963804.395
 125309025.859 4  23845513.726
 111827789.866 6  21280120.264
 110294919.753 6  20988426.633
 121523591.328 5  23125169.792
 109805726.685 6  20895335.686
 120998549.536 5  23025259.951
 19  9  1  6 13 30.0000000  0  8G05G12G20G21G25G26G29G31
 120647959.694 5  22958544.249
 126033852.350 4  23983447.967
 125202270.867 4  23825199.459
 111798770.481 6  21274598.105
 110357462.764 6  21000328.210
 121433378.425 5  23108003.502
 109816265.271 6  20897341.254
 121036495.287 5  23032481.409
 19  9  1  6 14  0.0000000  0  8G05G12G20G21G25G26G29G31
 120701599.773 5  22968751.315
 126137254.247 4  24003124.758
 125095550.511 4  23804890.678
 111770115.251 6  21269144.994
 110420450.431 6  21012314.296
 121343387.153 5  23090878.253
 109826971.155 6  20899378.463
 121074860.792 5  23039782.131
 19  9  1  6 14 30.0000000  0  8G05G12G20G21G25G26G29G31
 120755757.35915  22979058.023
 126240826.28414  24022833.110
 124988866.281 4  23784589.758
 111741822.109 6  21263761.213
 110483880.315 6  21024384.719
 121253618.728 5  23073796.053
 109837843.379 6  20901447.246
 121113642.381 5  23047161.743
 19  9  1  6 15  0.0000000  0  8G05G12G20G21G25G26G29G31
 120810431.57115  22989461.869
 126344567.75314  24042575.056
 124882221.745 4  23764295.641
 111713891.684 6  21258446.196
 110547752.264 6  21036539.178
 121164076.760 5  23056756.817
 109848883.27216  20903548.135
 121152838.958 5  23054620.259
 19  9  1  6 15 30.0000000  0  8G05G12G20G21G25G26G29G31
 120865619.962 5  22999963.436
 126448476.199 4  24062348.487
 124775618.167 4  23744009.935
 111686322.265 6  21253199.482
 110612064.104 6  21048777.545
 121074762.804 5  23039760.898
 109860090.665 6  20905680.978
 121192447.169 5  23062157.779
 19  9  1  6 16  0.0000000  0  8G05G12G20G21G25G26G29G31
 120921321.476 5  23010563.707
 126552550.559 4  24082153.471
 124669059.234 4  23723732.691
 111659113.710 6  21248022.057
 110676815.131 6  21061099.091
 120985679.905 5  23022808.618
 109871466.364 6  20907845.484
 121232466.153 5  23069773.103
 19  9  1  6 16 30.0000000  0  8G05G12G20G21G25G26G29G31
 120977533.710 5  23021260.151
 126656788.304 4  24101988.695
 124562546.683 4  23703463.201
 111632264.832 6  21242913.089
 110742003.531 6  21073503.870
 120896830.063 5  23005901.371
 109883010.142 6  20910042.378
 121272892.843 5  23077466.398
 19  9  1  6 17  0.0000000  0  8G05G12G20G21G25G26G29G31
 121034255.151 5  23032054.207
 126761187.755 4  24121856.686
 124456083.504 4  23683204.560
 111605775.213 6  21237872.509
 110807628.240 6  21085991.754
 120808215.984 5  22989038.488
 109894722.538 6  20912271.153
 121313725.155 5  23085236.585
 19  9  1  6 17 30.0000000  0  8G05G12G20G21G25G26G29G31
 121091483.111 5  23042944.376
 126865746.025 4  24141753.346
 124349671.153 4  23662954.069
 111579642.993 6  21232899.436
 110873686.861 6  21098562.334
 120719839.139 5  22972220.770
 109906602.883 6  20914531.676
 121354959.879 5  23093083.314
 19  9  1  6 18  0.0000000  0  8G05G12G20G21G25G26G29G31
 121149216.699 5  23053930.583
 126970462.720 4  24161680.054
 124243313.414 4  23642715.706
 111553868.495 6  21227994.497
 110940179.264 6  21111215.724
 120631703.169 5  22955449.473
 109918652.842 6  20916824.847
 121396595.950 5  23101006.250
 19  9  1  6 18 30.0000000  0  8G05G12G20G21G25G26G29G31
 121207454.813 5  23065012.866
 127075336.397 4  24181636.725
 124137013.211 4  23622487.668
 111528451.642 6  21223158.188
 111007104.528 6  21123951.082
 120543811.071 5  22938724.757
 109930873.119 6  20919150.413
 121438631.872 5  23109005.390
 19  9  1  6 19  0.0000000  0  8G05G12G20G21G25G26G29G31
 121266194.423 5  23076190.999
 127180364.197 4  24201621.998
 124030772.240 4  23602270.009
 111503390.162 6  21218388.983
 111074460.226 6  21136768.467
 120456164.264 5  22922044.917
 109943262.919 6  20921508.017
 121481064.127 5  23117079.826
 19  9  1  6 19 30.0000000  0  8G05G12G20G21G25G26G29G31
 121325433.850 5  23087463.802
 127285544.220 4  24221637.876
 123924592.775 4  23582064.536
 111478683.570 6  21213687.375
 111142244.942 6  21149667.427
 120368765.206 5  22905413.819
 109955822.792 6  20923898.365
 121523890.301 5  23125229.554
 19  9  1  6 20  0.0000000  0  9G05G12G15G20G21G25G26G29G31
 121385171.34915  23098831.506
 127390875.291 4  24241682.190
                  25749111.781
 123818478.185 4  23561871.773
 111454331.589 6  21209053.407
 111210457.831 6  21162648.036
 120281617.041 5  22888829.877
 109968553.549 6  20926320.937
 121567108.839 5  23133453.934
 19  9  1  6 20 30.0000000  0  8G05G12G20G21G25G26G29G31
 121445405.54115  23110293.163
 127496355.639 4  24261754.351
 123712431.195 4  23541691.889
 111430333.537 6  21204486.610
 111279097.667 6  21175709.861
 120194722.365 5  22872294.978
 109981455.95916  20928776.038
 121610717.502 5  23141751.912
 19  9  1  6 21  0.0000000  0  8G05G12G20G21G25G26G29G31
 121506134.302 5  23121850.264
 127601983.116 4  24281854.944
 123606453.960 4  23521525.214
 111406688.510 6  21199987.216
 111348162.817 6  21188852.533
 120108083.484 5  22855807.324
 109994530.108 6  20931263.953
 121654713.913 5  23150124.259
 19  9  1  6 21 30.0000000  0  8G05G12G20G21G25G26G29G31
 121567355.565 5  23133500.047
 127707755.943 4  24301982.782
 123500549.310 4  23501372.177
 111383395.545 6  21195554.635
 111417651.778 6  21202075.884
 120021702.853 5  22839369.989
 110007776.359 6  20933784.632
 121699095.687 5  23158570.431
 19  9  1  6 22  0.0000000  0  8G05G12G20G21G25G26G29G31
 121629065.792 5  23145243.049
 127813670.752 4  24322136.883
 123394718.281 4  23481233.032
 111360451.910 6  21191188.764
 111487561.495 6  21215379.350
 119935581.473 5  22822982.012
 110021193.444 6  20936338.066
 121743858.761 5  23167088.496
 19  9  1  6 22 30.0000000  0  8G05G12G20G21G25G26G29G31
 121691265.03515  23157079.213
 127919727.650 4  24342319.270
 123288965.550 4  23461109.224
 111337859.251 6  21186889.387
 111557892.612 6  21228762.865
 119849723.882 5  22806643.671
 110034783.91216  20938924.089
 121789002.994 5  23175678.845
 19  9  1  6 23  0.0000000  0  9G05G12G15G20G21G25G26G29G31
 121753951.53715  23169008.457
 128025924.498 4  24362527.765
                  25673256.325
 123183293.287 4  23441000.190
 111315616.502 6  21182656.607
 111628643.437 6  21242226.357
 119764132.426 5  22790356.109
 110048547.95316  20941543.203
 121834525.875 5  23184341.635
 19  9  1  6 23 30.0000000  0  8G05G12G20G21G25G26G29G31
 121817122.391 5  23181028.693
 128132258.979 4  24382763.291
 123077703.625 4  23420908.083
 111293722.212 6  21178490.623
 111699811.822 6  21255769.229
 119678808.963 5  22774119.810
 110062485.548 6  20944195.340
 121880424.635 5  23193076.185
 19  9  1  6 24  0.0000000  0  9G05G12G15G20G21G25G26G29G31
 121880775.51615  23193141.547
 128238729.118 3  24403024.009
 134780173.16914  25647815.999
 122972199.036 4  23400830.143
 111272175.086 6  21174390.119
 111771396.064 6  21269391.188
 119593755.877 5  22757934.876
 110076596.96216  20946880.828
 121926696.115 5  23201881.284
 19  9  1  6 24 30.0000000  0  9G05G12G15G20G21G25G26G29G31
 121944909.315 5  23205345.521
 128345333.356 4  24423309.765
 134713179.846 2  25635067.250
 122866782.663 4  23380770.582
 111250975.024 6  21170355.653
 111843395.144 6  21283092.333
 119508976.135 5  22741801.555
 110090882.817 6  20949599.341
 121973338.696 5  23210756.928
 19  9  1  6 25  0.0000000  0  9G05G12G15G20G21G25G26G29G31
 122009521.289 5  23217640.891
 128452069.678 3  24443621.447
                  25622298.696
 122761456.613 4  23360727.609
 111230120.504 6  21166387.384
 111915807.170 6  21296871.918
 119424471.912 5  22725720.877
 110105343.661 6  20952351.207
 122020349.637 5  23219702.731
 19  9  1  6 25 30.0000000  0  8G05G12G20G21G25G26G29G31
 122074609.71815  23230026.838
 128558936.299 3  24463957.121
 122656224.149 4  23340702.645
 111209611.033 6  21162484.840
 111988630.899 6  21310729.798
 119340246.082 5  22709693.481
 110119979.84116  20955136.535
 122067726.858 5  23228718.106
 19  9  1  6 26  0.0000000  0  8G05G12G20G21G25G26G29G31
 122140172.47515  23242503.561
 128665931.609 4  24484317.620
 122551087.602 4  23320695.334
 111189445.788 6  21158647.148
 112061864.844 6  21324665.728
 119256301.198 5  22693719.360
 110134791.82016  20957955.129
 122115468.100 5  23237803.288
 19  9  1  6 26 30.0000000  0  8G05G12G20G21G25G26G29G31
 122206206.747 5  23255069.487
 128773052.713 4  24504701.334
 122446048.750 4  23300707.626
 111169622.766 6  21154875.077
 112135506.366 6  21338679.227
 119172638.784 5  22677798.197
 110149779.337 6  20960807.306
 122163569.883 5  23246956.989
 19  9  1  6 27  0.0000000  0  9G05G12G15G20G21G25G26G29G31
 122272710.953 5  23267725.082
 128880298.260 4  24525110.325
                  25571071.819
 122341110.706 4  23280738.042
 111150141.608 6  21151168.081
 112209554.489 6  21352770.070
 119089261.877 5  22661932.502
 110164943.336 6  20963692.665
 122212030.119 5  23256178.490
 19  9  1  6 27 30.0000000  0  9G05G12G15G20G21G25G26G29G31
 122339683.81115  23280469.387
 128987667.065 3  24545541.539
 134309384.643 2  25558224.521
 122236277.059 4  23260789.308
 111131002.124 6  21147525.676
 112284008.365 6  21366938.083
 119006173.917 5  22646121.646
 110180285.35316  20966612.384
 122260847.320 5  23265468.473
 19  9  1  6 28  0.0000000  0  9G05G12G15G20G21G25G26G29G31
 122407121.89115  23293302.388
 129095155.637 4  24565995.894
 134241800.211 2  25545364.128
 122131548.969 4  23240860.210
 111112201.970 6  21143948.253
 112358864.855 6  21381183.020
 118923375.789 5  22630365.253
 110195803.82916  20969565.387
 122310017.557 5  23274825.375
 19  9  1  6 28 30.0000000  0  9G05G12G15G20G21G25G26G29G31
 122475024.534 5  23306224.260
 129202763.962 3  24586473.108
 134174142.845 3  25532490.908
 122026930.081 4  23220952.262
 111093741.835 6  21140435.357
 112434124.039 6  21395504.253
 118840871.773 5  22614665.476
 110211501.135 6  20972552.554
 122359540.049 5  23284248.954
 19  9  1  6 29  0.0000000  0  9G05G12G15G20G21G25G26G29G31
 122543387.62615  23319232.565
 129310488.159 4  24606973.553
                  25519600.198
 121922421.669 4  23201064.700
 111075618.515 6  21136987.135
 112509782.290 6  21409901.921
 118758662.439 5  22599021.283
 110227375.908 6  20975573.433
 122409410.196 5  23293738.940
 19  9  1  6 29 30.0000000  0  8G05G12G20G21G25G26G29G31
 122612210.35115  23332329.990
 129418327.642 4  24627493.242
 121818027.660 4  23181199.161
 111057832.844 6  21133602.328
 112585839.273 6  21424374.693
 118676751.555 5  22583434.971
 110243430.047 6  20978628.348
 122459626.829 5  23303294.767
 19  9  1  6 30  0.0000000  0  8G05G12G20G21G25G26G29G31
 122681489.834 5  23345513.299
 129526279.804 3  24648036.866
 121713750.228 4  23161355.535
 111040383.115 6  21130281.721
 112662292.803 6  21438923.442
 118595141.199 5  22567904.326
 110259663.084 6  20981717.228
 122510187.092 5  23312915.865
 19  9  1  6 30 30.0000000  0  8G05G12G20G21G25G26G29G31
 122751225.224 4  23358783.998
 129634344.145 3  24668600.721
 121609592.858 4  23141534.670
 111023269.456 6  21127025.181
 112739142.242 6  21453547.442
 118513834.887 5  22552432.491
 110276077.001 6  20984841.042
 122561089.465 5  23322602.654
 19  9  1  6 31  0.0000000  0  8G05G12G20G21G25G26G29G31
 122821411.73714  23372139.766
 129742516.302 3  24689185.983
 121505555.900 4  23121737.449
 111006488.450 6  21123831.786
 112816383.590 6  21468246.127
 118432832.854 5  22537018.564
 110292669.82616  20987998.416
 122612328.826 5  23332353.142
 19  9  1  6 31 30.0000000  0  8G05G12G20G21G25G26G29G31
 122892048.807 4  23385580.952
 129850795.687 3  24709790.625
 121401643.140 4  23101963.113
 110990039.929 6  21120701.864
 112894016.212 6  21483019.133
 118352138.742 5  22521662.845
 110309443.092 6  20991190.555
 122663903.997 5  23342167.443
 19  9  1  6 32  0.0000000  0  8G05G12G20G21G25G26G29G31
 122963135.915 4  23399108.602
 129959182.149 3  24730416.549
 121297859.792 4  23082214.059
 110973925.542 6  21117635.426
 112972040.734 6  21497866.777
 118271757.400 5  22506366.606
 110326399.857 6  20994417.020
 122715814.595 5  23352045.783
 19  9  1  6 32 30.0000000  0  8G05G12G20G21G25G26G29G31
 123034668.03114  23412721.389
 130067671.157 3  24751060.545
 121194205.457 4  23062489.102
 110958141.396 6  21114631.573
 113050452.610 6  21512788.004
 118191688.489 5  22491130.363
 110343537.59616  20997678.120
 122768055.487 5  23361987.066
 19  9  1  6 33  0.0000000  0  8G05G12G20G21G25G26G29G31
 123106643.287 4  23426417.620
 130176261.267 3  24771725.378
 121090682.885 4  23042789.306
 110942686.603 6  21111690.877
 113129250.256 6  21527782.745
 118111934.718 5  22475953.932
 110360857.108 6  21000974.190
 122820624.225 5  23371990.580
 19  9  1  6 33 30.0000000  0  8G05G12G20G21G25G26G29G31
 123179058.996 4  23440197.558
 130284950.041 4  24792408.156
 120987294.081 4  23023115.348
 110927559.726 6  21108812.184
 113208431.494 6  21542850.341
 118032498.203 5  22460837.151
 110378358.611 6  21004304.451
 122873517.956 5  23382055.973
 19  9  1  6 34  0.0000000  0  8G05G12G20G21G25G26G29G31
 123251916.023 5  23454062.083
 130393738.545 4  24813108.559
 120884044.962 4  23003467.656
 110912762.762 6  21105996.511
 113287997.590 6  21557991.319
 117953384.454 5  22445782.148
 110396045.396 6  21007670.370
 122926736.602 5  23392182.781
 19  9  1  6 34 30.0000000  0  8G05G12G20G21G25G26G29G31
 123325209.020 5  23468009.232
 130502621.534 3  24833828.777
 120780935.050 4  22983846.265
 110898291.288 6  21103242.541
 113367943.533 6  21573204.599
 117874592.779 5  22430788.863
 110413914.829 6  21011070.652
 122980274.522 5  23402371.233
 19  9  1  6 35  0.0000000  0  8G05G12G20G21G25G26G29G31
 123398935.628 5  23482038.928
 130611597.671 4  24854566.376
 120677967.489 5  22964252.610
 110884144.791 6  21100550.788
 113448268.010 6  21588489.862
 117796126.185 5  22415857.081
 110431968.034 6  21014506.175
 123034129.809 5  23412619.883
 19  9  1  6 35 30.0000000  0  8G05G12G20G21G25G26G29G31
 123473094.483 5  23496150.841
 130720665.989 3  24875321.525
 120575145.777 4  22944685.569
 110870323.056 6  21097920.720
 113528970.024 6  21603847.353
 117717987.964 5  22400987.873
 110450206.522 6  21017976.641
 123088300.585 5  23422927.866
 19  9  1  6 36  0.0000000  0  7G05G20G21G25G26G29G31
 123547684.18514  23510344.476
 120472472.602 4  22925147.848
 110856825.508 6  21095352.162
 113610048.18116  21619275.733
 117640181.091 5  22386182.110
 110468631.19116  21021482.814
 123142784.964 5  23433295.953
 19  9  1  6 36 30.0000000  0  8G05G12G20G21G25G26G29G31
 123622700.50615  23524620.024
 130939098.19913  24916882.599
 120369949.531 5  22905638.332
 110843649.662 6  21092844.804
 113691499.346 6  21634775.449
 117562706.663 5  22371438.943
 110487240.99416  21025024.484
 123197578.741 5  23443722.725
 19  9  1  6 37  0.0000000  0  8G05G15G20G21G25G26G29G31
 123698142.07615  23538975.923
                  25311967.040
 120267579.725 5  22886157.836
 110830795.229 6  21090398.458
 113773322.304 6  21650345.841
 117485567.873 5  22356759.527
 110506037.21416  21028600.909
 123252679.892 5  23454207.818
 19  9  1  6 37 30.0000000  0  8G05G12G20G21G25G26G29G31
 123774007.14314  23553412.509
 131157844.48813  24958508.738
 120165366.867 4  22866707.854
 110818261.527 6  21088013.493
 113855515.84516  21665986.873
 117408767.850 5  22342145.786
 110525021.034 6  21032213.437
 123308086.225 5  23464751.946
 19  9  1  6 38  0.0000000  0  8G05G12G20G21G25G26G29G31
 123850290.811 4  23567928.525
 131267341.099 3  24979346.664
 120063310.832 4  22847287.591
 110806044.990 6  21085688.878
 113938075.581 6  21681697.490
 117332306.566 5  22327595.125
 110544190.738 6  21035861.533
 123363792.890 5  23475352.590
 19  9  1  6 38 30.0000000  0  9G05G12G15G20G21G25G26G29G31
 123926992.749 4  23582524.640
 131376918.301 3  25000197.321
 132809665.42513  25272836.687
 119961416.215 4  22827897.264
 110794146.321 6  21083424.301
 114021001.676 5  21697477.716
 117256188.577 5  22313110.704
 110563549.008 6  21039545.417
 123419799.088 5  23486010.604
 19  9  1  6 39  0.0000000  0  9G05G12G15G20G21G25G26G29G31
 124004110.82614  23597199.821
 131486574.215 3  25021063.122
 132741081.48213  25259788.469
 119859686.217 4  22808538.902
 110782564.969 6  21081220.542
 114104292.73316  21713327.389
 117180416.777 5  22298691.045
 110583096.601 6  21043264.798
 123476102.712 4  23496724.576
 19  9  1  6 39 30.0000000  0  9G05G12G15G20G21G25G26G29G31
 124081641.122 4  23611953.527
 131596305.605 3  25041945.147
 132672493.180 2  25246737.405
 119758121.861 4  22789211.456
 110771298.459 6  21079076.914
 114187945.337 6  21729245.930
 117104992.225 5  22284338.995
 110602832.376 6  21047020.522
 123532699.458 4  23507494.209
 19  9  1  6 40  0.0000000  0  9G05G12G15G20G21G25G26G29G31
 124159583.36214  23626785.939
 131706112.084 3  25062841.229
                  25233684.262
 119656727.249 4  22769916.488
 110760347.054 6  21076992.838
 114271959.061 5  21745233.421
 117029918.828 5  22270052.454
 110622758.65116  21050812.481
 123589588.395 4  23518319.256
 19  9  1  6 40 30.0000000  0  9G05G12G15G20G21G25G26G29G31
 124237933.70514  23641695.092
 131815990.501 2  25083750.452
                  25220627.476
 119555504.402 4  22750654.289
 110749708.728 5  21074968.347
 114356331.10415  21761288.801
 116955198.169 5  22255833.759
 110642874.883 5  21054640.475
 123646765.847 4  23529200.091
 19  9  1  6 41  0.0000000  0  8G05G12G20G21G25G26G29G31
 124316688.70514  23656681.359
 131925938.199 2  25104671.906
 119454454.991 4  22731425.353
 110739381.374 6  21073003.031
 114441058.619 6  21777412.083
 116880831.835 5  22241682.435
 110663181.07316  21058504.810
 123704228.024 4  23540135.110
 19  9  1  6 41 30.0000000  0  8G05G12G20G21G25G26G29G31
 124395847.145 4  23671745.396
 132035954.348 3  25125608.437
 119353582.482 4  22712230.574
 110729364.695 6  21071096.841
 114526140.57916  21793602.450
 116806823.189 5  22227599.069
 110683678.730 6  21062405.300
 123761973.272 4  23551124.184
 19  9  1  6 42  0.0000000  0  8G05G12G20G21G25G26G29G31
 124475405.44714  23686885.601
 132146035.45813  25146556.143
 119252888.266 4  22693068.691
 110719656.319 6  21069249.535
 114611573.807 6  21809859.922
 116733173.461 5  22213584.064
 110704367.10716  21066342.057
 123819997.714 4  23562165.844
 19  9  1  6 42 30.0000000  0  8G05G12G20G21G25G26G29G31
 124555362.70514  23702100.187
 132256181.640 3  25167516.129
 119152376.922 5  22673941.646
 110710257.277 6  21067460.766
 114697358.307 6  21826184.335
 116659887.065 6  22199637.988
 110725248.767 6  21070315.575
 123878300.547 5  23573260.254
 19  9  1  6 43  0.0000000  0  8G05G12G20G21G25G26G29G31
 124635715.91314  23717391.092
 132366403.02113  25188488.534
 119052050.167 5  22654850.296
 110701165.300 6  21065730.989
 114783491.134 6  21842574.705
 116586965.487 5  22185761.872
 110746323.04316  21074326.198
 123936877.979 5  23584407.261
 19  9  1  6 43 30.0000000  0  7G05G20G21G25G26G29G31
 124716462.85414  23732756.599
 118951911.358 5  22635794.014
 110692379.408 6  21064059.233
 114869970.924 6  21859031.199
 116514411.779 5  22171955.026
 110767591.44816  21078373.387
 123995727.862 5  23595605.431
 19  9  1  6 44  0.0000000  0  8G05G12G20G21G25G26G29G31
 124797600.234 4  23748197.077
 132586995.34013  25230465.618
 118851962.197 5  22616774.749
 110683898.210 6  21062444.866
 114956794.864 6  21875553.161
 116442227.535 5  22158218.976
 110789053.680 6  21082457.909
 124054846.796 5  23606855.941
 19  9  1  6 44 30.0000000  0  8G05G12G20G21G25G26G29G31
 124879125.717 4  23763710.307
 132697378.942 3  25251472.506
 118752205.257 5  22597791.503
 110675720.122 6  21060888.519
 115043960.922 6  21892140.303
 116370415.148 6  22144553.330
 110810710.294 6  21086578.755
 124114231.951 5  23618156.405
 19  9  1  6 45  0.0000000  0  8G05G12G20G21G25G26G29G31
 124961036.020 4  23779297.551
 132807815.713 3  25272487.318
 118652642.705 4  22578845.730
 110667843.481 5  21059389.923
 115131466.464 5  21908792.396
 116298976.511 5  22130958.902
 110832561.184 5  21090736.764
 124173880.147 4  23629507.820
 19  9  1  6 45 30.0000000  0  8G05G12G20G21G25G26G29G31
 125043330.864 4  23794957.934
                  25293512.054
 118553278.864 5  22559937.504
 110660268.981 6  21057948.639
 115219311.329 5  21925508.900
 116227915.853 5  22117436.583
 110854608.99516  21094932.380
 124233790.288 4  23640908.045
 19  9  1  6 46  0.0000000  0  7G05G20G21G25G26G29G31
 125126003.31914  23810689.473
 118454112.756 5  22541066.723
 110652991.645 6  21056563.638
 115307489.808 6  21942288.724
 116157231.950 5  22103985.857
 110876850.723 6  21099164.656
 124293956.003 4  23652357.002
 19  9  1  6 46 30.0000000  0  8G05G12G20G21G25G26G29G31
 125209055.561 4  23826493.803
                  25335591.718
 118355150.726 5  22522234.434
 110646013.823 6  21055235.643
 115396003.622 6  21959132.120
 116086930.928 6  22090608.222
 110899290.476 6  21103434.913
 124354378.208 5  23663855.056
 19  9  1  6 47  0.0000000  0  8G05G12G20G21G25G26G29G31
 125292484.484 4  23842370.090
 133250068.87812  25356645.219
 118256395.158 5  22503442.359
 110639334.150 6  21053964.745
 115484850.396 6  21976039.196
 116017014.902 5  22077303.080
 110921928.772 6  21107743.187
 124415054.072 4  23675401.197
 19  9  1  6 47 30.0000000  0  8G05G12G20G21G25G26G29G31
 125376286.241 4  23858317.068
 133360748.148 3  25377706.500
 118157847.733 5  22484689.057
 110632950.680 6  21052749.890
 115574027.226 6  21993009.135
 115947485.378 6  22064072.529
 110944765.027 6  21112088.618
 124475979.630 4  23686994.809
 19  9  1  6 48  0.0000000  0  8G05G12G20G21G25G26G29G31
 125460458.59814  23874334.406
 133471469.997 2  25398776.615
 118059511.156 5  22465976.297
 110626861.791 5  21051591.493
 115663532.044 5  22010041.124
 115878344.785 5  22050915.505
 110967800.248 5  21116472.044
 124537152.197 4  23698635.764
 19  9  1  6 48 30.0000000  0  7G05G20G21G25G26G29G31
 125544998.08014  23890422.222
 117961387.133 5  22447304.449
 110621065.679 5  21050488.150
 115753361.789 5  22027135.369
 115809594.565 5  22037832.712
 110991033.851 5  21120893.500
 124598568.352 4  23710322.511
 19  9  1  6 49  0.0000000  0  8G05G10G20G21G25G26G29G31
 125629903.987 4  23906579.241
                  24860690.939
 117863479.800 5  22428672.586
 110615562.960 6  21049441.267
 115843516.215 6  22044291.331
 115741238.879 5  22024825.364
 111014468.362 6  21125352.714
 124660226.665 5  23722056.547
 19  9  1  6 49 30.0000000  0  9G05G10G15G20G21G25G26G29G31
 125715171.860 4  23922804.927
 130534722.362 3  24839931.088
 131302454.49913  24986027.615
 117765789.948 5  22410082.990
 110610350.194 6  21048449.542
 115933991.428 6  22061508.155
 115673278.306 5  22011892.345
 111038102.539 6  21129850.020
 124722122.828 5  23733834.835
 19  9  1  6 50  0.0000000  0  8G05G10G20G21G25G26G29G31
 125800800.377 4  23939099.791
 130425605.139 4  24819166.955
 117668321.766 5  22391535.478
 110605427.229 6  21047512.336
 116024786.563 6  22078785.753
 115605716.435 5  21999035.556
 111061938.342 6  21134386.031
 124784255.124 5  23745657.825
 19  9  1  6 50 30.0000000  0  9G05G10G16G20G21G25G26G29G31
 125886786.831 4  23955462.341
 130316464.09614  24798397.414
 126248290.64813  24024251.659
 117571077.751 5  22373030.990
 110600793.226 6  21046630.725
 116115899.436 6  22096123.952
 115538555.589 6  21986255.787
 111085976.039 6  21138960.201
 124846620.759 5  23757526.087
 19  9  1  6 51  0.0000000  0  9G05G10G16G20G21G25G26G29G31
 125973126.503 4  23971892.618
 130207299.727 3  24777624.160
 126148968.520 3  24005350.105
 117474058.394 5  22354568.537
 110596445.088 6  21045803.465
 116207325.973 6  22113521.872
 115471796.163 6  21973552.048
 111110214.649 6  21143572.617
 124909214.982 4  23769437.136
 19  9  1  6 51 30.0000000  0  9G05G10G16G20G21G25G26G29G31
 126059819.134 4  23988389.146
 130098116.48414  24756846.885
 126049819.275 3  23986483.574
 117377268.194 5  22336150.018
 110592383.030 7  21045030.404
 116299065.997 6  22130979.227
 115405442.399 6  21960925.186
 111134656.508 7  21148223.887
 124972036.718 5  23781391.574
 19  9  1  6 52  0.0000000  0 10G05G10G15G16G20G21G25G26G29G31
 126146861.621 4  24004953.465
 129988916.32314  24736067.083
 130962057.73613  24921251.381
 125950844.648 3  23967649.777
 117280708.972 5  22317775.274
 110588605.580 6  21044311.324
 116391116.855 6  22148496.020
 115339496.177 6  21948376.280
 111159301.874 6  21152913.713
 125035083.044 5  23793388.690
 19  9  1  6 52 30.0000000  0 10G05G10G15G16G20G21G25G26G29G31
 126234250.846 4  24021582.645
 129879701.28813  24715285.568
 130894154.648 3  24908328.887
 125852046.889 3  23948848.621
 117184383.715 5  22299445.537
 110585110.858 6  21043646.606
 116483475.990 6  22166071.368
 115273959.356 6  21935905.040
 111184150.940 6  21157642.451
 125098350.795 5  23805428.816
 19  9  1  6 53  0.0000000  0 10G05G10G15G16G20G21G25G26G29G31
 126321984.227 4  24038278.052
 129770473.966 3  24694498.730
 130826317.757 3  24895419.874
 125753428.673 3  23930082.658
 117088294.583 5  22281160.076
 110581897.937 6  21043035.125
 116576141.406 5  22183705.268
 115208834.447 5  21923511.870
 111209204.455 6  21162409.880
 125161836.960 4  23817510.250
 19  9  1  6 53 30.0000000  0 10G05G10G15G16G20G21G25G26G29G31
 126410060.002 4  24055038.306
 129661237.545 3  24673712.092
 130758550.519 3  24882524.986
 125654993.252 3  23911350.688
 116992444.982 5  22262921.031
 110578966.057 6  21042477.195
 116669111.586 5  22201397.121
 115144124.355 5  21911197.989
 111234463.860 6  21167216.475
 125225539.555 4  23829632.012
 19  9  1  6 54  0.0000000  0 11G04G05G10G15G16G20G21G25G26G29G31
                  24901862.410
 126498473.579 4  24071863.535
 129551992.54713  24652923.936
 130690854.161 3  24869643.513
 125556741.130 3  23892653.871
 116896835.549 5  22244726.936
 110576311.991 6  21041972.185
 116762382.365 5  22219145.595
 115079829.445 6  21898963.249
 111259927.483 6  21172062.256
 125289453.684 4  23841794.133
 19  9  1  6 54 30.0000000  0 11G04G05G10G15G16G20G21G25G26G29G31
 130772402.963 2  24885160.907
 126587225.004 4  24088751.784
 129442744.231 3  24632134.696
 130623234.734 3  24856774.522
 125458678.051 3  23873992.687
 116801471.680 5  22226579.601
 110573937.202 6  21041520.192
 116855954.516 5  22236952.098
 115015954.897 5  21886807.991
 111285599.064 6  21176947.082
 125353579.494 4  23853996.779
 19  9  1  6 55  0.0000000  0 11G04G05G10G15G16G20G21G25G26G29G31
 130684595.887 2  24868452.003
 126676309.718 4  24105704.194
 129333493.00114  24611345.374
 130555687.99113  24843921.815
 125360804.246 3  23855369.341
 116706353.485 5  22208479.210
 110571838.192 6  21041121.032
 116949823.488 5  22254814.448
 114952500.695 6  21874732.911
 111311477.088 6  21181871.822
 125417911.768 4  23866238.531
 19  9  1  6 55 30.0000000  0 11G04G05G10G15G16G20G21G25G26G29G31
 130596754.920 2  24851736.148
 126765726.005 4  24122719.257
 129224242.230 4  24590555.146
 130488228.213 3  24831085.538
 125263123.551 3  23836781.159
 116611484.711 5  22190426.611
 110570014.887 6  21040774.069
 117043988.221 6  22272733.804
 114889470.161 6  21862738.827
 111337563.008 6  21186835.960
 125482448.644 4  23878520.055
 19  9  1  6 56  0.0000000  0 11G04G05G10G15G16G20G21G25G26G29G31
 130508879.144 3  24835015.686
 126855470.332 4  24139796.838
 129114993.949 4  24569765.525
 130420852.482 3  24818264.134
 125165637.715 3  23818229.596
 116516867.444 5  22172421.359
 110568465.196 6  21040478.979
 117138445.842 6  22290708.478
 114826864.979 6  21850825.708
 111363857.141 6  21191839.701
 125547187.011 4  23890839.089
 19  9  1  6 56 30.0000000  0 11G04G05G10G15G16G20G21G25G26G29G31
 130420969.634 2  24818286.234
 126945541.023 4  24156936.533
 129005751.075 4  24548977.385
 130353564.477 3  24805458.578
 125068350.275 3  23799717.040
 116422504.804 5  22154464.801
 110567188.194 6  21040235.924
 117233194.757 6  22308738.567
 114764687.911 6  21838993.929
 111390360.150 6  21196882.854
 125612124.254 4  23903196.824
 19  9  1  6 57  0.0000000  0 11G04G05G10G15G16G20G21G25G26G29G31
 130333026.856 2  24801550.400
 127035934.775 4  24174137.855
 128896515.971 4  24528190.807
 130286367.064 3  24792671.481
 124971263.247 3  23781241.875
 116328399.160 5  22136557.228
 110566182.893 6  21040044.759
 117328232.560 5  22326823.743
 114702941.042 6  21827243.692
 111417073.102 6  21201966.239
 125677257.381 4  23915591.564
 19  9  1  6 57 30.0000000  0 11G04G05G10G15G16G20G21G25G26G29G31
 130245050.720 2  24784808.990
 127126648.745 4  24191400.276
 128787290.595 4  24507406.054
 130219262.821 3  24779902.890
 124874378.965 3  23762805.117
 116234552.440 5  22118698.881
 110565447.028 6  21039904.590
 117423556.412 5  22344963.435
 114641626.058 6  21815576.045
 111443995.580 6  21207089.625
 125742583.094 4  23928022.511
 19  9  1  6 58  0.0000000  0 11G04G05G10G15G16G20G21G25G26G29G31
 130157041.980 2  24768060.758
 127217680.097 4  24208723.137
 128678077.316 3  24486623.009
 130152254.601 3  24767151.105
 124777700.060 3  23744407.263
 116140966.930 5  22100889.713
 110564979.261 6  21039815.631
 117519163.993 5  22363157.153
 114580744.950 5  21803990.659
 111471128.235 6  21212252.478
 125808098.302 4  23940489.656
 19  9  1  6 58 30.0000000  0 11G04G05G10G15G16G20G21G25G26G29G31
 130069001.940 2  24751307.552
 127309027.132 4  24226106.468
 128568879.625 3  24465843.586
 130085346.354 3  24754418.652
 124681229.912 3  23726049.816
 116047646.390 5  22083131.313
 110564779.164 6  21039777.300
 117615054.021 5  22381403.895
 114520300.992 5  21792488.645
 111498472.752 6  21217456.194
 125873801.532 4  23952992.365
 19  9  1  6 59  0.0000000  0 11G04G05G10G15G16G20G21G25G26G29G31
 129980930.640 3  24734548.310
 127400686.589 4  24243548.598
 128459699.376 4  24445066.854
 130018540.835 3  24741706.945
 124584970.623 3  23707732.588
 115954592.544 5  22065424.001
 110564844.758 6  21039789.799
 117711223.644 5  22399704.664
 114460295.735 5  21781070.042
 111526029.152 6  21222700.182
 125939688.726 4  23965529.933
 19  9  1  6 59 30.0000000  0 11G04G05G10G15G16G20G21G25G26G29G31
 129892829.435 2  24717783.571
 127492656.310 4  24261050.188
 128350539.430 4  24424294.098
 129951841.342 3  24729012.900
 124488925.210 3  23689455.988
 115861808.296 5  22047767.680
 110565175.321 6  21039853.037
 117807670.927 5  22418057.859
 114400731.680 6  21769735.140
 111553798.386 6  21227984.187
 126005757.672 4  23978102.243
 19  9  1  7  0  0.0000000  0 11G04G05G10G15G16G20G21G25G26G29G31
 129804698.132 2  24701014.136
 127584932.881 4  24278609.932
 128241401.717 4  24403525.263
 129885250.273 3  24716342.575
 124393095.830 3  23671219.995
 115769295.562 5  22030163.113
 110565768.945 6  21039966.061
 117904393.050 5  22436463.462
 114341610.447 6  21758484.708
 111581780.419 6  21233308.927
 126072004.939 4  23990708.379
 19  9  1  7  0 30.0000000  0 11G04G05G10G15G16G20G21G25G26G29G31
                  24684235.967
 127677513.386 4  24296227.518
 128132288.810 4  24382762.153
 129818770.673 3  24703691.081
 124297485.115 4  23653026.121
 115677056.856 5  22012610.709
 110566624.037 6  21040128.977
 118001387.749 5  22454921.341
 114282934.240 6  21747319.135
 111609976.087 6  21238674.583
 126138427.562 4  24003349.806
 19  9  1  7  1  0.0000000  0 11G04G05G10G15G16G20G21G25G26G29G31
 129628348.625 2  24667453.638
 127770396.128 4  24313902.747
 128023203.86413  24362003.302
 129752406.275 3  24691060.650
 124202096.288 3  23634873.857
 115585095.642 5  21995110.814
 110567739.892 6  21040340.961
 118098653.385 5  22473429.784
 114224705.831 6  21736238.718
 111638386.626 6  21244080.766
 126205023.300 4  24016022.547
 19  9  1  7  1 30.0000000  0 11G04G05G10G15G16G20G21G25G26G29G31
 129540130.729 2  24650666.888
 127863576.356 4  24331633.729
 127914147.492 4  24341250.790
 129686158.324 3  24678455.959
 124106930.306 4  23616764.560
 115493411.977 5  21977663.635
 110569113.348 6  21040602.436
 118196185.872 6  22491989.742
 114166925.496 6  21725243.352
 111667010.711 6  21249528.039
 126271787.679 4  24028727.007
 19  9  1  7  2  0.0000000  0 11G04G05G10G15G16G20G21G25G26G29G31
 129451886.335 2  24633875.099
 127957053.781 4  24349422.236
 127805124.47314  24320503.983
 129620032.235 3  24665873.211
 124011991.859 4  23598698.318
 115402010.959 5  21960270.868
 110570745.572 6  21040913.185
 118293985.130 5  22510600.649
 114109597.604 6  21714334.430
 111695851.288 6  21255016.038
 126338719.814 4  24041463.123
 19  9  1  7  2 30.0000000  0 11G04G05G10G15G16G20G21G25G26G29G31
 129363615.840 2  24617078.032
 128050825.214 4  24367266.199
 127696136.768 4  24299765.057
 129554030.530 4  24653312.333
 123917282.957 3  23580675.028
 115310894.231 5  21942931.903
 110572634.310 6  21041272.219
 118392048.149 6  22529261.546
 114052723.601 6  21703511.766
 111724908.264 6  21260545.326
 126405816.189 4  24054231.087
 19  9  1  7  3  0.0000000  0 11G04G05G10G15G16G20G21G25G26G29G31
 129275318.996 2  24600275.278
 128144887.262 4  24385165.536
 127587186.269 4  24279032.432
 129488155.605 3  24640776.428
 123822805.580 3  23562697.293
 115220064.105 5  21925647.551
 110574777.747 6  21041680.313
 118490372.237 5  22547971.973
 113996305.118 6  21692775.229
 111754182.138 6  21266116.202
 126473073.762 4  24067029.679
 19  9  1  7  3 30.0000000  0 11G04G05G10G15G16G20G21G25G26G29G31
 129186997.250 2  24583468.855
 128239237.498 4  24403120.449
 127478275.912 4  24258307.177
 129422410.866 4  24628267.549
 123728563.420 4  23544763.185
 115129523.231 6  21908418.751
 110577174.990 6  21042136.523
 118588955.351 6  22566731.677
 113940344.516 6  21682126.659
 111783673.679 6  21271728.266
 126540489.714 4  24079858.373
 19  9  1  7  4  0.0000000  0 11G04G05G10G15G16G20G21G25G26G29G31
 129098650.992 3  24566656.176
 128333872.733 4  24421128.308
 127369407.719 4  24237590.066
 129356798.900 3  24615781.321
 123634558.025 4  23526875.002
 115039273.596 6  21891244.454
 110579824.288 6  21042640.660
 118687794.773 6  22585540.144
 113884843.476 6  21671565.250
 111813382.764 6  21277381.488
 126608060.771 4  24092717.389
 19  9  1  7  4 30.0000000  0 11G04G05G10G15G16G20G21G25G26G29G31
 129010280.380 2  24549841.294
 128428790.486 4  24439190.259
 127260584.262 4  24216882.451
 129291322.662 3  24603320.227
 123540792.480 4  23509031.869
 114949317.862 5  21874126.724
 110582723.815 6  21043192.149
 118786888.083 5  22604397.069
 113829804.007 6  21661091.443
 111843310.016 6  21283076.495
 126675783.880 4  24105604.719
 19  9  1  7  5  0.0000000  0 11G04G05G10G15G16G20G21G25G26G29G31
 128921887.194 3  24533019.773
 128523988.707 3  24457307.050
 127151808.665 4  24196183.049
 129225985.756 3  24590887.898
 123447269.980 4  23491234.908
 114859658.493 5  21857064.868
 110585872.920 6  21043791.618
 118886233.650 5  22623301.814
 113775228.794 6  21650705.668
 111873456.865 6  21288813.587
 126743657.011 4  24118521.175
 19  9  1  7  5 30.0000000  0 11G04G05G10G15G16G20G21G25G26G29G31
 128833471.807 3  24516194.845
 128619464.073 4  24475474.347
 127043083.066 4  24175492.925
 129160791.254 4  24578481.819
 123353992.645 4  23473484.841
 114770297.774 6  21840060.098
 110589270.309 6  21044438.133
 118985828.733 5  22642253.784
 113721119.455 6  21640409.449
 111903823.670 6  21294592.059
 126811676.911 4  24131464.936
 19  9  1  7  6  0.0000000  0 11G04G05G10G15G16G20G21G25G26G29G31
 128745034.357 2  24499365.782
 128715213.768 4  24493695.481
 126934409.808 4  24154813.198
 129095742.093 3  24566103.109
 123260963.029 4  23455781.684
 114681238.557 6  21823112.752
 110592914.502 6  21045131.459
 119085670.776 5  22661253.664
 113667477.824 6  21630201.817
 111934410.963 6  21300412.733
 126879840.628 4  24144436.462
 19  9  1  7  6 30.0000000  0 11G04G05G10G15G16G20G21G25G26G29G31
 128656576.343 2  24482532.606
 128811235.566 3  24511966.576
 126825791.848 4  24134144.170
 129030841.716 4  24553754.401
 123168184.178 4  23438126.620
 114592483.245 6  21806223.198
 110596804.196 6  21045871.696
 119185757.918 6  22680300.035
 113614306.356 6  21620083.518
 111965219.559 6  21306275.501
 126948145.407 4  24157434.009
 19  9  1  7  7  0.0000000  0 11G04G05G10G15G16G20G21G25G26G29G31
 128568098.808 2  24465695.723
 128907526.835 3  24530291.457
 126717231.988 4  24113485.540
 128966093.381 3  24541431.690
 123075659.102 3  23420519.699
 114504034.593 5  21789391.813
 110600938.248 6  21046658.583
 119286088.000 5  22699391.746
 113561607.286 6  21610055.311
 111996250.271 6  21312180.313
 127016588.481 4  24170458.121
 19  9  1  7  7 30.0000000  0 11G04G05G10G15G16G20G21G25G26G29G31
 128479601.331 2  24448855.432
 129004083.870 3  24548665.671
 126608731.459 4  24092838.684
 128901498.799 3  24529140.549
 122983389.031 4  23402961.660
 114415893.565 5  21772619.210
 110605314.029 6  21047491.060
 119386657.383 5  22718529.337
 113509381.275 6  21600116.755
 112027502.631 6  21318127.446
 127085166.038 4  24183508.375
 19  9  1  7  8  0.0000000  0 11G04G05G10G15G16G20G21G25G26G29G31
 128391085.329 2  24432011.867
 129100905.169 3  24567090.382
 126500294.039 4  24072203.847
 128837062.273 4  24516877.975
 122891377.952 4  23385451.955
 114328063.814 5  21755905.719
 110609931.430 6  21048369.555
 119487464.953 5  22737712.351
 113457631.534 6  21590269.315
 112058978.241 6  21324116.844
 127153876.404 4  24196582.729
 19  9  1  7  8 30.0000000  0 11G04G05G10G15G16G20G21G25G26G29G31
 128302551.085 3  24415163.033
 129197986.975 3  24585564.570
 126391921.382 4  24051581.123
 128772786.160 4  24504646.762
 122799627.743 4  23367992.683
 114240546.890 5  21739251.758
 110614788.237 6  21049293.983
 119588507.479 5  22756940.258
 113406359.128 6  21580512.562
 112090677.152 6  21330148.989
 127222715.810 4  24209682.726
 19  9  1  7  9  0.0000000  0 11G04G05G10G15G16G20G21G25G26G29G31
 128213999.733 3  24398311.557
 129295326.610 3  24604087.430
 126283616.276 4  24030971.339
 128708673.538 4  24492445.751
 122708141.402 4  23350583.462
 114153345.639 6  21722658.291
 110619883.555 6  21050263.623
 119689782.786 5  22776212.509
 113355566.281 6  21570847.179
 112122599.784 6  21336223.925
 127291681.386 4  24222806.761
 19  9  1  7  9 30.0000000  0 11G04G05G10G15G16G20G21G25G26G29G31
 128125433.056 3  24381459.387
 129392922.774 3  24622659.617
 126175382.058 4  24010374.962
 128644728.354 4  24480279.224
 122616922.308 4  23333225.009
 114066463.248 6  21706124.584
 110625216.544 6  21051278.354
 119791289.379 5  22795528.201
 113305255.687 6  21561273.392
 112154747.989 6  21342341.379
 127360771.103 4  24235953.658
 19  9  1  7 10  0.0000000  0 11G04G05G10G15G16G20G21G25G26G29G31
 128036850.135 3  24364602.378
 129490771.068 3  24641279.762
 126067219.943 4  23989792.495
 128580952.613 3  24468142.119
 122525971.583 4  23315917.474
 113979900.754 6  21689652.302
 110630784.218 6  21052338.061
 119893023.533 5  22814888.193
 113255427.913 6  21551791.133
 112187120.973 6  21348501.816
 127429980.893 4  24249124.004
 19  9  1  7 10 30.0000000  0 11G04G05G10G15G16G20G21G25G26G29G31
 127948253.194 3  24347741.928
 129588869.711 3  24659947.806
 125959133.586 4  23969224.223
 128517350.531 4  24456038.974
 122435293.383 4  23298661.807
 113893661.657 6  21673241.575
 110636586.721 6  21053442.016
 119994983.891 5  22834290.106
 113206085.974 6  21542401.959
 112219720.384 6  21354705.489
 127499308.629 4  24262317.456
 19  9  1  7 11  0.0000000  0 11G04G05G10G15G16G20G21G25G26G29G31
 127859642.472 2  24330879.184
 129687216.061 3  24678662.607
 125851125.378 4  23948671.072
 128453924.716 4  24443969.612
 122344890.123 4  23281459.521
 113807747.599 6  21656892.964
 110642622.453 6  21054590.731
 120097167.950 5  22853735.208
 113157231.525 6  21533105.003
 112252546.538 6  21360952.101
 127568751.883 4  24275531.961
 19  9  1  7 11 30.0000000  0 11G04G05G10G15G16G20G21G25G26G29G31
 127771018.495 3  24314015.748
 129785806.650 4  24697423.716
 125743197.196 4  23928133.172
 128390677.748 4  24431934.232
 122254763.858 4  23264309.152
 113722160.505 6  21640606.279
 110648889.571 6  21055783.404
 120199572.610 5  22873222.245
 113108865.772 6  21523901.333
 112285599.592 6  21367241.866
 127638306.764 4  24288767.166
 19  9  1  7 12  0.0000000  0 11G04G05G10G15G16G20G21G25G26G29G31
 127682381.932 3  24297149.015
 129884639.061 4  24716231.632
 125635351.581 4  23907610.325
 128327612.371 4  24419933.802
 122164917.236 4  23247210.955
 113636902.995 6  21624382.360
 110655386.404 6  21057019.766
 120302195.565 5  22892750.780
 113060990.635 6  21514791.117
 112318880.187 6  21373574.671
 127707970.299 4  24302024.287
 19  9  1  7 12 30.0000000  0 11G04G05G10G15G16G20G21G25G26G29G31
 127593733.840 3  24280280.221
 129983709.875 3  24735083.371
 125527590.952 4  23887103.875
 128264731.821 3  24407967.756
 122075352.594 4  23230168.002
 113551977.234 6  21608221.179
 110662111.483 6  21058299.364
 120405034.198 5  22912320.553
 113013607.716 6  21505774.402
 112352388.854 6  21379951.284
 127777739.825 4  24315300.808
 19  9  1  7 13  0.0000000  0 11G04G05G10G15G16G20G21G25G26G29G31
 127505076.563 2  24263408.728
 130083018.560 3  24753981.414
 125419919.631 4  23866615.249
 128202040.960 3  24396037.779
 121986074.446 4  23213178.873
 113467387.033 5  21592124.172
 110669065.164 6  21059622.475
 120508087.897 5  22931931.075
 112966720.590 6  21496852.091
 112386127.519 6  21386371.619
 127847613.912 4  24328597.919
 19  9  1  7 13 30.0000000  0 11G04G05G10G15G16G20G21G25G26G29G31
 127416410.047 2  24246536.981
 130182561.058 2  24772923.699
 125312339.068 4  23846143.062
 128139541.975 3  24384143.767
 121897084.509 3  23196244.809
 113383134.081 5  21576091.537
 110676245.045 6  21060988.942
 120611353.104 5  22951581.358
 112920330.016 5  21488024.664
 112420096.010 5  21392835.765
 127917588.690 3  24341913.124
 19  9  1  7 14  0.0000000  0 11G04G05G10G15G16G20G21G25G26G29G31
 127327733.735 2  24229662.071
 130282333.819 3  24791910.214
 125204850.610 4  23825688.519
 128077236.288 3  24372287.817
 121808384.139 4  23179365.331
 113299219.197 5  21560122.975
 110683648.403 6  21062397.634
 120714826.265 5  22971271.860
 112874436.510 6  21479291.088
 112454293.725 6  21399343.246
 127987660.233 4  24355247.639
 19  9  1  7 14 30.0000000  0 11G04G05G10G15G16G20G21G25G26G29G31
 127239050.064 3  24212785.181
 130382335.423 3  24810939.626
 125097458.463 4  23805252.655
 128015128.846 3  24360469.242
 121719977.996 4  23162542.424
 113215646.412 5  21544219.835
 110691275.809 5  21063849.080
 120818506.634 5  22991001.956
 112829043.580 5  21470653.055
 112488722.850 5  21405894.928
 128057827.006 3  24368600.149
 19  9  1  7 15  0.0000000  0 11G04G05G10G15G16G20G21G25G26G29G31
 127150358.421 3  24195908.819
 130482561.987 3  24830011.049
 124990163.086 4  23784835.471
 127953220.768 3  24348688.264
 121631866.248 4  23145775.128
 113132415.832 5  21528381.101
 110699123.647 5  21065342.766
 120922389.690 5  23010769.654
 112784150.844 5  21462110.399
 112523381.924 5  21412490.514
 128128084.179 4  24381970.068
 19  9  1  7 15 30.0000000  0 11G04G05G10G15G16G20G21G25G26G29G31
 127061661.190 2  24179029.979
 130583011.671 3  24849126.838
 124882969.195 4  23764436.861
 127891516.939 3  24336946.508
 121544054.030 4  23129064.817
 113049531.989 5  21512609.386
 110707192.569 5  21066878.304
 121026475.118 5  23030576.761
 112739762.155 5  21453663.400
 112558273.556 5  21419130.102
 128198431.250 4  24395356.350
 19  9  1  7 16  0.0000000  0 11G04G05G10G15G16G20G21G25G26G29G31
 126972959.950 2  24162150.582
 130683682.188 2  24868283.993
 124775879.33814  23744057.950
 127830020.621 3  24325244.612
 121456543.846 3  23112412.851
 112966997.202 5  21496903.134
 110715481.463 5  21068455.460
 121130760.550 5  23050422.222
 112695879.314 5  21445312.845
 112593398.752 5  21425814.242
 128268865.140 3  24408759.701
 19  9  1  7 16 30.0000000  0 11G04G05G10G15G16G20G21G25G26G29G31
 126884252.819 3  24145271.458
 130784568.674 3  24887482.487
 124668893.787 4  23723699.448
 127768732.597 3  24313582.028
 121369335.981 4  23095817.461
 112884811.129 5  21481263.775
 110723986.853 6  21070073.986
 121235241.209 5  23070303.909
 112652501.601 6  21437058.430
 112628755.819 6  21432542.348
 128339380.767 4  24422178.254
 19  9  1  7 17  0.0000000  0 11G04G05G10G15G16G20G21G25G26G29G31
 126795542.742 3  24128389.429
 130885670.461 3  24906720.997
 124562016.912 4  23703361.181
 127707657.759 3  24301959.824
 121282435.290 4  23079280.519
 112802978.197 5  21465691.699
 110732708.539 6  21071733.404
 121339916.487 5  23090223.133
 112609632.586 5  21428900.575
 112664346.552 5  21439314.937
 128409976.939 4  24435612.496
 19  9  1  7 17 30.0000000  0 11G04G05G10G15G16G20G21G25G26G29G31
 126706830.581 3  24111508.080
 130986984.683 3  24926001.271
 124455251.427 4  23683044.314
 127646799.236 4  24290379.092
 121195844.361 4  23062802.281
 112721500.719 5  21450186.614
 110741645.835 5  21073434.372
 121444784.178 5  23110178.716
 112567274.115 5  21420840.003
 112700172.117 5  21446132.594
 128480651.236 3  24449061.572
 19  9  1  7 18  0.0000000  0 11G04G05G10G15G16G20G21G25G26G29G31
 126618116.920 3  24094626.530
 131088507.886 3  24945320.942
 124348599.176 4  23662749.586
 127586159.673 4  24278839.030
 121109565.002 4  23046384.485
 112640380.223 5  21434750.466
 110750796.330 5  21075175.627
 121549841.054 5  23130170.463
 112525427.100 5  21412876.806
 112736232.473 5  21452994.762
 128551399.872 3  24462524.166
 19  9  1  7 18 30.0000000  0 11G04G05G10G15G16G20G21G25G26G29G31
 126529402.858 3  24077745.472
 131190237.866 3  24964679.269
 124242062.973 4  23642476.064
 127525741.963 4  24267341.661
 121023600.497 4  23030025.734
 112559619.189 5  21419381.812
 110760159.055 5  21076957.386
 121655085.007 5  23150197.678
 112484093.444 5  21405011.435
 112772528.328 5  21459901.667
 128622220.222 4  24476001.199
 19  9  1  7 19  0.0000000  0 11G04G05G10G15G16G20G21G25G26G29G31
 126440689.372 3  24060863.530
 131292172.300 3  24984076.791
 124135645.492 4  23622226.241
 127465549.411 4  24255888.158
 120937953.226 4  23013727.916
 112479219.812 5  21404082.293
 110769732.676 6  21078779.218
 121760513.686 5  23170260.435
 112443274.869 6  21397243.547
 112809060.339 6  21466853.497
 128693109.821 4  24489491.738
 19  9  1  7 19 30.0000000  0 11G04G05G10G15G16G20G21G25G26G29G31
 126351976.758 3  24043981.252
 131394307.657 3  25003513.275
 124029348.193 4  23601997.832
 127405584.225 4  24244477.269
 120852624.906 4  22997490.114
 112399183.200 5  21388851.968
 110779514.933 6  21080641.023
 121866123.588 5  23190357.125
 112402971.919 6  21389574.261
 112845828.244 6  21473850.330
 128764064.536 4  24502993.430
 19  9  1  7 20  0.0000000  0 11G04G05G10G15G16G20G21G25G26G29G31
 126263267.656 3  24027101.849
 131496641.712 2  25022986.718
 123923175.240 4  23581794.277
 127345850.875 4  24233109.850
 120767620.004 4  22981314.941
 112319513.254 5  21373691.372
 110789506.072 6  21082541.901
 121971913.803 5  23210488.226
 112363187.733 5  21382003.864
 112882834.244 5  21480891.902
 128835083.361 4  24516507.185
 19  9  1  7 20 30.0000000  0 11G04G05G10G15G16G20G21G25G26G29G31
 126174561.622 3  24010220.459
 131599171.724 3  25042497.412
 123817128.424 4  23561613.654
 127286351.825 3  24221787.762
 120682940.568 4  22965200.753
 112240211.586 5  21358600.527
 110799704.029 6  21084482.595
 122077881.133 5  23230653.277
 112323923.139 5  21374532.001
 112920077.839 5  21487979.603
 128906162.483 3  24530033.512
 19  9  1  7 21  0.0000000  0 11G04G05G10G15G16G20G21G25G26G29G31
 126085859.196 3  23993341.717
 131701893.987 3  25062044.490
 123711209.474 4  23541457.571
 127227088.967 4  24210510.766
 120598588.017 4  22949148.954
 112161279.370 6  21343580.528
 110810106.455 6  21086461.969
 122184022.351 5  23250851.617
 112285178.840 6  21367158.907
 112957558.890 6  21495111.695
 128977298.201 4  24543570.026
 19  9  1  7 21 30.0000000  0 11G04G05G10G15G16G20G21G25G26G29G31
 125997162.516 2  23976462.518
 131804807.170 2  25081627.427
 123605422.445 4  23521327.345
 127168067.206 3  24199279.107
 120514566.570 4  22933160.521
 112082720.335 5  21328631.195
 110820713.442 6  21088480.469
 122290336.465 5  23271082.207
 112246957.832 6  21359886.128
 112995279.396 5  21502289.656
 129048489.439 3  24557117.365
 19  9  1  7 22  0.0000000  0 11G04G05G10G15G16G20G21G25G26G29G31
 125908471.326 3  23959584.937
 131907907.394 2  25101246.562
 123499768.260 4  23501222.023
 127109287.661 3  24188093.501
 120430877.510 4  22917234.846
 112004535.090 5  21313752.812
 110831522.042 6  21090537.378
 122396819.442 5  23291345.010
 112209260.030 6  21352712.395
 113033238.465 6  21509513.191
 129119731.334 3  24570674.221
 19  9  1  7 22 30.0000000  0 11G04G05G10G15G16G20G21G25G26G29G31
 125819788.804 3  23942709.493
 132011193.894 2  25120901.879
 123394251.517 4  23481142.987
 127050755.416 3  24176955.407
 120347525.237 4  22901373.219
 111926727.667 6  21298946.885
 110842533.137 6  21092632.762
 122503470.801 5  23311640.539
 112172088.948 6  21345638.763
 113071438.520 6  21516782.240
 129191023.205 3  24584240.718
 19  9  1  7 23  0.0000000  0 11G04G05G10G15G16G20G21G25G26G29G31
 125731115.048 3  23925835.060
 132114662.851 2  25140591.544
 123288873.705 4  23461090.375
 126992472.451 3  24165863.501
 120264511.746 4  22885576.121
 111849299.208 6  21284212.528
 110853744.231 6  21094766.063
 122610287.036 5  23331966.759
 112135445.004 6  21338665.885
 113109879.164 6  21524097.566
 129262361.254 3  24597815.223
 19  9  1  7 23 30.0000000  0 11G04G05G10G15G16G20G21G25G26G29G31
 125642449.862 3  23908962.332
 132218311.276 2  25160315.709
 123183636.802 4  23441063.745
 126934441.288 3  24154820.460
 120181838.765 4  22869844.227
 111772251.215 5  21269550.655
 110865153.159 6  21096937.025
 122717265.124 4  23352324.133
 112099329.080 5  21331793.329
 113148560.440 5  21531458.279
 129333742.392 3  24611398.519
 19  9  1  7 24  0.0000000  0 11G04G05G10G15G16G20G21G25G26G29G31
 125553795.447 3  23892092.337
 132322136.951 2  25180072.808
 123078543.511 4  23421066.256
 126876665.065 3  24143826.522
 120099508.991 4  22854177.178
 111695585.751 5  21254961.887
 110876759.163 6  21099145.723
 122824402.803 4  23372712.349
 112063742.776 6  21325021.796
 113187483.171 5  21538865.011
 129405163.651 3  24624990.373
 19  9  1  7 24 30.0000000  0 11G04G05G10G15G16G20G21G25G26G29G31
 125465153.205 3  23875223.831
 132426137.870 2  25199862.690
 122973597.560 4  23401095.450
 126819147.846 3  24132882.016
 120017526.568 4  22838576.788
 111619306.444 5  21240446.160
 110888561.831 5  21101391.705
 122931698.760 4  23393129.221
 112028688.634 5  21318351.203
 113226648.954 5  21546318.092
 129476623.507 3  24638588.152
 19  9  1  7 25  0.0000000  0 11G04G05G10G15G16G20G21G25G26G29G31
 125376523.195 3  23858358.992
 132530309.689 2  25219686.925
 122868800.019 4  23381153.476
 126761891.348 3  24121986.692
 119935892.391 4  22823042.538
 111543413.824 5  21226004.531
 110900558.337 5  21103674.276
 123039149.032 4  23413576.675
 111994166.596 5  21311781.481
 113266056.896 5  21553817.205
 129548117.439 3  24652193.447
 19  9  1  7 25 30.0000000  0 11G04G05G10G15G16G20G21G25G26G29G31
 125287906.414 3  23841496.003
 132634650.175 2  25239541.826
 122764153.415 4  23361239.181
 126704898.683 3  24111140.858
 119854609.202 4  22807574.291
 111467909.682 5  21211636.439
 110912747.149 5  21105994.005
 123146751.185 4  23434052.699
 111960178.024 5  21305313.425
 113305707.471 5  21561362.355
 129619642.718 3  24665804.723
 19  9  1  7 26  0.0000000  0 11G04G05G10G15G16G20G21G25G26G29G31
 125199304.416 2  23824635.193
 132739157.003 2  25259429.459
 122659660.759 4  23341355.492
 126648173.112 3  24100346.140
 119773680.131 4  22792174.111
 111392796.817 5  21197342.764
 110925127.709 5  21108350.040
 123254503.203 4  23454557.300
 111926724.766 5  21298947.878
 113345601.535 5  21568954.073
 129691197.241 3  24679420.233
 19  9  1  7 26 30.0000000  0 11G04G05G10G15G16G20G21G25G26G29G31
 125110719.478 2  23807778.602
                  25279348.347
 122555326.03014  23321501.588
 126591719.032 3  24089603.488
 119693109.083 4  22776842.207
 111318078.725 5  21183124.670
 110937700.030 5  21110742.463
 123362403.963 4  23475090.225
 111893809.487 5  21292683.847
 113385741.370 5  21576592.647
 129762779.405 3  24693043.002
 19  9  1  7 27  0.0000000  0 11G04G05G10G15G16G20G21G25G26G29G31
 125022150.277 3  23790924.371
 132948699.839 2  25299296.497
 122451148.928 4  23301676.809
 126535536.644 4  24078912.323
 119612895.783 4  22761577.585
 111243754.441 6  21168981.041
 110950459.784 6  21113170.521
 123470448.210 4  23495650.881
 111861430.708 6  21286522.667
 113426124.456 6  21584277.173
 129834383.606 3  24706667.325
 19  9  1  7 27 30.0000000  0 10G04G10G15G16G20G21G25G26G29G31
 124933599.981 3  23774073.414
 122347134.432 4  23281883.268
 126479631.293 3  24068273.724
 119533045.713 4  22746382.476
 111169828.341 5  21154913.334
 110963408.127 5  21115634.443
 123578635.937 4  23516238.382
 111829592.204 5  21280464.190
 113466753.670 5  21592008.844
 129906009.381 3  24720298.283
 19  9  1  7 28  0.0000000  0 11G04G05G10G15G16G20G21G25G26G29G31
 124845069.22013  23757225.874
 133158843.72712  25339285.519
 122243284.30215  23262121.595
 126424005.362 4  24057689.017
 119453560.245 4  22731257.077
 111096302.114 6  21140922.034
 110976543.090 6  21118134.070
 123686963.907 4  23536852.685
 111798294.418 6  21274508.286
 113507629.133 6  21599787.280
 129977653.419 3  24733931.725
 19  9  1  7 28 30.0000000  0 10G04G10G15G16G20G21G25G26G29G31
 124756558.677 3  23740383.797
 122139600.645 4  23242391.060
 126368661.383 4  24047157.020
 119374441.516 4  22716201.726
 111023176.883 5  21127006.623
 110989862.985 5  21120668.674
 123795429.170 4  23557493.103
 111767538.215 5  21268655.546
 113548751.012 5  21607612.174
 130049312.704 3  24747568.247
 19  9  1  7 29  0.0000000  0 10G04G10G15G16G20G21G25G26G29G31
 124668068.58313  23723545.419
 122036085.58115  23222692.729
 126313601.731 4  24036679.395
 119295691.931 4  22701215.999
 110950454.568 6  21113168.237
 111003365.911 6  21123238.198
 123904028.868 5  23578158.411
 111737324.303 6  21262906.062
 113590118.937 6  21615484.458
 130120983.491 3  24761207.300
 19  9  1  7 29 30.0000000  0 10G04G10G15G16G20G21G25G26G29G31
 124579601.860 3  23706710.289
 121932742.631 5  23203027.495
 126258830.477 4  24026256.184
 119217315.169 5  22686301.181
 110878137.849 6  21099406.606
 111017051.664 6  21125842.470
 124012761.484 5  23598849.715
 111707655.016 6  21257260.397
 113631734.561 6  21623403.592
 130192664.433 3  24774846.492
 19  9  1  7 30  0.0000000  0 11G04G05G10G15G16G20G21G25G26G29G31
 124491158.839 3  23689879.144
                  25419607.677
 121829573.96015  23183395.069
 126204350.359 4  24015889.973
 119139313.287 5  22671458.276
 110806228.567 6  21085722.980
 111030918.451 6  21128481.235
 124121624.232 4  23619565.501
 111678531.126 6  21251718.314
 113673598.046 6  21631370.146
 130264352.204 4  24788488.103
 19  9  1  7 30 30.0000000  0 10G04G05G10G15G16G20G21G25G26G29
 124402740.750 3  23673055.156
 133686822.842 2  25439756.428
 121726581.621 5  23163796.513
 126150163.743 4  24005577.817
 119061688.307 5  22656686.461
 110734728.053 6  21072116.712
 111044964.343 6  21131154.106
 124230614.168 5  23640305.667
 111649953.335 6  21246280.140
 113715709.651 6  21639383.684
 19  9  1  7 31  0.0000000  0 10G04G10G15G16G20G21G25G26G29G31
 124314350.045 3  23656234.027
 121623769.82415  23144232.025
 126096274.986 4  23995323.648
 118984444.735 4  22641987.393
 110663639.774 6  21058589.213
 111059190.033 6  21133861.136
 124339730.445 5  23661069.668
 111621924.452 6  21240946.458
 113758071.291 6  21647444.882
 130407774.28814  24815774.005
 19  9  1  7 31 30.0000000  0 10G04G10G15G16G20G21G25G26G29G31
 124225985.377 3  23639419.063
 121521138.739 5  23124701.969
 126042685.000 4  23985125.417
 118907582.682 5  22627361.219
 110592963.435 6  21045139.669
 111073591.694 6  21136601.891
 124448968.266 4  23681857.334
 111594443.286 6  21235716.690
 113800681.314 6  21655553.385
 130479465.447 3  24829415.690
 19  9  1  7 32  0.0000000  0 10G04G10G15G16G20G21G25G26G29G31
 124137648.902 3  23622608.571
 121418691.683 5  23105207.311
 125989397.314 4  23974985.335
 118831105.399 5  22612808.402
 110522701.640 6  21031769.381
 111088168.624 6  21139375.637
 124558325.859 4  23702667.593
 111567511.636 6  21230591.878
 113843540.784 6  21663709.261
 130551152.033 3  24843057.110
 19  9  1  7 32 30.0000000  0 10G04G10G15G16G20G21G25G26G29G31
 124049342.271 3  23605804.793
 121316431.513 5  23085746.753
 125936415.225 4  23964903.141
 118755015.832 4  22598328.467
 110452857.018 6  21018478.348
 111102920.260 6  21142182.746
 124667801.268 4  23723499.778
 111541131.054 6  21225571.560
 113886650.768 6  21671913.009
 130622831.844 3  24856697.795
 19  9  1  7 33  0.0000000  0 10G04G10G15G16G20G21G25G26G29G31
 123961066.282 3  23589007.045
 121214360.347 5  23066323.962
 125883741.232 4  23954879.199
 118679316.191 4  22583923.231
 110383430.607 5  21005266.959
 111117845.108 5  21145022.956
 124777391.470 4  23744353.995
 111515302.113 5  21220656.633
 113930011.180 5  21680163.990
 130694501.690 3  24870336.954
 19  9  1  7 33 30.0000000  0 10G04G10G15G16G20G21G25G26G29G31
 123872822.186 3  23572214.356
 121112481.128 5  23046936.761
 125831378.822 4  23944915.598
 118604009.383 4  22569593.149
 110314425.060 5  20992135.826
 111132942.068 5  21147895.851
 124887094.455 4  23765230.094
 111490026.341 5  21215847.015
 113973623.129 5  21688463.251
 130766159.173 3  24883972.932
 19  9  1  7 34  0.0000000  0 10G04G10G15G16G20G21G25G26G29G31
 123784612.097 3  23555428.663
 121010796.486 5  23027587.078
 125779330.738 4  23935010.993
 118529097.921 5  22555337.509
 110245842.387 6  20979084.838
 111148209.643 6  21150801.242
 124996907.858 4  23786126.791
 111465304.854 6  21211142.382
 114017487.081 5  21696810.098
 130837801.332 3  24897605.699
 19  9  1  7 34 30.0000000  0 10G04G10G15G16G20G21G25G26G29G31
 123696436.907 3  23538648.386
 120909309.081 5  23008274.131
 125727600.416 4  23925167.143
 118454584.680 5  22541158.540
 110177684.140 6  20966114.825
 111163646.789 6  21153738.631
 125106829.388 4  23807043.490
 111441138.799 6  21206544.145
 114061603.774 6  21705205.441
 130909426.103 3  24911236.109
 19  9  1  7 35  0.0000000  0 10G04G10G15G16G20G21G25G26G29G31
 123608296.485 4  23521876.009
 120808019.972 5  22988999.282
 125676188.920 4  23915384.256
 118380470.711 5  22527055.267
 110109950.888 6  20953225.912
 111179250.929 6  21156708.069
 125216855.088 5  23827981.040
 111417527.701 6  21202051.026
 114105972.056 6  21713648.492
 130981029.126 3  24924861.720
 19  9  1  7 35 30.0000000  0 11G04G10G15G16G20G21G25G26G27G29G31
 123520193.89414  23505111.324
 120706932.73115  22969762.892
 125625100.262 4  23905661.808
 118306759.76315  22513027.993
 110042645.579 6  20940417.940
 111195021.901 6  21159709.188
 125326983.612 4  23848938.126
 111394473.592 6  21197663.858
 131685233.87913  25058866.824
 114150593.459 6  21722139.582
 131052608.895 3  24938482.031
 19  9  1  7 36  0.0000000  0 11G04G10G15G16G20G21G25G26G27G29G31
 123432129.692 3  23488352.798
 120606050.573 5  22950566.218
 125574338.118 4  23896001.908
 118233454.662 4  22499078.745
 109975770.704 6  20927691.890
 111210959.075 6  21162741.808
 125437213.104 4  23869914.326
 111371978.083 6  21193383.229
 131597895.304 2  25042246.206
 114195469.318 5  21730679.266
 131124163.460 2  24952099.729
 19  9  1  7 36 30.0000000  0 10G04G10G15G16G20G21G25G26G29G31
 123344105.070 3  23471602.925
 120505374.830 5  22931408.896
 125523904.135 3  23886404.861
 118160556.954 4  22485206.804
 109909326.990 6  20915048.204
 111227060.196 6  21165806.005
 125547540.059 4  23890908.505
 111350040.997 6  21189208.434
 114240598.830 5  21739266.813
                  24965710.274
 19  9  1  7 37  0.0000000  0 10G04G10G15G16G20G21G25G26G29G31
 123256121.872 3  23454860.388
 120404908.395 5  22912290.428
 125473801.572 4  23876870.540
 118088069.459 4  22471412.759
 109843316.542 6  20902486.626
 111243324.409 6  21168900.885
 125657962.298 4  23911921.560
 111328663.546 6  21185140.631
 114285983.039 5  21747903.301
                  24979315.824
 19  9  1  7 37 30.0000000  0  9G04G10G15G16G20G21G25G26G29
 123168180.311 3  23438124.813
 120304653.306 5  22893212.179
 125424032.856 4  23867399.909
 118015994.451 4  22457697.691
 109777740.639 6  20890008.376
 111259749.917 6  21172026.613
 125768476.931 4  23932951.967
 111307846.185 6  21181179.213
 114331621.625 5  21756588.390
 19  9  1  7 38  0.0000000  0  9G04G10G15G16G20G21G25G26G29
 123080283.716 3  23421399.406
 120204614.310 5  22874175.426
 125374603.088 4  23857993.215
 117944336.492 5  22444061.292
 109712603.169 6  20877612.993
 111276337.506 6  21175183.318
 125879083.772 4  23953999.118
 111287591.967 6  21177325.044
 114377517.334 5  21765321.688
 19  9  1  7 38 30.0000000  0 10G04G10G15G16G20G21G25G26G27G29
 122992430.785 4  23404681.370
 120104790.38715  22855179.739
 125325511.641 4  23848652.378
 117873094.471 5  22430504.688
 109647902.396 6  20865300.764
 111293082.615 6  21178369.600
 125989776.824 4  23975062.770
 111267898.257 6  21173577.657
 131160293.90413  24958975.132
 114423667.689 6  21774104.027
 19  9  1  7 39  0.0000000  0 10G04G10G15G16G20G21G25G26G27G29
 122904623.749 4  23387971.973
 120005185.147 5  22836225.572
 125276761.936 4  23839375.291
 117802272.069 5  22417027.317
 109583641.685 6  20853072.127
 111309985.239 6  21181585.747
 126100554.807 4  23996144.106
 111248766.993 6  21169936.829
 131072597.444 4  24942287.124
 114470073.376 6  21782934.665
 19  9  1  7 39 30.0000000  0 10G04G10G15G16G20G21G25G26G27G29
 122816864.378 4  23371272.610
 119905801.694 5  22817313.621
 125228357.946 4  23830164.852
 117731872.180 5  22403630.788
 109519822.593 6  20840927.770
 111327044.560 6  21184832.236
 126211415.771 4  24017239.666
 111230199.524 6  21166403.373
 130984844.041 3  24925587.937
 114516736.060 6  21791814.371
 19  9  1  7 40  0.0000000  0  9G04G10G15G16G20G21G25G26G29
 122729154.321 4  23354581.198
 119806642.994 5  22798444.016
 125180302.735 4  23821020.004
 117661898.094 5  22390315.453
 109456447.998 6  20828868.192
 111344260.150 6  21188108.402
 126322357.882 4  24038351.193
 111212197.174 6  21162977.889
 114563656.479 6  21800743.025
 19  9  1  7 40 30.0000000  0  9G04G10G15G16G20G21G25G26G29
 122641493.868 4  23337900.805
 119707709.994 5  22779617.931
 125132597.744 4  23811942.278
 117592350.462 5  22377080.984
 109393517.402 6  20816892.939
 111361628.957 6  21191413.545
 126433377.107 4  24059478.391
 111194759.115 6  21159659.650
 114610833.331 6  21809720.505
 19  9  1  7 41  0.0000000  0  9G04G10G15G16G20G21G25G26G29
 122553885.340 3  23321229.061
 119609006.477 5  22760834.703
 125085247.009 4  23802931.964
 117523233.013 5  22363927.924
 109331033.997 6  20805002.511
 111379151.382 6  21194747.973
 126544472.261 4  24080619.971
 111177887.370 6  21156449.114
 114658268.537 5  21818747.384
 19  9  1  7 41 30.0000000  0  9G04G10G15G16G20G21G25G26G29
 122466328.383 3  23304567.008
 119510532.999 5  22742096.076
 125038251.440 4  23793987.844
 117454546.425 5  22350857.532
 109268997.686 6  20793197.673
 111396823.934 6  21198111.096
 126655638.998 4  24101774.196
 111161580.699 6  21153346.015
 114705960.620 5  21827822.931
 19  9  1  7 42  0.0000000  0 10G04G10G15G16G20G21G25G26G27G29
 122378826.240 4  23287915.926
 119412293.81115  22723402.055
 124991615.433 4  23785112.810
 117386294.809 5  22337869.379
 109207411.764 6  20781478.214
 111414647.617 6  21201502.360
 126766876.697 4  24122941.580
 111145841.594 6  21150351.044
 130545251.57713  24841934.906
 114753911.843 6  21836947.936
 19  9  1  7 42 30.0000000  0  9G04G10G15G16G20G21G25G26G29
 122291380.351 4  23271276.086
 119314290.937 6  22704752.177
 124945341.807 4  23776308.344
 117318480.366 5  22324964.974
 109146277.806 6  20769844.798
 111432620.982 6  21204923.039
 126878182.710 4  24144122.459
 111130670.587 6  21147464.031
 114802122.317 6  21846121.717
 19  9  1  7 43  0.0000000  0  9G04G10G15G16G20G21G25G26G29
 122203990.358 4  23254645.648
 119216526.132 5  22686148.273
 124899431.718 4  23767572.159
 117251104.124 5  22312143.697
 109085596.010 6  20758297.400
 111450741.476 6  21208371.071
 126989553.277 4  24165315.444
 111116066.944 6  21144685.125
 114850591.534 6  21855345.352
 19  9  1  7 43 30.0000000  0  9G04G10G15G16G20G21G25G26G29
 122116659.872 3  23238027.164
 119119003.492 5  22667590.675
 124853889.935 4  23758906.158
 117184170.636 5  22299406.541
 109025369.987 5  20746836.514
 111469009.556 5  21211847.547
 127100987.955 4  24186521.419
 111102033.191 5  21142014.502
 114899321.403 5  21864618.251
 19  9  1  7 44  0.0000000  0  9G04G10G15G16G20G21G25G26G29
 122029388.878 3  23221419.541
 119021723.712 5  22649078.846
 124808717.492 4  23750309.952
 117117680.323 5  22286754.043
 108965599.838 5  20735462.954
 111487422.505 5  21215351.258
 127212482.557 3  24207737.784
 111088568.222 5  21139452.259
 114948310.784 5  21873940.518
 19  9  1  7 44 30.0000000  0  9G04G10G15G16G20G21G25G26G29
 121942178.852 3  23204824.562
 118924689.92815  22630614.002
 124763918.029 4  23741785.245
 117051636.384 5  22274186.378
 108906286.945 6  20724176.066
 111505979.797 6  21218882.513
 127324035.290 4  24228966.143
 111075673.227 6  21136998.478
 114997560.712 5  21883312.577
 19  9  1  7 45  0.0000000  0  9G04G10G15G16G20G21G25G26G29
 121855030.407 4  23188241.406
 118827903.17415  22612196.451
 124719492.607 4  23733329.672
 116986039.673 5  22261703.491
 108847432.114 6  20712976.215
 111524679.167 6  21222441.083
 127435642.369 4  24250203.899
 111063347.393 6  21134653.097
 115047069.992 5  21892733.834
 19  9  1  7 45 30.0000000  0  9G04G10G15G16G20G21G25G26G29
 121767947.394 4  23171669.918
 118731368.136 6  22593825.981
 124675446.043 4  23724948.657
 116920894.639 5  22249307.486
 108789039.052 6  20701864.423
 111543521.804 6  21226026.671
 127547303.621 4  24271452.566
 111051593.435 7  21132416.013
 115096841.287 6  21902204.993
 19  9  1  7 46  0.0000000  0  9G04G10G15G16G20G21G25G26G29
 121680929.768 4  23155110.160
 118635086.189 6  22575504.347
 124631779.922 4  23716638.599
 116856202.744 5  22236996.770
 108731108.024 7  20690840.452
 111562505.195 7  21229639.090
 127659015.438 4  24292710.612
 111040410.763 7  21130288.092
 115146873.953 6  21911726.099
 19  9  1  7 46 30.0000000  0  9G04G10G15G16G20G21G25G26G29
 121593979.673 4  23138563.846
 118539060.443 6  22557231.036
 124588497.899 4  23708402.980
 116791967.365 5  22224773.207
 108673641.446 6  20679904.897
 111581629.086 6  21233278.098
 127770776.221 4  24313979.112
 111029800.588 6  21128269.142
 115197169.568 6  21921297.030
 19  9  1  7 47  0.0000000  0  9G04G10G15G16G20G21G25G26G29
 121507096.998 4  23122030.541
 118443291.342 5  22539006.825
 124545600.340 4  23700239.715
 116728188.157 5  22212636.405
 108616638.721 6  20669057.640
 111600889.921 6  21236943.518
 127882581.524 4  24335254.440
 111019761.314 6  21126358.912
 115247726.004 6  21930918.008
 19  9  1  7 47 30.0000000  0  9G04G10G15G16G20G21G25G26G29
 121420284.932 4  23105511.524
 118347783.183 5  22520831.985
 124503091.817 4  23692150.363
 116664869.480 5  22200586.988
 108560103.233 6  20658299.621
 111620288.650 6  21240635.163
 127994430.797 4  24356538.567
 111010295.313 6  21124557.558
 115298545.034 6  21940588.315
 19  9  1  7 48  0.0000000  0  9G04G10G15G16G20G21G25G26G29
 121333545.239 4  23089005.148
 118252538.556 5  22502707.382
 124460975.414 4  23684136.479
 116602014.093 5  22188625.528
 108504036.514 6  20647630.053
 111639824.653 6  21244352.572
 128106321.769 4  24377830.296
 111001403.108 6  21122865.586
 115349627.833 6  21950308.861
 19  9  1  7 48 30.0000000  0 10G04G10G15G16G20G21G25G26G27G29
 121246877.114 3  23072511.909
 118157557.72815  22484633.387
 124419251.496 4  23676196.978
 116539621.781 5  22176753.401
 108448437.961 6  20637050.290
 111659494.479 6  21248095.521
 128218249.931 3  24399130.925
 110993082.898 6  21121282.019
 129396334.20313  24623304.794
 115400972.537 5  21960079.545
 19  9  1  7 49  0.0000000  0 10G04G10G15G16G20G21G25G26G27G29
 121160283.060 4  23056034.259
 118062843.719 5  22466609.999
 124377923.226 4  23668331.826
 116477695.748 5  22164968.716
 108393309.612 6  20626559.819
 111679297.515 6  21251863.943
 128330213.469 4  24420435.843
 110985335.708 6  21119807.951
 129307635.709 3  24606426.503
 115452579.874 6  21969900.038
 19  9  1  7 49 30.0000000  0 10G04G10G15G16G20G21G25G26G27G29
 121073765.400 4  23039571.621
 117968400.021 5  22448637.863
 124336994.024 4  23660543.191
 116416239.056 5  22153274.124
 108338653.862 6  20616158.872
 111699233.663 6  21255657.640
 128442211.112 3  24441747.368
 110978162.935 6  21118443.070
 129218896.275 3  24589539.680
 115504451.477 5  21979771.139
 19  9  1  7 50  0.0000000  0 10G04G10G15G16G20G21G25G26G27G29
 120987323.944 4  23023121.672
 117874227.355 5  22430717.676
 124296465.283 4  23652830.614
 116355252.320 5  22141668.963
 108284470.243 6  20605848.166
 111719300.570 6  21259476.403
 128554238.871 3  24463066.695
 110971563.215 6  21117187.018
 129130115.191 3  24572645.702
 115556586.309 5  21989691.921
 19  9  1  7 50 30.0000000  0 10G04G10G15G16G20G21G25G26G27G29
 120900962.327 4  23006687.870
 117780329.527 5  22412848.895
 124256340.906 4  23645195.626
 116294739.314 5  22130153.365
 108230761.669 5  20595627.690
 111739498.275 5  21263319.842
 128666295.519 3  24484390.076
 110965538.234 5  21116040.247
 129041294.753 3  24555743.809
 115608985.496 5  21999663.258
 19  9  1  7 51  0.0000000  0 10G04G10G15G16G20G21G25G26G27G29
 120814680.963 3  22990268.690
 117686708.476 5  22395034.143
 124216622.790 4  23637637.336
 116234701.913 5  22118729.155
 108177529.311 5  20585497.973
 111759825.362 5  21267188.116
 128778378.379 3  24505719.067
 110960087.805 5  21115003.078
 128952435.562 3  24538833.107
 115661649.100 5  22009684.623
